     3.03           OBSERVATION DATA    M: Mixed            RINEX VERSION / TYPE
RTKCONV demo5 b31                       20190311 191450 UTC PGM / RUN BY / DATE 
log: C:\data\WGI-larrysanders\2019\0311\GPS\UAS\GP184856.R  COMMENT             
format: ComNav                                              COMMENT             
                                                            MARKER NAME         
                                                            MARKER NUMBER       
                                                            MARKER TYPE         
                                                            OBSERVER / AGENCY   
                                                            REC # / TYPE / VERS 
                                                            ANT # / TYPE        
   748680.4720 -5591274.6072  2966177.8251                  APPROX POSITION XYZ 
        0.0000        0.0000        0.0000                  ANTENNA: DELTA H/E/N
G   12 C1C L1C D1C S1C C2D L2D D2D S2D C2X L2X D2X S2X      SYS / # / OBS TYPES 
R    8 C1C L1C D1C S1C C2C L2C D2C S2C                      SYS / # / OBS TYPES 
S    4 C1C L1C D1C S1C                                      SYS / # / OBS TYPES 
  2019     3    11    18    49   15.5000000     GPS         TIME OF FIRST OBS   
  2019     3    11    19     3   59.0000000     GPS         TIME OF LAST OBS    
G                                                           SYS / PHASE SHIFT   
R                                                           SYS / PHASE SHIFT   
S                                                           SYS / PHASE SHIFT   
  0                                                         GLONASS SLOT / FRQ #
 C1C    0.000 C1P    0.000 C2C    0.000 C2P    0.000        GLONASS COD/PHS/BIS 
                                                            END OF HEADER       
> 2019  3 11 18 49 15.5000000  0  9                     
G23                                                        48.000                                                                                                                                  
G 8  21153198.555   109047617.910        2394.582          46.000                                                                                                                                  
G16  21336173.102   109149170.312       -2324.891          46.000                                                                                                                                  
G 9  21624200.156   117441495.988        2149.879          46.000                                                                                                                                  
G26  23425153.320   125935756.461       -2761.395          43.000                                                                                                                                  
G 7                                                        46.000                                                                                                                                  
G 3  24396964.648   125931782.246       -2576.168          38.000                                                                                                                                  
G31  25129876.078   134324118.496       -2167.809          44.000                                                                                                                                  
S25                                                        42.000  
> 2019  3 11 18 49 16.0000000  0 10                     
G23                                                        47.000                                                                                                                                  
G 8  21152970.680   109046454.004        2394.172          46.000    21152981.477    83914706.719        1865.637          34.000    21152983.188    84396581.719        1865.512          45.000  
G16  21336394.359   109150365.457       -2325.012          45.000    21336401.070    84015724.160       -1811.668          33.000                                                                  
G 9  21623995.633   117440454.113        2150.219          46.000    21624006.352    92308541.6171       1675.512          35.000                                                                  
G26  23425415.922   125937169.453       -2760.688          43.000    23425426.961    92413776.4961      -2151.148          31.000    23425427.914    92796319.477       -2151.066          43.000  
G 7                                                        46.000                                                          29.000                                1                         40.000  
G 3  24397209.250   125933102.996       -2577.027          39.000    24397222.555   100798479.367       -2008.113          26.000    24397224.539   101184604.332       -2007.363          42.000  
G31  25130082.359   134325234.902       -2167.613          43.000    25130088.844   100765425.2732      -1689.125          25.000                                                                  
S31                              2                         46.000  
S25                                                        42.000  
> 2019  3 11 18 49 31.0000000  0 11                     
G23  20444035.039   109084763.215         379.918          48.000    20444041.844    83962970.043         296.051          37.000                                                                  
G27                              1                         49.000                                1                         40.000                                1                         48.000  
G 8  21146148.938   109010640.160        2386.375          46.000    21146161.141    83886799.832        1859.523          36.000    21146161.352    84368674.812        1859.504          47.000  
G16  21343035.688   109185304.656       -2328.598          46.000    21343043.367    84042949.535       -1814.508          34.000                                                                  
G 9  21617869.836   117408300.840        2142.395          46.000    21617880.672    92283487.133        1669.414          37.000    21617880.703    84372086.109        1669.398          48.000  
G26  23433297.047   125978620.430       -2761.035          43.000    23433308.578    92446075.969       -2151.531          32.000    23433309.164    92828618.934       -2151.434          45.000  
G 7                                                        47.000                                                          31.000                                                          42.000  
G 3  24404562.125   125971775.832       -2575.312          40.000    24404576.953   100828613.992       -2006.801          27.000    24404577.320   101214738.953       -2006.320          45.000  
S31                              1                         45.000  
S25                                                        42.000  
S33                              1                         41.000  
> 2019  3 11 18 49 32.0000000  0 11                     
G23  20443962.734   109084383.031         379.492          48.000    20443969.492    83962673.789         295.715          37.000                                                                  
G27                                                        49.000                                                          40.000                                                          48.000  
G 8  21145694.789   109008253.668        2385.699          46.000    21145706.969    83884940.211        1858.988          36.000    21145707.328    84366815.203        1859.086          47.000  
G16  21343478.688   109187632.652       -2328.688          46.000    21343486.297    84044763.539       -1814.543          34.000                                                                  
G 9  21617462.055   117406158.254        2141.746          46.000    21617472.930    92281817.582        1668.867          37.000    21617472.922    84370416.559        1669.121          48.000  
G26  23433822.523   125981380.797       -2760.988          44.000    23433833.852    92448226.895       -2151.492          32.000    23433834.141    92830769.863       -2151.199          46.000  
G 7                                                        46.000                                                          31.000                                                          42.000  
G 3  24405052.367   125974350.434       -2575.152          40.000    24405066.766   100830620.164       -2006.633          28.000    24405067.156   101216745.145       -2006.406          45.000  
S31                                                        46.000  
S25                                                        42.000  
S33                                                        42.000  
> 2019  3 11 18 49 33.0000000  0 11                     
G23  20443890.609   109084003.750         378.797          48.000    20443897.344    83962378.250         295.148          37.000                                                                  
G27                                                        49.000                                                          40.000                                                          48.000  
G 8  21145240.891   109005867.902        2385.652          46.000    21145252.891    83883081.176        1858.949          36.000    21145253.070    84364956.180        1858.488          47.000  
G16  21343921.812   109189961.094       -2328.730          46.000    21343929.383    84046577.930       -1814.648          34.000                                                                  
G 9  21617054.656   117404016.391        2141.422          46.000    21617065.297    92280148.602        1668.621          37.000    21617065.586    84368747.586        1668.625          48.000  
G26  23434347.617   125984141.387       -2760.715          44.000    23434359.156    92450377.992       -2151.172          32.000    23434359.867    92832920.984       -2151.359          46.000  
G 7                                                        47.000                                                          31.000                                                          42.000  
G 3  24405541.977   125976925.184       -2575.172          39.000    24405556.805   100832626.461       -2006.660          28.000    24405557.562   101218751.453       -2006.574          45.000  
S31                                                        46.000  
S25                                                        42.000  
S33                                                        42.000  
> 2019  3 11 18 49 34.0000000  0 11                     
G23  20443818.570   109083625.852         377.723          48.000    20443825.461    83962083.793         294.371          38.000                                                                  
G27                                                        49.000                                                          40.000                                                          48.000  
G 8  21144787.242   109003483.418        2384.652          46.000    21144799.070    83881223.141        1858.184          36.000    21144799.469    84363098.133        1857.887          47.000  
G16  21344365.188   109192290.496       -2329.559          46.000    21344372.648    84048393.043       -1815.207          34.000                                                                  
G 9  21616647.062   117401875.770        2140.520          46.000    21616657.922    92278480.598        1667.930          37.000    21616658.219    84367079.570        1668.012          48.000  
G26  23434873.305   125986902.695       -2760.953          44.000    23434884.656    92452529.660       -2151.355          32.000    23434885.680    92835072.656       -2151.723          46.000  
G 7                                                        46.000                                                          31.000                                                          41.000  
G 3  24406031.664   125979500.617       -2575.121          40.000    24406046.977   100834633.297       -2006.578          28.000    24406047.117   101220758.266       -2006.629          45.000  
S31                                                        46.000  
S25                                                        42.000  
S33                                                        43.000  
> 2019  3 11 18 49 35.0000000  0 11                     
G23  20443746.781   109083248.961         377.516          48.000    20443753.688    83961790.109         294.176          38.000                                                                  
G27                                                        49.000                                                          40.000                                                          48.000  
G 8  21144333.445   109001099.789        2384.402          46.000    21144345.430    83879365.773        1857.977          36.000    21144346.180    84361240.762        1857.844          47.000  
G16  21344808.734   109194620.441       -2329.090          47.000    21344815.992    84050208.586       -1814.879          34.000                                                                  
G 9  21616240.047   117399735.996        2140.543          46.000    21616250.703    92276813.238        1667.934          37.000    21616250.938    84365412.230        1667.910          48.000  
G26  23435398.594   125989664.355       -2760.551          44.000    23435410.164    92454681.602       -2151.094          32.000    23435410.531    92837224.602       -2151.336          46.000  
G 7                                                        46.000                                                          31.000                                                          42.000  
G 3  24406521.703   125982076.289       -2575.180          40.000    24406537.109   100836640.320       -2006.629          28.000    24406537.336   101222765.293       -2006.098          45.000  
S31                                                        46.000  
S25                                                        43.000  
S33                                                        43.000  
> 2019  3 11 18 49 36.0000000  0 11                     
G23  20443674.953   109082871.895         376.742          48.000    20443681.891    83961496.293         293.516          38.000                                                                  
G27                                                        49.000                                                          40.000                                                          48.000  
G 8  21143879.672   108998715.848        2383.926          46.000    21143891.742    83877508.160        1857.574          36.000    21143892.453    84359383.148        1857.488          47.000  
G16  21345251.977   109196949.773       -2329.480          46.000    21345259.195    84052023.648       -1815.172          34.000                                                                  
G 9  21615832.734   117397595.918        2139.836          46.000    21615843.414    92275145.641        1667.418          37.000    21615843.789    84363744.621        1667.340          48.000  
G26  23435923.945   125992425.176       -2760.980          44.000    23435935.523    92456832.914       -2151.457          32.000    23435935.945    92839375.887       -2151.242          46.000  
G 7                                                        46.000                                                          30.000                                                          42.000  
G 3  24407011.461   125984651.055       -2574.727          39.000    24407027.125   100838646.637       -2006.230          27.000    24407027.305   101224771.613       -2006.395          45.000  
S31                                                        46.000  
S25                                                        42.000  
S33                                                        43.000  
> 2019  3 11 18 49 37.0000000  0 11                     
G23  20443603.570   109082496.020         375.512          48.000    20443610.289    83961203.402         292.582          38.000                                                                  
G27                                                        49.000                                                          39.000                                                          48.000  
G 8  21143426.492   108996332.953        2382.629          46.000    21143438.242    83875651.363        1856.566          36.000    21143438.773    84357526.352        1856.805          47.000  
G16  21345695.289   109199279.844       -2330.117          47.000    21345702.578    84053839.289       -1815.695          34.000                                                                  
G 9  21615425.695   117395456.852        2138.957          47.000    21615436.320    92273478.852        1666.711          37.000    21615436.766    84362077.828        1666.660          48.000  
G26  23436449.633   125995186.508       -2760.965          44.000    23436461.102    92458984.598       -2151.414          32.000    23436461.312    92841527.570       -2151.426          45.000  
G 7                                                        46.000                                                          31.000                                                          42.000  
G 3  24407501.008   125987226.277       -2575.059          38.000    24407517.250   100840653.297       -2006.531          27.000    24407517.516   101226778.301       -2006.664          45.000  
S31                                                        45.000  
S25                                                        42.000  
S33                                                        42.000  
> 2019  3 11 18 49 38.0000000  0 11                     
G23  20443532.492   109082121.527         375.004          48.000    20443539.016    83960911.578         292.219          38.000                                                                  
G27                                                        49.000                                                          40.000                                                          48.000  
G 8  21142972.844   108993951.309        2382.180          46.000    21142984.945    83873795.539        1856.262          36.000    21142985.141    84355670.527        1856.160          47.000  
G16  21346138.898   109201610.875       -2330.332          46.000    21346146.156    84055655.664       -1815.852          34.000                                                                  
G 9  21615019.031   117393319.031        2138.605          46.000    21615029.500    92271813.004        1666.465          37.000    21615029.781    84360411.992        1666.277          48.000  
G26  23436975.367   125997948.602       -2761.301          44.000    23436986.797    92461136.855       -2151.668          32.000    23436987.141    92843679.840       -2151.566          46.000  
G 7                                                        47.000                                                          31.000                                                          42.000  
G 3  24407991.375   125989802.160       -2574.637          39.000    24408007.617   100842660.477       -2006.172          26.000    24408007.516   101228785.465       -2006.570          45.000  
S31                                                        46.000  
S25                                                        42.000  
S33                                                        43.000  
> 2019  3 11 18 49 39.0000000  0 11                     
G23  20443461.016   109081747.473         375.500          48.000    20443467.750    83960620.109         292.621          38.000                                                                  
G27                                                        49.000                                                          40.000                                                          48.000  
G 8  21142519.414   108991569.961        2382.695          46.000    21142531.750    83871939.941        1856.664          36.000    21142532.359    84353814.934        1856.625          47.000  
G16  21346582.312   109203941.902       -2329.461          46.000    21346589.711    84057472.039       -1815.176          33.000                                                                  
G 9  21614612.430   117391181.500        2139.043          46.000    21614622.711    92270147.395        1666.758          37.000    21614623.414    84358746.379        1666.707          48.000  
G26  23437499.992   126000710.434       -2760.309          43.000    23437512.250    92463288.934       -2150.852          32.000    23437512.641    92845831.918       -2150.660          45.000  
G 7                                                        46.000                                                          30.000                                                          42.000  
G 3  24408481.297   125992377.770       -2574.684          38.000    24408497.727   100844667.457       -2006.250          27.000    24408497.344   101230792.430       -2005.676          45.000  
S31                                                        46.000  
S25                                                        42.000  
S33                                                        43.000  
> 2019  3 11 18 49 40.0000000  0 11                     
G23  20443390.031   109081373.781         374.012          48.000    20443396.578    83960328.914         291.441          37.000                                                                  
G27                                                        49.000                                                          40.000                                                          48.000  
G 8  21142066.281   108989188.828        2381.504          46.000    21142078.617    83870084.512        1855.711          36.000    21142079.258    84351959.496        1855.551          47.000  
G16  21347025.883   109206272.844       -2330.613          46.000    21347033.242    84059288.367       -1816.098          33.000                                                                  
G 9  21614205.539   117389044.172        2137.570          46.000    21614215.977    92268481.945        1665.629          37.000    21614216.188    84357080.930        1665.578          48.000  
G26  23438025.414   126003471.965       -2761.164          43.000    23438037.805    92465440.773       -2151.551          31.000    23438038.516    92847983.746       -2151.434          45.000  
G 7                                                        46.000                                                          30.000                                                          42.000  
G 3  24408971.680   125994952.965       -2574.258          40.000    24408987.688   100846674.086       -2005.926          26.000    24408987.984   101232799.070       -2006.281          45.000  
S31                                                        46.000  
S25                                                        42.000  
S33                                                        43.000  
> 2019  3 11 18 49 41.0000000  0 11                     
G23  20443318.891   109080999.137         373.703          48.000    20443325.242    83960036.988         291.188          37.000                                                                  
G27                                                        49.000                                                          40.000                                                          49.000  
G 8  21141613.266   108986806.594        2380.902          46.000    21141625.273    83868228.223        1855.219          36.000    21141625.742    84350103.219        1855.512          47.000  
G16  21347469.336   109208602.379       -2330.418          46.000    21347476.547    84061103.598       -1815.898          33.000                                                                  
G 9  21613798.852   117386905.727        2137.375          47.000    21613808.992    92266815.613        1665.480          37.000    21613809.516    84355414.609        1665.582          48.000  
G26  23438550.680   126006231.867       -2760.648          43.000    23438563.000    92467591.352       -2151.152          31.000    23438563.180    92850134.340       -2151.199          45.000  
G 7                                                        46.000                                                          31.000                                                          42.000  
G 3  24409461.625   125997526.516       -2574.504          38.000    24409477.289   100848679.445       -2006.203          27.000    24409477.430   101234804.426       -2005.930          45.000  
S31                                                        46.000  
S25                                                        42.000  
S33                                                        43.000  
> 2019  3 11 18 49 42.0000000  0 11                     
G23  20443248.023   109080626.133         372.781          48.000    20443254.203    83959746.336         290.500          38.000                                                                  
G27                                                        49.000                                                          40.000                                                          49.000  
G 8  21141160.133   108984425.875        2380.879          46.000    21141172.250    83866373.129        1855.270          36.000    21141172.531    84348248.117        1855.094          47.000  
G16  21347912.945   109210933.113       -2330.648          46.000    21347920.164    84062919.754       -1816.051          34.000                                                                  
G 9  21613392.156   117384768.777        2137.047          47.000    21613402.320    92265150.469        1665.230          37.000    21613402.406    84353749.457        1665.055          48.000  
G26  23439076.758   126008992.754       -2760.457          43.000    23439088.383    92469742.695       -2150.957          31.000    23439088.906    92852285.684       -2151.121          45.000  
G 7                                                        47.000                                                          30.000                                                          42.000  
G 3  24409950.883   126000100.977       -2574.555          39.000    24409966.984   100850685.547       -2006.184          27.000    24409967.125   101236810.477       -2005.727          45.000  
S31                                                        46.000  
S25                                                        42.000  
S33                                                        43.000  
> 2019  3 11 18 49 43.0000000  0 11                     
G23  20443177.172   109080252.891         372.480          48.000    20443183.102    83959455.500         290.254          38.000                                                                  
G27                                                        49.000                                                          40.000                                                          48.000  
G 8  21140706.836   108982044.762        2380.418          46.000    21140719.016    83864517.715        1854.863          36.000    21140719.844    84346392.703        1854.652          47.000  
G16  21348356.180   109213263.145       -2330.445          46.000    21348363.516    84064735.359       -1815.953          34.000                                                                  
G 9  21612985.367   117382631.422        2136.785          46.000    21612995.555    92263485.004        1664.984          37.000    21612996.156    84352083.984        1664.938          48.000  
G26  23439601.602   126011752.762       -2760.816          43.000    23439613.523    92471893.352       -2151.242          31.000    23439613.773    92854436.312       -2151.055          45.000  
G 7                                                        47.000                                                          31.000                                                          42.000  
G 3  24410440.875   126002674.402       -2574.059          39.000    24410456.641   100852690.793       -2005.754          27.000    24410456.805   101238815.750       -2005.668          45.000  
S31                                                        46.000  
S25                                                        42.000  
S33                                                        43.000  
> 2019  3 11 18 49 44.0000000  0 11                     
G23  20443106.344   109079881.539         371.965          48.000    20443112.398    83959166.121         289.871          38.000                                                                  
G27                                                        49.000                                                          40.000                                                          47.000  
G 8  21140254.164   108979665.410        2379.918          46.000    21140266.156    83862663.672        1854.492          36.000    21140266.742    84344538.668        1854.434          46.000  
G16  21348799.852   109215594.637       -2330.789          46.000    21348807.250    84066552.102       -1816.176          34.000                                                                  
G 9  21612578.789   117380495.820        2136.141          46.000    21612589.172    92261820.887        1664.500          37.000    21612589.727    84350419.871        1664.395          47.000  
G26  23440126.547   126014513.949       -2760.457          42.000    23440138.977    92474044.914       -2151.055          31.000    23440139.617    92856587.898       -2150.941          44.000  
G 7                                                        47.000                                                          31.000                                                          40.000  
G 3  24410930.852   126005249.023       -2574.113          38.000    24410946.680   100854696.973       -2005.789          27.000    24410946.672   101240821.938       -2005.598          43.000  
S31                                                        46.000  
S25                                                        42.000  
S33                                                        43.000  
> 2019  3 11 18 49 45.0000000  0 11                     
G23  20443035.898   109079511.816         370.820          48.000    20443041.977    83958878.035         288.969          37.000                                                                  
G27                                                        49.000                                                          40.000                                                          49.000  
G 8  21139801.438   108977287.547        2379.348          46.000    21139813.617    83860810.789        1854.008          35.000    21139814.672    84342685.785        1853.773          47.000  
G16  21349243.805   109217927.281       -2331.250          46.000    21349251.094    84068369.746       -1816.559          33.000                                                                  
G 9  21612172.523   117378361.684        2135.348          47.000    21612183.031    92260157.922        1663.938          37.000    21612183.617    84348756.906        1664.117          48.000  
G26  23440652.008   126017276.102       -2760.633          43.000    23440664.625    92476197.246       -2151.102          31.000    23440664.820    92858740.238       -2151.090          46.000  
G 7                                                        47.000                                                          30.000                                                          42.000  
G 3  24411421.117   126007824.559       -2574.043          40.000    24411436.727   100856703.848       -2005.711          26.000    24411436.867   101242828.809       -2005.488          45.000  
S31                                                        46.000  
S25                                                        42.000  
S33                                                        43.000  
> 2019  3 11 18 49 46.0000000  0 11                     
G23  20442965.492   109079142.344         370.219          48.000    20442971.664    83958590.133         288.488          38.000                                                                  
G27                                                        49.000                                                          40.000                                                          49.000  
G 8  21139349.461   108974909.793        2378.590          47.000    21139361.031    83858958.000        1853.445          36.000    21139362.367    84340832.988        1853.344          47.000  
G16  21349687.758   109220259.742       -2331.605          46.000    21349694.930    84070187.258       -1816.828          34.000                                                                  
G 9  21611766.492   117376227.648        2134.742          46.000    21611776.867    92258495.043        1663.469          37.000    21611777.445    84347094.023        1663.613          48.000  
G26  23441178.000   126020037.863       -2761.055          42.000    23441190.086    92478349.273       -2151.496          31.000    23441190.508    92860892.254       -2151.574          45.000  
G 7                                                        47.000                                                          31.000                                                          42.000  
G 3  24411910.758   126010399.523       -2573.633          39.000    24411926.609   100858710.332       -2005.422          26.000    24411927.203   101244835.320       -2005.547          45.000  
S31                                                        46.000  
S25                                                        42.000  
S33                                                        43.000  
> 2019  3 11 18 49 47.0000000  0 12                     
G23  20442895.062   109078770.453         369.465          48.000    20442900.852    83958300.352         287.848          38.000                                                                  
G27                                                        49.000                                                          40.000                                                          48.000  
G 8  21138896.500   108972529.488        2377.719          47.000    21138908.000    83857103.219        1852.738          36.000    21138909.281    84338978.203        1853.117          47.000  
G16  21350130.883   109222589.340       -2331.816          46.000    21350138.250    84072002.527       -1817.051          34.000                                                                  
G 9  21611360.008   117374091.043        2134.242          46.000    21611370.258    92256830.156        1663.008          37.000    21611370.906    84345429.141        1663.031          48.000  
G26  23441702.875   126022796.527       -2760.703          42.000    23441714.992    92480498.879       -2151.184          30.000    23441715.719    92863041.867       -2151.309          45.000  
G 7                                                        47.000                                                          31.000                                                          42.000  
G 3  24412400.250   126012971.395       -2573.961          38.000    24412415.836   100860714.379       -2005.660          26.000    24412416.492   101246839.375       -2005.742          45.000  
S31                                                        46.000  
S25                                                        42.000  
S38                              1                         45.000  
S33                                                        43.000  
> 2019  3 11 18 49 48.0000000  0 12                     
G23  20442825.070   109078404.219         368.867          48.000    20442831.109    83958014.977         287.441          38.000                                                                  
G27                                                        49.000                                                          40.000                                                          48.000  
G 8  21138444.688   108970154.684        2377.574          47.000    21138455.984    83855252.715        1852.648          36.000    21138457.070    84337127.707        1852.734          47.000  
G16  21350575.188   109224924.137       -2331.887          46.000    21350582.500    84073821.859       -1816.980          34.000                                                                  
G 9  21610954.398   117371959.926        2133.914          46.000    21610964.664    92255169.547        1662.809          37.000    21610965.242    84343768.531        1662.977          48.000  
G26  23442228.984   126025560.180       -2760.500          43.000    23442240.898    92482652.371       -2151.008          31.000    23442241.836    92865195.348       -2150.914          46.000  
G 7                                                        47.000                                                          31.000                                                          42.000  
G 3  24412890.484   126015548.164       -2573.910          39.000    24412906.016   100862722.254       -2005.641          26.000    24412906.734   101248847.250       -2005.531          45.000  
S31                                                        46.000  
S25                                                        42.000  
S38                                                        45.000  
S33                                                        43.000  
> 2019  3 11 18 49 49.0000000  0 12                     
G23  20442754.570   109078033.902         368.523          48.000    20442760.625    83957726.410         287.168          38.000                                                                  
G27  20545645.242   109076917.945         386.508          49.000    20545655.141    83952831.543         301.145          40.000    20545655.844    84390676.531         301.176          48.000  
G 8  21137992.211   108967775.648        2377.613          47.000    21138003.234    83853398.922        1852.676          36.000    21138004.234    84335273.918        1852.586          47.000  
G16  21351018.633   109227254.410       -2331.793          46.000    21351025.969    84075637.648       -1816.992          34.000                                                                  
G 9  21610548.180   117369824.578        2133.738          46.000    21610558.289    92253505.641        1662.609          37.000    21610559.133    84342104.621        1662.680          48.000  
G26  23442753.891   126028319.078       -2760.121          43.000    23442765.992    92484802.160       -2150.723          32.000    23442766.586    92867345.152       -2150.867          46.000  
G 7  23971361.195   125755447.754        2403.945          47.000    23971369.609   100614325.328        1873.164          31.000    23971370.242   101112294.316        1873.234          42.000  
G 3  24413378.695   126018120.156       -2574.141          39.000    24413395.562   100864726.406       -2005.867          26.000    24413395.750   101250851.371       -2005.109          44.000  
S31                                                        46.000  
S25                                                        42.000  
S38                                                        45.000  
S33                                                        43.000  
> 2019  3 11 18 49 50.0000000  0 12                     
G23  20442685.023   109077667.711         367.273          48.000    20442690.930    83957441.070         286.207          37.000                                                                  
G27  20545572.234   109076533.895         385.250          49.000    20545582.000    83952532.273         300.191          40.000    20545582.609    84390377.266         300.113          48.000  
G 8  21137540.125   108965400.625        2376.387          47.000    21137551.219    83851548.250        1851.719          36.000    21137552.172    84333423.242        1851.723          47.000  
G16  21351462.703   109229588.348       -2332.395          47.000    21351470.148    84077456.305       -1817.453          34.000                                                                  
G 9  21610142.875   117367693.203        2132.555          46.000    21610152.711    92251844.836        1661.730          36.000    21610153.594    84340443.816        1661.922          48.000  
G26  23443279.727   126031081.434       -2760.867          43.000    23443291.648    92486954.637       -2151.309          31.000    23443292.180    92869497.637       -2151.344          45.000  
G 7  23970904.086   125753045.953        2403.168          46.000    23970912.539   100612453.785        1872.590          31.000    23970913.711   101110422.770        1872.895          42.000  
G 3  24413868.906   126020695.496       -2573.441          38.000    24413885.461   100866733.121       -2005.336          25.000    24413886.359   101252858.133       -2005.668          45.000  
S31                                                        46.000  
S25                                                        42.000  
S38                                                        45.000  
S33                                                        43.000  
> 2019  3 11 18 49 51.0000000  0 12                     
G23  20442615.086   109077299.477         366.004          48.000    20442620.797    83957154.129         285.211          38.000                                                                  
G27  20545498.852   109076147.867         383.820          49.000    20545508.508    83952231.477         299.102          40.000    20545509.164    84390076.465         299.121          48.000  
G 8  21137087.609   108963023.414        2375.102          47.000    21137098.852    83849695.867        1850.762          36.000    21137099.984    84331570.863        1850.652          47.000  
G16  21351906.727   109231919.797       -2333.480          46.000    21351913.758    84079273.004       -1818.270          35.000                                                                  
G 9  21609736.648   117365559.629        2131.457          46.000    21609746.727    92250182.297        1660.945          37.000    21609747.359    84338781.270        1661.055          48.000  
G26  23443804.828   126033841.086       -2761.402          43.000    23443816.875    92489105.016       -2151.734          32.000    23443817.484    92871648.012       -2152.031          46.000  
G 7  23970446.711   125750641.332        2402.812          47.000    23970454.859   100610580.055        1872.332          31.000    23970455.414   101108549.066        1872.078          42.000  
G 3  24414359.000   126023268.027       -2573.137          37.000    24414374.828   100868737.699       -2004.973          26.000    24414375.797   101254862.715       -2006.047          45.000  
S31                                                        46.000  
S25                                                        42.000  
S38                                                        45.000  
S33                                                        43.000  
> 2019  3 11 18 49 52.0000000  0 12                     
G23  20442544.914   109076931.367         366.961          48.000    20442550.750    83956867.301         285.961          38.000                                                                  
G27  20545425.508   109075762.031         384.812          49.000    20545435.047    83951930.832         299.887          40.000    20545436.031    84389775.812         299.719          48.000  
G 8  21136635.266   108960646.211        2375.910          46.000    21136646.469    83847843.508        1851.363          36.000    21136647.461    84329718.484        1851.641          47.000  
G16  21352350.180   109234250.957       -2332.289          47.000    21352357.320    84081089.492       -1817.371          34.000                                                                  
G 9  21609330.633   117363426.035        2132.410          46.000    21609340.672    92248519.750        1661.637          37.000    21609341.469    84337118.730        1661.906          48.000  
G26  23444330.094   126036600.223       -2759.953          43.000    23444341.922    92491254.996       -2150.605          32.000    23444342.539    92873797.973       -2150.527          45.000  
G 7  23969989.172   125748236.168        2404.379          47.000    23969997.023   100608705.910        1873.562          31.000    23969997.719   101106674.898        1873.793          42.000  
G 3  24414848.664   126025840.074       -2573.746          38.000    24414864.312   100870741.887       -2005.676          26.000    24414865.008   101256866.832       -2004.715          45.000  
S31                                                        46.000  
S25                                                        42.000  
S38                                                        45.000  
S33                                                        43.000  
> 2019  3 11 18 49 53.0000000  0 12                     
G23  20442475.219   109076565.070         365.496          48.000    20442481.039    83956581.879         284.824          38.000                                                                  
G27  20545352.492   109075378.082         382.973          49.000    20545361.977    83951631.652         298.438          40.000    20545362.391    84389476.633         298.422          48.000  
G 8  21136183.039   108958270.656        2374.691          46.000    21136194.430    83845992.430        1850.430          36.000    21136195.852    84327867.418        1850.328          47.000  
G16  21352793.992   109236583.449       -2333.102          46.000    21352801.164    84082907.020       -1818.004          34.000                                                                  
G 9  21608924.984   117361294.098        2131.176          46.000    21608934.906    92246858.523        1660.656          37.000    21608935.914    84335457.508        1660.496          48.000  
G26  23444855.344   126039360.477       -2760.875          43.000    23444867.188    92493405.852       -2151.324          32.000    23444867.938    92875948.820       -2151.297          45.000  
G 7  23969531.398   125745832.105        2403.391          47.000    23969539.484   100606832.621        1872.848          31.000    23969540.250   101104801.590        1872.980          42.000  
G 3  24415338.133   126028413.059       -2572.992          38.000    24415353.867   100872746.785       -2004.953          26.000    24415355.297   101258871.793       -2005.441          45.000  
S31                                                        46.000  
S25                                                        42.000  
S38                                                        46.000  
S33                                                        43.000  
> 2019  3 11 18 49 54.0000000  0 12                     
G23  20442405.383   109076199.062         365.012          48.000    20442411.383    83956296.680         284.418          38.000                                                                  
G27  20545279.391   109074994.469         382.711          49.000    20545288.930    83951332.738         298.230          40.000    20545289.758    84389177.723         298.137          48.000  
G 8  21135731.219   108955895.262        2374.574          46.000    21135742.406    83844141.477        1850.332          36.000    21135743.586    84326016.449        1850.516          47.000  
G16  21353237.828   109238915.789       -2333.102          46.000    21353244.953    84084724.426       -1817.980          34.000                                                                  
G 9  21608519.180   117359162.293        2131.004          46.000    21608529.289    92245197.387        1660.543          37.000    21608530.500    84333796.367        1660.492          47.000  
G26  23445380.297   126042120.352       -2760.457          43.000    23445392.367    92495556.402       -2151.031          32.000    23445392.695    92878099.375       -2150.840          45.000  
G 7  23969073.680   125743427.586        2403.512          46.000    23969081.945   100604958.953        1872.824          31.000    23969082.633   101102927.941        1873.281          42.000  
G 3  24415828.234   126030985.664       -2573.086          38.000    24415843.477   100874751.422       -2004.984          27.000    24415844.523   101260876.418       -2005.262          45.000  
S31                                                        45.000  
S25                                                        42.000  
S38                                                        45.000  
S33                                                        43.000  
> 2019  3 11 18 49 55.0000000  0 12                     
G23  20442335.914   109075834.227         363.883          48.000    20442341.969    83956012.391         283.562          38.000                                                                  
G27  20545206.727   109074612.090         381.469          49.000    20545216.164    83951034.773         297.258          40.000    20545216.906    84388879.762         297.371          48.000  
G 8  21135279.156   108953520.871        2374.031          46.000    21135290.602    83842291.297        1849.895          36.000    21135292.297    84324166.301        1849.582          47.000  
G16  21353681.898   109241248.840       -2333.543          46.000    21353688.906    84086542.375       -1818.355          34.000                                                                  
G 9  21608113.828   117357031.504        2130.066          46.000    21608123.820    92243537.031        1659.812          37.000    21608124.602    84332136.012        1659.898          48.000  
G26  23445905.812   126044880.734       -2760.629          44.000    23445917.648    92497707.340       -2151.160          32.000    23445918.398    92880250.332       -2151.590          45.000  
G 7  23968616.570   125741023.484        2403.938          47.000    23968624.406   100603085.625        1873.207          31.000    23968625.883   101101054.625        1873.180          41.000  
G 3  24416318.203   126033558.680       -2573.375          39.000    24416333.086   100876756.359       -2005.262          27.000    24416334.484   101262881.363       -2005.523          45.000  
S31                                                        46.000  
S25                                                        43.000  
S38                                                        46.000  
S33                                                        43.000  
> 2019  3 11 18 49 56.0000000  0 12                     
G23  20442266.305   109075467.957         363.926          48.000    20442272.242    83955726.980         283.570          37.000                                                                  
G27  20545133.414   109074228.344         381.336          49.000    20545143.055    83950735.754         297.148          40.000    20545143.844    84388580.727         297.266          48.000  
G 8  21134827.016   108951144.961        2373.656          46.000    21134838.477    83840439.938        1849.613          36.000    21134839.781    84322314.918        1849.562          47.000  
G16  21354125.156   109243580.031       -2333.473          46.000    21354132.492    84088358.895       -1818.309          34.000                                                                  
G 9  21607708.250   117354899.137        2129.996          47.000    21607718.008    92241875.426        1659.750          37.000    21607718.789    84330474.422        1659.652          48.000  
G26  23446430.625   126047639.027       -2760.473          44.000    23446442.492    92499856.656       -2151.035          32.000    23446443.594    92882399.629       -2150.949          46.000  
G 7  23968158.586   125738617.250        2404.148          47.000    23968166.430   100601210.660        1873.371          30.000    23968167.180   101099179.648        1873.492          41.000  
G 3  24416807.562   126036129.543       -2572.941          39.000    24416822.461   100878759.609       -2004.941          27.000    24416823.594   101264884.598       -2004.820          45.000  
S31                                                        46.000  
S25                                                        42.000  
S38                                                        46.000  
S33                                                        43.000  
> 2019  3 11 18 49 57.0000000  0 12                     
G23  20442197.078   109075104.352         362.949          48.000    20442203.070    83955443.664         282.805          38.000                                                                  
G27  20545061.031   109073847.336         380.238          49.000    20545070.516    83950438.867         296.277          40.000    20545071.180    84388283.840         296.426          48.000  
G 8  21134375.539   108948771.516        2373.789          46.000    21134386.844    83838590.496        1849.734          36.000    21134388.391    84320465.508        1849.055          47.000  
G16  21354569.289   109245913.422       -2333.762          46.000    21354576.539    84090177.121       -1818.520          34.000                                                                  
G 9  21607302.734   117352769.273        2129.309          47.000    21607312.742    92240215.797        1659.215          37.000    21607313.477    84328814.785        1659.297          48.000  
G26  23446956.086   126050399.301       -2760.539          43.000    23446967.805    92502007.516       -2151.082          32.000    23446968.680    92884550.488       -2150.820          45.000  
G 7  23967700.852   125736212.969        2404.215          47.000    23967708.914   100599337.203        1873.367          30.000    23967709.672   101097306.172        1873.645          41.000  
G 3  24417296.914   126038702.320       -2573.023          40.000    24417312.156   100880764.367       -2004.887          28.000    24417312.711   101266889.348       -2004.832          45.000  
S31                                                        46.000  
S25                                                        42.000  
S38                                                        46.000  
S33                                                        43.000  
> 2019  3 11 18 49 58.0000000  0 12                     
G23  20442127.891   109074740.977         362.078          48.000    20442133.891    83955160.504         282.141          38.000                                                                  
G27  20544988.625   109073466.602         379.262          49.000    20544998.039    83950142.184         295.527          40.000    20544999.016    84387987.164         295.594          48.000  
G 8  21133924.203   108946398.223        2372.312          46.000    21133935.219    83836741.184        1848.570          36.000    21133936.211    84318616.156        1848.676          47.000  
G16  21355013.445   109248246.598       -2334.094          46.000    21355020.547    84091995.184       -1818.746          34.000                                                                  
G 9  21606897.297   117350639.480        2128.598          47.000    21606907.445    92238556.227        1658.629          37.000    21606908.188    84327155.211        1658.617          48.000  
G26  23447481.086   126053159.121       -2760.566          43.000    23447493.031    92504158.031       -2151.082          32.000    23447493.562    92886701.012       -2151.094          46.000  
G 7  23967243.203   125733808.191        2404.168          47.000    23967251.258   100597463.332        1873.430          30.000    23967252.773   101095432.316        1873.266          41.000  
G 3  24417786.789   126041274.578       -2573.020          40.000    24417801.562   100882768.715       -2004.848          27.000    24417802.477   101268893.695       -2004.859          45.000  
S31                                                        45.000  
S25                                                        42.000  
S38                                                        46.000  
S33                                                        43.000  
> 2019  3 11 18 49 59.0000000  0 20                     
G23  20442059.070   109074379.117         361.879          48.000    20442064.984    83954878.543         281.969          37.000                                                                  
G27  20544916.359   109073087.449         379.191          49.000    20544925.859    83949846.746         295.477          39.000    20544926.969    84387691.727         295.441          48.000  
G 8  21133472.758   108944026.281        2372.336          46.000    21133483.852    83834892.918        1848.602          35.000    21133484.781    84316767.906        1848.434          47.000  
G16  21355457.703   109250580.832       -2333.891          46.000    21355464.664    84093814.062       -1818.605          34.000                                                                  
G 9  21606492.445   117348511.051        2128.664          47.000    21606502.422    92236897.715        1658.699          37.000    21606503.039    84325496.711        1658.410          48.000  
G26  23448006.586   126055919.812       -2760.301          44.000    23448018.328    92506309.219       -2150.887          32.000    23448018.938    92888852.203       -2150.770          45.000  
G 7  23966785.719   125731404.211        2404.594          47.000    23966793.781   100595590.090        1873.742          31.000    23966795.062   101093559.090        1873.379          41.000  
G 3  24418276.367   126043847.617       -2572.688          40.000    24418291.258   100884773.699       -2004.652          27.000    24418293.031   101270898.680       -2004.625          46.000  
R 6  20883693.406   109272751.613       -2932.121          40.000                                                                  
R18  21463472.148   117498106.309        -197.195          44.000    21463478.312    92329214.059        -153.441          43.000  
R 9  21348774.344   117423803.504         992.996          44.000    21348777.477    92272007.7541        772.020          44.000  
R16  21270284.328   117557492.113       -1132.074          39.000    21270288.586    92373868.824        -880.555          37.000  
R19  21494836.969   117408752.5431       3094.902          37.000    21494841.008    92265866.535        2407.766          39.000  
R17                              1                         40.000                                                          32.000  
R 7  21113313.320   109057671.6721        662.152          46.000    21113315.695    83904256.340         514.980          44.000  
R 8                              1                         38.000                                1                         32.000  
S31                                                        46.000  
S25                                                        42.000  
S38                                                        46.000  
S33                                                        43.000  
> 2019  3 11 18 50  0.0000000  0 20                     
G23  20441989.945   109074015.812         360.770          48.000    20441995.820    83954595.441         281.117          38.000                                                                  
G27  20544844.141   109072706.922         377.957          49.000    20544853.461    83949550.223         294.516          40.000    20544854.430    84387395.199         294.836          48.000  
G 8  21133020.977   108941652.746        2371.668          46.000    21133032.211    83833043.410        1848.043          36.000    21133033.711    84314918.406        1847.719          47.000  
G16  21355901.266   109252913.184       -2334.578          46.000    21355908.484    84095631.477       -1819.133          34.000                                                                  
G 9  21606087.109   117346381.023        2127.859          47.000    21606097.109    92235237.945        1658.094          37.000    21606097.555    84323836.945        1658.125          48.000  
G26  23448531.461   126058678.367       -2760.570          43.000    23448543.250    92508458.746       -2151.070          32.000    23448544.180    92891001.730       -2150.984          46.000  
G 7  23966327.922   125728998.043        2404.254          47.000    23966335.898   100593715.172        1873.426          31.000    23966337.250   101091684.152        1873.355          41.000  
G 3  24418766.195   126046418.461       -2572.676          40.000    24418780.484   100886776.953       -2004.680          28.000    24418781.883   101272901.926       -2004.793          46.000  
R 6  20884242.883   109275682.219       -2933.512          40.000                                                                  
R18  21463508.906   117498302.238        -198.664          43.000    21463515.320    92329366.449        -154.531          44.000  
R 9  21348588.195   117422809.355         992.113          44.000    21348591.422    92271234.516         771.648          44.000  
R16  21270496.125   117558622.598       -1132.766          39.000    21270500.078    92374748.074        -881.172          37.000  
R19  21494258.375   117405655.402        3094.688          38.000    21494261.953    92263457.668        2406.918          39.000  
R17                                                        40.000                                                          33.000  
R 7  21113189.734   109057008.566         660.602          46.000    21113192.016    83903740.598         513.801          44.000  
R 8                                                        38.000                                                          31.000  
S31                                                        46.000  
S25                                                        42.000  
S38                                                        46.000  
S33                                                        43.000  
> 2019  3 11 18 50  1.0000000  0 20                     
G23  20441921.445   109073655.727         360.996          48.000    20441927.258    83954314.848         281.316          37.000                                                                  
G27  20544772.273   109072329.668         378.129          49.000    20544781.664    83949256.270         294.660          40.000    20544782.469    84387101.242         294.719          49.000  
G 8  21132569.711   108939282.312        2371.445          46.000    21132581.203    83831196.316        1847.906          36.000    21132582.531    84313071.309        1847.844          48.000  
G16  21356345.812   109255248.301       -2333.996          46.000    21356352.875    84097451.051       -1818.629          34.000                                                                  
G 9  21605682.477   117344254.078        2128.035          47.000    21605692.359    92233580.594        1658.215          37.000    21605693.273    84322179.586        1658.137          48.000  
G26  23449056.867   126061439.504       -2760.320          44.000    23449068.734    92510610.277       -2150.895          32.000    23449069.273    92893153.254       -2150.531          46.000  
G 7  23965870.383   125726594.395        2404.945          47.000    23965878.523   100591842.195        1874.000          31.000    23965879.750   101089811.176        1874.223          42.000  
G 3  24419255.461   126048991.836       -2572.562          40.000    24419270.227   100888782.164       -2004.594          28.000    24419271.633   101274907.113       -2004.016          46.000  
R 6  20884792.836   109278615.961       -2932.883          40.000                                                                  
R18  21463546.219   117498501.641        -198.727          44.000    21463552.781    92329521.543        -154.543          44.000  
R 9  21348402.500   117421817.883         992.648          43.000    21348405.797    92270463.363         772.121          44.000  
R16  21270708.359   117559755.711       -1131.570          39.000    21270712.352    92375629.379        -880.152          37.000  
R19  21493679.852   117402561.316        3095.379          37.000    21493683.547    92261051.137        2407.441          39.000  
R17                                                        40.000                                                          33.000  
R 7  21113066.500   109056348.957         660.453          46.000    21113068.781    83903227.559         513.703          44.000  
R 8                                                        39.000                                                          31.000  
S31                                                        46.000  
S25                                                        42.000  
S38                                                        45.000  
S33                                                        43.000  
> 2019  3 11 18 50  2.0000000  0 20                     
G23  20441852.992   109073295.684         359.449          48.000    20441858.750    83954034.301         280.102          38.000                                                                  
G27  20544700.539   109071952.523         376.688          49.000    20544709.906    83948962.383         293.531          40.000    20544710.516    84386807.367         293.438          48.000  
G 8  21132118.594   108936911.770        2370.348          46.000    21132130.156    83829349.141        1847.051          36.000    21132131.656    84311224.129        1846.988          48.000  
G16  21356790.039   109257583.000       -2334.879          46.000    21356797.148    84099270.297       -1819.398          34.000                                                                  
G 9  21605277.492   117342127.004        2126.824          46.000    21605287.609    92231923.133        1657.273          37.000    21605288.172    84320522.121        1657.242          48.000  
G26  23449582.773   126064199.988       -2760.391          43.000    23449594.023    92512761.305       -2150.949          32.000    23449594.711    92895304.285       -2150.910          45.000  
G 7  23965413.031   125724190.039        2404.312          47.000    23965421.008   100589968.672        1873.496          31.000    23965422.438   101087937.664        1873.504          41.000  
G 3  24419745.062   126051564.441       -2572.543          40.000    24419759.859   100890786.777       -2004.609          28.000    24419761.281   101276911.766       -2004.891          46.000  
R 6  20885342.562   109281549.613       -2933.750          40.000                                                                  
R18  21463583.703   117498701.254        -199.863          43.000    21463590.148    92329676.793        -155.480          43.000  
R 9  21348216.727   117420825.832         992.129          44.000    21348220.211    92269691.781         771.332          44.000  
R16  21270920.367   117560888.207       -1131.812          39.000    21270924.133    92376510.215        -880.285          37.000  
R19  21493101.344   117399466.996        3094.266          37.000    21493105.125    92258644.438        2406.445          38.000  
R17                                                        40.000                                                          32.000  
R 7  21112943.391   109055689.582         659.117          46.000    21112945.609    83902714.711         512.664          44.000  
R 8                                                        39.000                                                          32.000  
S31                                                        46.000  
S25                                                        42.000  
S38                                                        46.000  
S33                                                        43.000  
> 2019  3 11 18 50  3.0000000  0 20                     
G23  20441784.664   109072937.082         359.215          48.000    20441790.508    83953754.879         279.875          38.000                                                                  
G27  20544629.125   109071576.895         376.137          49.000    20544638.406    83948669.688         293.094          40.000    20544639.359    84386514.672         293.211          48.000  
G 8  21131667.703   108934542.539        2370.234          46.000    21131679.320    83827502.988        1846.957          36.000    21131680.578    84309377.977        1846.793          47.000  
G16  21357234.195   109259918.699       -2334.816          46.000    21357241.727    84101090.328       -1819.312          34.000                                                                  
G 9  21604873.125   117340001.230        2126.293          47.000    21604883.117    92230266.688        1656.832          37.000    21604883.961    84318865.676        1656.906          48.000  
G26  23450107.828   126066961.266       -2760.207          43.000    23450119.414    92514912.945       -2150.777          32.000    23450119.656    92897455.922       -2150.875          45.000  
G 7  23964955.430   125721786.430        2404.438          47.000    23964963.586   100588095.742        1873.582          31.000    23964964.984   101086064.719        1873.887          42.000  
G 3  24420234.688   126054137.816       -2572.680          40.000    24420249.602   100892792.000       -2004.645          28.000    24420250.977   101278916.961       -2004.363          46.000  
R 6  20885892.602   109284484.648       -2934.438          40.000                                                                  
R18  21463621.375   117498902.559        -200.996          43.000    21463627.617    92329833.367        -156.336          43.000  
R 9  21348030.898   117419834.676         991.883          43.000    21348034.547    92268920.883         771.395          44.000  
R16  21271132.492   117562021.602       -1132.586          39.000    21271136.375    92377391.754        -880.926          37.000  
R19  21492522.414   117396373.832        3095.805          38.000    21492526.656    92256238.715        2406.137          38.000  
R17                                                        40.000                                                          33.000  
R 7  21112820.469   109055031.922         658.344          46.000    21112822.680    83902203.199         512.047          44.000  
R 8                                                        39.000                                                          32.000  
S31                                                        46.000  
S25                                                        42.000  
S38                                                        46.000  
S33                                                        43.000  
> 2019  3 11 18 50  4.0000000  0 20                     
G23  20441716.211   109072576.629         358.965          48.000    20441721.938    83953473.996         279.695          38.000                                                                  
G27  20544557.219   109071199.465         375.961          49.000    20544566.578    83948375.586         292.930          40.000    20544567.773    84386220.570         292.910          48.000  
G 8  21131216.500   108932171.332        2369.711          46.000    21131228.023    83825655.293        1846.500          36.000    21131229.289    84307530.266        1846.711          47.000  
G16  21357678.219   109262252.105       -2334.730          46.000    21357685.766    84102908.570       -1819.309          34.000                                                                  
G 9  21604468.336   117337873.441        2126.492          46.000    21604478.211    92228608.672        1657.020          37.000    21604478.977    84317207.660        1657.090          48.000  
G26  23450632.289   126069720.023       -2759.938          43.000    23450644.289    92517062.621       -2150.535          31.000    23450645.109    92899605.602       -2150.688          45.000  
G 7  23964497.742   125719380.230        2405.059          47.000    23964505.766   100586220.785        1874.023          31.000    23964505.875   101084189.766        1874.039          41.000  
G 3  24420724.055   126056708.574       -2572.223          40.000    24420738.820   100894795.172       -2004.324          28.000    24420740.023   101280920.145       -2004.074          45.000  
R 6  20886442.602   109287417.625       -2934.586          40.000                                                                  
R18  21463658.914   117499102.168        -201.184          43.000    21463664.789    92329988.621        -156.457          44.000  
R 9  21347844.727   117418841.059         992.398          43.000    21347848.648    92268148.051         771.938          44.000  
R16  21271344.133   117563152.457       -1132.027          40.000    21271347.930    92378271.305        -880.500          37.000  
R19  21491943.797   117393278.809        3092.469          38.000    21491947.820    92253831.363        2406.211          38.000  
R17                                                        39.000                                                          32.000  
R 7  21112697.320   109054372.566         657.926          46.000    21112699.383    83901690.371         511.699          44.000  
R 8                                                        39.000                                                          32.000  
S31                                                        46.000  
S25                                                        42.000  
S38                                                        45.000  
S33                                                        43.000  
> 2019  3 11 18 50  5.0000000  0 20                     
G23  20441648.719   109072221.137         358.141          48.000    20441654.234    83953196.984         279.117          37.000                                                                  
G27  20544486.430   109070827.062         375.125          49.000    20544495.742    83948085.398         292.316          40.000    20544496.703    84385930.387         292.152          48.000  
G 8  21130766.258   108929804.898        2369.031          46.000    21130777.719    83823811.309        1846.031          36.000    21130778.742    84305686.305        1845.930          47.000  
G16  21358123.203   109264590.012       -2334.992          46.000    21358130.641    84104730.297       -1819.441          34.000                                                                  
G 9  21604064.297   117335750.473        2125.578          47.000    21604074.211    92226954.402        1656.336          37.000    21604074.797    84315553.398        1656.379          48.000  
G26  23451158.141   126072483.059       -2760.098          43.000    23451169.984    92519215.645       -2150.703          31.000    23451170.516    92901758.625       -2150.824          45.000  
G 7  23964040.469   125716978.270        2405.137          47.000    23964048.797   100584349.117        1874.082          31.000    23964049.672   101082318.113        1873.902          41.000  
G 3  24421213.672   126059283.539       -2572.316          40.000    24421228.828   100896801.633       -2004.402          28.000    24421229.695   101282926.609       -2004.277          46.000  
R 6  20886993.500   109290355.582       -2935.090          40.000                                                                  
R18  21463697.172   117499307.020        -201.980          43.000    21463703.664    92330147.941        -157.062          43.000  
R 9  21347659.523   117417851.859         991.973          43.000    21347663.320    92267378.688         771.695          44.000  
R16  21271556.750   117564287.746       -1132.367          40.000    21271560.672    92379154.305        -880.734          37.000  
R19  21491366.219   117390188.449        3092.680          38.000    21491370.367    92251427.770        2405.789          38.000  
R17                                                        40.000                                                          31.000  
R 7  21112575.156   109053718.465         656.680          46.000    21112577.320    83901181.617         510.781          44.000  
R 8                                                        39.000                                                          31.000  
S31                                                        46.000  
S25                                                        42.000  
S38                                                        46.000  
S33                                                        43.000  
> 2019  3 11 18 50  6.0000000  0 20                     
G23  20441580.273   109071862.824         357.430          48.000    20441586.055    83952917.781         278.512          38.000                                                                  
G27  20544414.961   109070451.898         374.160          48.000    20544424.320    83947793.062         291.551          40.000    20544425.492    84385638.047         291.578          48.000  
G 8  21130315.281   108927435.504        2368.734          46.000    21130326.789    83821965.039        1845.750          36.000    21130328.062    84303840.031        1845.680          47.000  
G16  21358567.734   109266924.641       -2335.211          46.000    21358574.906    84106549.504       -1819.664          34.000                                                                  
G 9  21603659.695   117333624.516        2125.137          47.000    21603669.586    92225297.820        1655.988          37.000    21603670.781    84313896.797        1656.027          48.000  
G26  23451683.531   126075242.613       -2760.004          43.000    23451695.117    92521365.938       -2150.621          32.000    23451695.828    92903908.918       -2150.645          45.000  
G 7  23963582.820   125714572.770        2405.066          47.000    23963591.023   100582474.699        1874.074          30.000    23963592.266   101080443.676        1874.402          41.000  
G 3  24421703.477   126061854.957       -2572.320          40.000    24421718.055   100898805.328       -2004.418          28.000    24421719.531   101284930.285       -2003.820          45.000  
R 6  20887543.398   109293290.520       -2935.555          40.000                                                                  
R18  21463734.977   117499509.191        -203.035          43.000    21463741.320    92330305.191        -157.898          43.000  
R 9  21347473.656   117416859.219         992.156          43.000    21347477.695    92266606.621         771.621          44.000  
R16  21271768.383   117565419.492       -1132.309          39.000    21271772.609    92380034.559        -880.676          37.000  
R19  21490787.945   117387095.082        3092.965          38.000    21490792.156    92249021.855        2405.445          39.000  
R17                                                        39.000                                                          32.000  
R 7  21112452.391   109053061.656         655.953          46.000    21112454.617    83900670.770         510.230          44.000  
R 8                                                        39.000                                                          31.000  
S31                                                        46.000  
S25                                                        42.000  
S38                                                        45.000  
S33                                                        43.000  
> 2019  3 11 18 50  7.0000000  0 18                     
G23  20441512.133   109071504.934         356.555          48.000    20441517.984    83952638.910         277.832          38.000                                                                  
G27  20544343.758   109070077.230         373.188          49.000    20544353.031    83947501.117         290.758          40.000    20544354.180    84385346.109         290.680          48.000  
G 8  21129864.750   108925066.438        2367.348          46.000    21129875.977    83820119.012        1844.648          36.000    21129877.227    84301994.000        1844.742          47.000  
G16  21359012.031   109269259.266       -2335.957          46.000    21359019.180    84108368.684       -1820.254          34.000                                                                  
G 9  21603255.148   117331498.848        2124.211          46.000    21603265.078    92223641.441        1655.227          37.000    21603265.750    84312240.418        1655.477          48.000  
G26  23452208.586   126078001.938       -2760.219          43.000    23452220.312    92523516.051       -2150.844          32.000    23452221.133    92906059.035       -2150.996          45.000  
G 7  23963124.938   125712166.977        2404.742          47.000    23963133.180   100580600.066        1873.793          31.000    23963134.516   101078569.070        1873.609          42.000  
G 3  24422192.695   126064426.047       -2572.016          40.000    24422207.344   100900808.770       -2004.207          28.000    24422208.266   101286933.750       -2004.129          45.000  
R 6  20888093.359   109296225.820       -2937.363          40.000                                                                  
R18  21463772.945   117499712.043        -204.621          43.000    21463779.359    92330462.965        -159.203          44.000  
R 9  21347287.594   117415866.438         991.465          44.000    21347291.562    92265834.461         770.926          43.000  
R16  21271980.156   117566551.090       -1132.984          39.000    21271984.266    92380914.676        -881.207          38.000  
R19  21490209.906   117384002.047        3091.438          37.000    21490213.797    92246616.164        2404.258          38.000  
R 7  21112329.820   109052405.484         654.383          46.000    21112332.078    83900160.422         508.949          44.000  
S31                                                        45.000  
S25                                                        42.000  
S38                                                        46.000  
S33                                                        43.000  
> 2019  3 11 18 50  8.0000000  0 18                     
G23  20441444.711   109071150.047         356.000          48.000    20441450.461    83952362.371         277.391          38.000                                                                  
G27  20544272.844   109069705.617         372.543          48.000    20544282.352    83947211.547         290.293          40.000    20544283.258    84385056.531         290.395          48.000  
G 8  21129414.484   108922700.203        2367.426          46.000    21129425.656    83818275.184        1844.766          36.000    21129426.719    84300150.180        1844.699          47.000  
G16  21359456.719   109271596.426       -2335.984          46.000    21359464.016    84110189.848       -1820.270          34.000                                                                  
G 9  21602851.414   117329376.012        2124.012          47.000    21602861.125    92221987.277        1655.027          37.000    21602861.836    84310586.273        1655.199          48.000  
G26  23452734.133   126080763.586       -2760.355          44.000    23452745.828    92525667.977       -2150.938          32.000    23452746.844    92908210.961       -2150.707          46.000  
G 7  23962667.531   125709763.449        2405.254          47.000    23962675.727   100578727.184        1874.293          30.000    23962676.891   101076696.180        1873.723          41.000  
G 3  24422682.031   126066999.414       -2571.922          40.000    24422697.102   100902813.984       -2003.973          28.000    24422698.242   101288938.949       -2003.895          45.000  
R 6  20888644.102   109299164.000       -2937.250          40.000                                                                  
R18  21463811.562   117499918.117        -205.027          43.000    21463818.031    92330623.234        -159.465          43.000  
R 9  21347102.023   117414876.086         991.723          44.000    21347106.133    92265064.180         771.543          44.000  
R16  21272192.828   117567685.098       -1132.484          38.000    21272197.219    92381796.676        -880.820          38.000  
R19  21489632.367   117380911.895        3091.270          37.000    21489636.352    92244212.719        2404.293          39.000  
R 7  21112207.836   109051752.547         654.090          46.000    21112210.242    83899652.574         508.723          44.000  
S31                                                        46.000  
S25                                                        42.000  
S38                                                        46.000  
S33                                                        43.000  
> 2019  3 11 18 50  9.0000000  0 18                     
G23  20441376.812   109070793.086         355.629          48.000    20441382.586    83952084.219         277.125          38.000                                                                  
G27  20544201.914   109069332.004         372.336          49.000    20544211.266    83946920.426         290.148          40.000    20544212.414    84384765.410         290.094          48.000  
G 8  21128963.711   108920331.766        2367.348          46.000    21128974.984    83816429.664        1844.676          36.000    21128976.359    84298304.652        1844.734          47.000  
G16  21359900.906   109273931.059       -2335.688          46.000    21359908.297    84112009.043       -1819.996          34.000                                                                  
G 9  21602446.977   117327250.969        2123.789          47.000    21602456.711    92220331.418        1654.914          38.000    21602457.484    84308930.410        1654.762          48.000  
G26  23453258.875   126083522.477       -2759.848          44.000    23453270.906    92527817.781       -2150.527          32.000    23453271.391    92910360.750       -2150.559          45.000  
G 7  23962209.750   125707357.148        2405.309          46.000    23962217.836   100576852.117        1874.273          30.000    23962218.805   101074821.117        1874.137          42.000  
G 3  24423171.438   126069569.949       -2571.977          39.000    24423186.391   100904816.984       -2004.141          28.000    24423187.508   101290941.988       -2003.922          45.000  
R 6  20889194.227   109302100.000       -2937.273          40.000                                                                  
R18  21463849.930   117500122.270        -205.387          43.000    21463856.234    92330782.023        -159.734          43.000  
R 9  21346916.062   117413883.020         992.078          43.000    21346920.109    92264291.801         771.703          44.000  
R16  21272404.406   117568816.375       -1132.148          39.000    21272408.609    92382676.574        -880.523          37.000  
R19  21489054.078   117377819.445        3091.574          38.000    21489058.375    92241807.473        2404.625          39.000  
R 7  21112085.531   109051097.730         653.465          46.000    21112087.711    83899143.270         508.262          44.000  
S31                                                        46.000  
S25                                                        42.000  
S38                                                        46.000  
S33                                                        43.000  
> 2019  3 11 18 50 10.0000000  0 18                     
G23  20441309.156   109070437.379         354.762          48.000    20441314.836    83951807.059         276.418          38.000                                                                  
G27  20544130.898   109068959.719         371.305          48.000    20544140.375    83946630.344         289.328          40.000    20544141.141    84384475.320         289.234          48.000  
G 8  21128513.250   108917964.477        2366.523          47.000    21128524.469    83814585.023        1844.055          36.000    21128525.891    84296460.004        1844.172          47.000  
G16  21360345.266   109276266.531       -2336.211          46.000    21360352.734    84113828.906       -1820.422          34.000                                                                  
G 9  21602042.703   117325127.035        2123.238          47.000    21602052.500    92218676.410        1654.461          38.000    21602053.539    84307275.391        1654.371          48.000  
G26  23453784.000   126086281.969       -2760.004          43.000    23453795.961    92529968.031       -2150.680          32.000    23453796.031    92912511.012       -2150.625          45.000  
G 7  23961751.969   125704951.383        2405.324          47.000    23961759.977   100574977.516        1874.254          31.000    23961760.688   101072946.488        1874.285          42.000  
G 3  24423660.523   126072141.039       -2571.781          38.000    24423675.656   100906820.465       -2004.086          28.000    24423676.477   101292945.410       -2003.965          45.000  
R 6  20889744.406   109305037.168       -2938.031          40.000                                                                  
R18  21463888.141   117500327.930        -206.605          43.000    21463894.836    92330941.996        -160.695          43.000  
R 9  21346729.906   117412890.668         991.586          43.000    21346734.195    92263519.961         771.469          44.000  
R16  21272615.875   117569948.320       -1132.715          39.000    21272620.102    92383556.973        -880.969          37.000  
R19  21488475.539   117374728.137        3090.141          37.000    21488480.477    92239403.117        2403.910          39.000  
R 7  21111963.258   109050444.445         652.211          46.000    21111965.719    83898635.164         507.281          44.000  
S31                                                        46.000  
S25                                                        42.000  
S38                                                        46.000  
S33                                                        42.000  
> 2019  3 11 18 50 11.0000000  0 18                     
G23  20441241.859   109070083.887         354.359          48.000    20441247.531    83951531.590         276.125          38.000                                                                  
G27  20544060.422   109068589.699         370.938          49.000    20544069.984    83946342.000         289.035          40.000    20544070.727    84384186.992         288.926          48.000  
G 8  21128063.328   108915599.254        2366.137          46.000    21128074.406    83812741.980        1843.758          36.000    21128075.766    84294616.973        1843.797          47.000  
G16  21360790.164   109278603.746       -2336.266          46.000    21360797.484    84115650.090       -1820.488          34.000                                                                  
G 9  21601638.750   117323005.141        2122.852          47.000    21601648.773    92217022.973        1654.164          38.000    21601649.398    84305621.969        1654.117          48.000  
G26  23454309.469   126089043.023       -2759.793          43.000    23454321.422    92532119.488       -2150.484          32.000    23454322.008    92914662.477       -2150.629          45.000  
G 7  23961294.492   125702547.090        2405.504          47.000    23961302.508   100573104.016        1874.398          31.000    23961303.438   101071073.012        1874.379          42.000  
G 3  24424150.133   126074713.586       -2571.691          39.000    24424165.188   100908825.008       -2003.883          28.000    24424166.242   101294949.984       -2003.598          45.000  
R 6  20890295.211   109307976.477       -2938.055          40.000                                                                  
R18  21463927.234   117500536.027        -206.980          43.000    21463933.836    92331103.832        -161.008          43.000  
R 9  21346544.695   117411899.957         992.113          43.000    21346548.789    92262749.426         771.438          44.000  
R16  21272828.062   117571081.836       -1132.445          39.000    21272832.367    92384438.590        -880.848          37.000  
R19  21487898.414   117371638.816        3090.090          37.000    21487903.094    92237000.336        2403.500          39.000  
R 7  21111841.852   109049793.609         651.613          46.000    21111844.117    83898128.945         506.773          44.000  
S31                                                        46.000  
S25                                                        41.000  
S38                                                        45.000  
S33                                                        42.000  
> 2019  3 11 18 50 12.0000000  0 18                     
G23  20441174.633   109069730.184         353.488          48.000    20441180.219    83951255.984         275.461          38.000                                                                  
G27  20543990.180   109068219.539         370.023          49.000    20543999.523    83946053.570         288.359          40.000    20544000.305    84383898.562         288.074          49.000  
G 8  21127613.172   108913233.680        2365.051          46.000    21127624.234    83810898.688        1842.930          36.000    21127625.430    84292773.672        1843.160          47.000  
G16  21361234.883   109280940.297       -2336.621          46.000    21361242.055    84117470.777       -1820.777          34.000                                                                  
G 9  21601235.086   117320882.891        2121.863          47.000    21601244.961    92215369.277        1653.426          38.000    21601245.609    84303968.270        1653.371          48.000  
G26  23454835.055   126091803.188       -2760.051          44.000    23454846.648    92534270.273       -2150.652          32.000    23454847.219    92916813.254       -2150.883          46.000  
G 7  23960836.766   125700141.879        2405.250          47.000    23960844.820   100571229.832        1874.266          31.000    23960846.211   101069198.816        1874.266          42.000  
G 3  24424639.516   126077285.152       -2571.477          38.000    24424654.727   100910828.840       -2003.609          27.000    24424655.898   101296953.828       -2003.883          46.000  
R 6  20890846.062   109310915.480       -2939.551          41.000                                                                  
R18  21463966.266   117500744.129        -208.488          43.000    21463972.852    92331265.691        -162.145          43.000  
R 9  21346358.938   117410908.457         991.402          43.000    21346363.180    92261978.246         771.352          44.000  
R16  21273040.195   117572214.566       -1133.254          39.000    21273043.766    92385319.605        -881.398          37.000  
R19  21487321.016   117368549.086        3089.734          37.000    21487325.703    92234597.219        2402.828          39.000  
R 7  21111720.078   109049142.758         650.527          46.000    21111722.641    83897622.734         505.973          44.000  
S31                                                        46.000  
S25                                                        42.000  
S38                                                        46.000  
S33                                                        43.000  
> 2019  3 11 18 50 13.0000000  0 18                     
G23  20441107.422   109069376.762         352.551          48.000    20441113.008    83950980.594         274.773          38.000                                                                  
G27  20543919.734   109067849.707         368.949          48.000    20543929.133    83945765.398         287.492          40.000    20543930.352    84383610.387         287.457          47.000  
G 8  21127163.133   108910868.234        2364.785          46.000    21127174.062    83809055.492        1842.668          36.000    21127175.406    84290930.465        1842.734          45.000  
G16  21361679.477   109283276.680       -2337.004          45.000    21361686.648    84119291.348       -1821.027          34.000                                                                  
G 9  21600831.461   117318760.762        2121.312          47.000    21600841.109    92213715.668        1652.988          38.000    21600841.766    84302314.648        1652.891          46.000  
G26  23455360.289   126094562.941       -2760.332          43.000    23455371.883    92536420.734       -2150.898          32.000    23455372.539    92918963.719       -2150.891          44.000  
G 7  23960379.047   125697736.203        2405.266          47.000    23960387.047   100569355.297        1874.262          31.000    23960388.570   101067324.281        1874.145          40.000  
G 3  24425128.633   126079856.285       -2571.316          38.000    24425144.023   100912832.305       -2003.539          26.000    24425144.852   101298957.281       -2003.773          44.000  
R 6  20891396.820   109313854.656       -2940.191          40.000                                                                  
R18  21464005.320   117500952.695        -209.344          43.000    21464012.070    92331427.918        -162.828          43.000  
R 9  21346173.195   117409916.629         991.285          43.000    21346177.359    92261206.832         771.059          44.000  
R16  21273252.336   117573346.930       -1132.586          39.000    21273256.391    92386200.340        -880.852          36.000  
R19  21486743.031   117365459.480        3088.812          37.000    21486747.547    92232194.160        2402.555          38.000  
R 7  21111598.312   109048492.379         649.332          46.000    21111601.125    83897116.895         505.055          44.000  
S31                                                        46.000  
S25                                                        42.000  
S38                                                        46.000  
S33                                                        42.000  
> 2019  3 11 18 50 14.0000000  0 18                     
G23  20441040.320   109069023.793         352.445          48.000    20441045.867    83950705.555         274.617          37.000                                                                  
G27  20543849.352   109067480.406         368.832          49.000    20543858.859    83945477.633         287.414          39.000    20543859.969    84383322.609         287.359          48.000  
G 8  21126712.906   108908503.109        2364.594          46.000    21126723.938    83807212.539        1842.539          35.000    21126725.266    84289087.520        1842.664          47.000  
G16  21362123.922   109285613.074       -2336.773          46.000    21362131.164    84121111.902       -1820.832          34.000                                                                  
G 9  21600427.555   117316638.934        2121.277          47.000    21600437.328    92212062.289        1652.910          37.000    21600437.961    84300661.293        1652.953          47.000  
G26  23455885.430   126097322.504       -2759.867          43.000    23455896.938    92538571.047       -2150.605          31.000    23455897.523    92921114.020       -2150.473          45.000  
G 7  23959921.141   125695330.281        2405.617          47.000    23959929.203   100567480.555        1874.469          30.000    23959930.555   101065449.527        1874.676          42.000  
G 3  24425617.266   126082427.129       -2571.602          38.000    24425633.266   100914835.566       -2003.934          26.000    24425634.273   101300960.547       -2003.551          45.000  
R 6  20891947.680   109316794.168       -2940.227          40.000                                                                  
R18  21464044.406   117501161.945        -209.941          43.000    21464051.227    92331590.660        -163.316          43.000  
R 9  21345987.492   117408924.652         991.680          44.000    21345991.430    92260435.324         771.508          43.000  
R16  21273464.281   117574479.156       -1132.738          39.000    21273468.188    92387080.949        -881.055          36.000  
R19  21486165.875   117362370.102        3090.762          37.000    21486170.273    92229791.383        2402.336          39.000  
R 7  21111477.172   109047842.625         649.043          46.000    21111479.789    83896611.523         504.770          44.000  
S31                                                        46.000  
S25                                                        42.000  
S38                                                        45.000  
S33                                                        43.000  
> 2019  3 11 18 50 15.0000000  0 18                     
G23  20440973.500   109068672.613         351.059          48.000    20440978.984    83950431.898         273.512          38.000                                                                  
G27  20543779.492   109067112.957         367.660          48.000    20543788.914    83945191.289         286.496          40.000    20543789.891    84383036.281         286.547          47.000  
G 8  21126263.047   108906139.660        2363.816          46.000    21126274.211    83805370.879        1841.906          35.000    21126275.852    84287245.863        1841.879          47.000  
G16  21362568.703   109287950.789       -2337.234          46.000    21362576.016    84122933.508       -1821.219          34.000                                                                  
G 9  21600023.922   117314518.750        2120.477          47.000    21600033.875    92210410.207        1652.309          37.000    21600034.695    84299009.195        1652.445          47.000  
G26  23456410.641   126100083.180       -2760.215          43.000    23456422.273    92540722.230       -2150.859          31.000    23456422.656    92923265.207       -2150.941          45.000  
G 7  23959463.484   125692925.410        2405.527          46.000    23959471.539   100565606.609        1874.445          30.000    23959472.578   101063575.598        1874.578          41.000  
G 3  24426107.078   126084999.023       -2571.176          38.000    24426122.828   100916839.633       -2003.559          26.000    24426123.836   101302964.621       -2003.648          45.000  
R 6  20892499.352   109319735.406       -2940.566          40.000                                                                  
R18  21464083.844   117501373.195        -211.207          43.000    21464090.766    92331754.984        -164.297          43.000  
R 9  21345802.281   117407933.957         991.465          46.000    21345806.188    92259664.773         771.078          44.000  
R16  21273676.508   117575612.559       -1132.973          39.000    21273680.664    92387962.484        -881.203          37.000  
R19  21485589.586   117359282.496        3088.078          38.000    21485593.172    92227389.887        2401.320          38.000  
R 7  21111356.266   109047194.906         647.707          46.000    21111358.602    83896107.754         503.754          44.000  
S31                                                        46.000  
S25                                                        42.000  
S38                                                        45.000  
S33                                                        43.000  
> 2019  3 11 18 50 16.0000000  0 18                     
G23  20440906.586   109068321.344         351.246          48.000    20440912.102    83950158.176         273.699          37.000                                                                  
G27  20543709.672   109066745.484         367.449          49.000    20543719.016    83944904.945         286.270          40.000    20543720.055    84382749.934         286.512          48.000  
G 8  21125813.203   108903775.957        2363.898          47.000    21125824.438    83803529.031        1842.027          36.000    21125826.117    84285404.023        1841.906          47.000  
G16  21363013.461   109290287.988       -2336.895          46.000    21363020.734    84124754.691       -1820.945          34.000                                                                  
G 9  21599620.727   117312398.340        2120.512          48.000    21599630.438    92208757.930        1652.363          37.000    21599631.125    84297356.918        1652.344          47.000  
G26  23456935.750   126102843.094       -2759.734          43.000    23456947.562    92542872.797       -2150.449          31.000    23456948.172    92925415.789       -2150.203          45.000  
G 7  23959005.641   125690519.730        2405.898          46.000    23959013.789   100563732.051        1874.707          31.000    23959014.727   101061701.039        1874.977          42.000  
G 3  24426596.156   126087570.121       -2571.035          38.000    24426612.125   100918843.086       -2003.387          27.000    24426613.016   101304968.051       -2002.949          45.000  
R 6  20893050.625   109322676.410       -2940.605          40.000                                                                  
R18  21464123.531   117501584.562        -211.449          43.000    21464130.367    92331919.371        -164.480          43.000  
R 9  21345616.539   117406942.586         991.926          45.000    21345620.477    92258893.699         771.379          44.000  
R16  21273888.172   117576745.262       -1132.715          39.000    21273892.656    92388843.473        -880.984          37.000  
R19  21485011.977   117356194.551        3088.008          37.000    21485016.031    92224988.145        2401.828          39.000  
R 7  21111235.391   109046547.324         647.512          46.000    21111237.945    83895604.066         503.645          44.000  
S31                                                        46.000  
S25                                                        42.000  
S38                                                        46.000  
S33                                                        43.000  
> 2019  3 11 18 50 17.0000000  0 18                     
G23  20440839.883   109067970.793         350.191          48.000    20440845.391    83949885.023         272.906          38.000                                                                  
G27  20543639.695   109066378.789         366.555          49.000    20543649.250    83944619.223         285.633          40.000    20543650.438    84382464.207         285.523          48.000  
G 8  21125363.789   108901412.848        2362.777          47.000    21125374.797    83801687.652        1841.102          36.000    21125376.133    84283562.637        1841.145          47.000  
G16  21363458.242   109292625.441       -2337.609          46.000    21363465.555    84126576.098       -1821.512          34.000                                                                  
G 9  21599217.391   117310278.496        2119.484          48.000    21599227.031    92207106.094        1651.562          37.000    21599227.492    84295705.074        1651.656          47.000  
G26  23457460.703   126105603.062       -2760.086          43.000    23457472.812    92545023.449       -2150.676          31.000    23457473.492    92927566.414       -2150.598          45.000  
G 7  23958547.859   125688114.020        2406.020          46.000    23958556.133   100561857.496        1874.797          30.000    23958557.898   101059826.477        1874.559          42.000  
G 3  24427084.992   126090141.160       -2570.977          38.000    24427101.422   100920846.480       -2003.309          26.000    24427102.562   101306971.461       -2003.242          45.000  
R 6  20893601.758   109325618.031       -2942.148          40.000                                                                  
R18  21464163.461   117501796.871        -213.078          43.000    21464169.984    92332084.504        -165.723          43.000  
R 9  21345430.594   117405951.359         990.984          45.000    21345434.758    92258122.746         770.754          44.000  
R16  21274100.430   117577878.051       -1133.309          39.000    21274104.688    92389724.527        -881.410          36.000  
R19  21484434.594   117353107.148        3086.906          37.000    21484439.250    92222586.836        2400.934          39.000  
R 7  21111114.578   109045900.684         646.117          46.000    21111116.898    83895101.113         502.531          44.000  
S31                                                        46.000  
S25                                                        42.000  
S38                                                        46.000  
S33                                                        43.000  
> 2019  3 11 18 50 18.0000000  0 18                     
G23  20440773.305   109067621.098         350.066          48.000    20440778.836    83949612.539         272.801          38.000                                                                  
G27  20543570.180   109066013.016         366.188          49.000    20543579.648    83944334.203         285.383          39.000    20543580.961    84382179.180         285.496          48.000  
G 8  21124914.195   108899050.441        2362.863          47.000    21124925.297    83799846.809        1841.234          36.000    21124926.648    84281721.801        1841.262          47.000  
G16  21363903.172   109294963.305       -2337.266          46.000    21363910.484    84128397.809       -1821.211          34.000                                                                  
G 9  21598814.203   117308159.340        2119.695          47.000    21598823.797    92205454.809        1651.703          37.000    21598824.250    84294053.793        1651.684          47.000  
G26  23457986.156   126108363.227       -2759.402          43.000    23457998.117    92547174.203       -2150.156          31.000    23457998.703    92929717.191       -2150.258          45.000  
G 7  23958090.227   125685708.477        2406.418          46.000    23958098.375   100559983.055        1875.129          30.000    23958099.242   101057952.035        1874.992          41.000  
G 3  24427574.383   126092712.375       -2571.535          37.000    24427590.758   100922850.020       -2003.734          26.000    24427590.844   101308974.965       -2002.980          45.000  
R 6  20894153.562   109328560.371       -2941.578          41.000                                                                  
R18  21464203.414   117502010.266        -213.199          43.000    21464210.086    92332250.469        -165.824          43.000  
R 9  21345245.039   117404960.387         991.805          44.000    21345249.203    92257351.988         771.195          44.000  
R16  21274312.641   117579011.086       -1132.055          38.000    21274316.383    92390605.773        -880.383          37.000  
R19  21483857.586   117350020.414        3089.320          37.000    21483861.836    92220186.043        2401.062          39.000  
R 7  21110993.969   109045255.105         646.117          46.000    21110996.312    83894599.000         502.555          44.000  
S31                                                        46.000  
S25                                                        42.000  
S38                                                        45.000  
S33                                                        42.000  
> 2019  3 11 18 50 19.0000000  0 18                     
G23  20440706.727   109067271.574         349.105          48.000    20440712.352    83949340.180         272.039          38.000                                                                  
G27  20543500.727   109065647.473         365.160          49.000    20543510.086    83944049.355         284.555          40.000    20543511.047    84381894.336         284.656          48.000  
G 8  21124464.664   108896688.074        2362.066          46.000    21124475.773    83798006.012        1840.559          36.000    21124477.312    84279880.980        1840.719          47.000  
G16  21364347.789   109297300.883       -2337.762          46.000    21364355.336    84130219.285       -1821.656          33.000                                                                  
G 9  21598410.836   117306040.211        2118.914          48.000    21598420.484    92203803.535        1651.090          37.000    21598420.977    84292402.527        1651.031          47.000  
G26  23458510.883   126111122.895       -2759.824          43.000    23458523.195    92549324.594       -2150.520          31.000    23458523.555    92931867.555       -2150.176          46.000  
G 7  23957632.242   125683302.363        2406.246          46.000    23957640.531   100558108.168        1874.984          31.000    23957641.508   101056077.125        1875.094          42.000  
G 3  24428064.359   126095282.938       -2570.754          38.000    24428079.883   100924853.035       -2003.109          27.000    24428080.625   101310978.016       -2003.184          45.000  
R 6  20894704.875   109331502.754       -2942.402          41.000                                                                  
R18  21464243.430   117502224.004        -214.141          43.000    21464250.062    92332416.711        -166.570          43.000  
R 9  21345059.453   117403968.957         991.430          44.000    21345063.492    92256580.895         770.828          44.000  
R16  21274524.844   117580143.660       -1132.273          39.000    21274528.281    92391486.672        -880.645          37.000  
R19  21483280.211   117346933.660        3085.719          36.000    21483284.727    92217785.234        2400.047          39.000  
R 7  21110873.477   109044609.930         644.656          46.000    21110875.828    83894097.199         501.406          44.000  
S31                                                        45.000  
S25                                                        42.000  
S38                                                        46.000  
S33                                                        42.000  
> 2019  3 11 18 50 20.0000000  0 18                     
G23  20440640.477   109066922.848         348.461          48.000    20440645.961    83949068.445         271.555          38.000                                                                  
G27  20543431.266   109065282.801         364.402          49.000    20543440.711    83943765.203         283.969          40.000    20543441.328    84381610.191         283.695          48.000  
G 8  21124014.977   108894326.383        2361.625          47.000    21124026.344    83796165.730        1840.266          36.000    21124027.445    84278040.723        1839.828          47.000  
G16  21364792.844   109299638.809       -2337.809          46.000    21364800.219    84132041.043       -1821.637          34.000                                                                  
G 9  21598007.469   117303921.738        2118.484          47.000    21598017.312    92202152.789        1650.832          37.000    21598018.453    84290751.762        1650.734          48.000  
G26  23459036.789   126113882.676       -2759.801          43.000    23459048.367    92551475.074       -2150.477          31.000    23459048.445    92934018.051       -2150.301          46.000  
G 7  23957174.461   125680896.340        2406.031          47.000    23957182.656   100556233.344        1874.750          30.000    23957182.945   101054202.348        1874.992          42.000  
G 3  24428552.984   126097853.598       -2570.621          38.000    24428569.070   100926856.141       -2003.059          26.000    24428569.508   101312981.121       -2003.406          45.000  
R 6  20895256.156   109334445.875       -2943.590          40.000                                                                  
R18  21464283.750   117502438.746        -215.078          44.000    21464290.062    92332583.738        -167.266          42.000  
R 9  21344873.766   117402977.723         991.043          43.000    21344877.953    92255809.922         771.293          43.000  
R16  21274736.766   117581276.418       -1133.078          39.000    21274740.750    92392367.711        -881.293          37.000  
R19  21482703.062   117343847.473        3085.727          37.000    21482707.617    92215384.863        2400.449          39.000  
R 7  21110753.375   109043965.738         643.941          47.000    21110755.578    83893596.160         500.855          44.000  
S31                                                        46.000  
S25                                                        43.000  
S38                                                        46.000  
S33                                                        43.000  
> 2019  3 11 18 50 21.0000000  0 18                     
G23  20440574.094   109066574.457         347.891          47.000    20440579.680    83948796.973         271.078          37.000                                                                  
G27  20543361.938   109064918.547         363.371          48.000    20543371.383    83943481.371         283.152          39.000    20543372.375    84381326.355         283.105          48.000  
G 8  21123565.523   108891964.922        2360.977          46.000    21123576.930    83794325.641        1839.715          35.000    21123578.555    84276200.633        1839.203          47.000  
G16  21365237.914   109301976.645       -2338.637          45.000    21365245.086    84133862.758       -1822.316          33.000                                                                  
G 9  21597604.500   117301803.602        2116.715          38.000    21597614.219    92200502.320        1649.238          36.000    21597614.977    84289101.301        1649.797          42.000  
G26  23459561.328   126116642.180       -2760.352          43.000    23459573.484    92553625.340       -2150.996          31.000    23459574.125    92936168.336       -2150.969          44.000  
G 7  23956715.992   125678490.012        2405.891          38.000    23956724.773   100554358.230        1874.891          29.000    23956724.508   101052327.258        1874.199          33.000  
G 3  24429041.859   126100423.871       -2570.113          36.000    24429058.227   100928858.926       -2002.621          26.000    24429058.883   101314983.926       -2003.141          45.000  
R 6  20895807.633   109337389.270       -2944.234          39.000                                                                  
R18  21464324.156   117502654.117        -216.906          43.000    21464330.242    92332751.250        -168.703          42.000  
R 9  21344688.352   117401986.586         990.340          40.000    21344692.016    92255039.051         770.320          38.000  
R16  21274948.406   117582408.914       -1132.035          40.000    21274952.641    92393248.551        -880.465          38.000  
R19  21482126.266   117340761.434        3085.828          36.000    21482130.883    92212984.676        2398.656          38.000  
R 7  21110633.117   109043322.121         642.648          47.000    21110635.367    83893095.562         499.902          43.000  
S31                                                        44.000  
S25                                                        41.000  
S38                                                        45.000  
S33                                                        43.000  
> 2019  3 11 18 50 22.0000000  0 18                     
G23  20440507.711   109066227.301         347.453          41.000    20440513.617    83948526.461         270.660          36.000                                                                  
G27  20543292.680   109064555.602         362.734          46.000    20543302.297    83943198.559         282.621          38.000    20543303.492    84381043.555         282.980          46.000  
G 8  21123116.102   108889604.566        2360.562          45.000    21123127.781    83792486.387        1839.426          34.000    21123128.648    84274361.375        1839.391          46.000  
G16  21365682.875   109304315.266       -2338.016          44.000    21365690.164    84135685.020       -1821.785          33.000                                                                  
G 9  21597200.844   117299686.441        2118.230          28.000    21597211.398    92198852.535        1650.953          23.000    21597212.828    84287451.664        1649.867          36.000  
G26  23460088.000   126119402.246       -2760.133          40.000    23460098.578    92555776.039       -2150.797          29.000    23460098.711    92938319.020       -2150.273          43.000  
G 7  23956259.055   125676084.055        2406.492          39.000    23956266.867   100552483.469        1875.301          20.000    23956268.258   101050452.426        1875.098          37.000  
G 3  24429531.133   126102994.645       -2569.918          36.000    24429547.531   100930862.121       -2002.453          25.000    24429547.609   101316987.074       -2002.516          45.000  
R 6  20896359.422   109340333.707       -2943.633          40.000                                                                  
R18  21464365.039   117502870.906        -217.117          43.000    21464370.867    92332919.848        -168.895          41.000  
R 9  21344503.469   117400995.617         992.297          35.000    21344506.289    92254268.246         770.941          35.000  
R16  21275160.844   117583542.062       -1132.477          38.000    21275165.000    92394129.895        -880.848          34.000  
R19  21481549.656   117337676.535        3084.980          36.000    21481554.102    92210585.215        2399.406          39.000  
R 7  21110514.297   109042680.227         642.516          32.000                                                                  
S31                                                        42.000  
S25                                                        40.000  
S38                                                        42.000  
S33                                                        41.000  
> 2019  3 11 18 50 23.0000000  0 18                     
G23  20440440.922   109065875.875         346.305          43.000    20440446.789    83948252.629         269.883          26.000                                                                  
G27  20543222.680   109064188.426         362.047          46.000    20543232.398    83942912.477         282.082          36.000    20543233.289    84380757.453         282.176          47.000  
G 8  21122666.359   108887239.754        2359.879          46.000    21122677.727    83790643.715        1838.836          34.000    21122678.562    84272518.699        1838.977          46.000  
G16  21366126.625   109306649.102       -2338.770          44.000    21366134.281    84137503.645       -1822.488          31.000                                                                  
G 9  21596796.656   117297564.949        2116.824          30.000                                                                    21596809.648    84285798.484        1649.195          38.000  
G26  23460612.297   126122157.312       -2759.715          40.000    23460622.812    92557922.848       -2150.527          26.000    23460622.508    92940465.824       -2150.328          43.000  
G 7  23955800.914   125673673.207        2406.418          32.000                                                                    23955807.875   101048573.918        1874.867          32.000  
G 3  24430019.391   126105560.344       -2570.438          36.000    24430035.695   100932861.402       -2003.156          23.000    24430036.094   101318986.363       -2003.172          42.000  
R 6  20896910.164   109343273.773       -2945.141          37.000                                                                  
R18  21464404.383   117503083.539        -217.609          41.000    21464410.867    92333085.230        -169.254          42.000  
R 9  21344316.375   117399999.996         990.039          32.000    21344319.102    92253493.918         770.719          30.000  
R16  21275371.633   117584670.293       -1133.348          38.000    21275376.930    92395007.340        -881.422          36.000  
R19  21480971.391   117334587.039        3083.883          34.000    21480976.414    92208182.320        2399.359          38.000  
R 7  21110391.289   109042034.262         642.672          29.000                                                                  
S31                                                        41.000  
S25                                                        41.000  
S38                                                        40.000  
S33                                                        36.000  
> 2019  3 11 18 50 24.0000000  0 18                     
G23  20440375.047   109065529.477         345.617          44.000    20440380.711    83947982.688         269.262          27.000                                                                  
G27  20543153.555   109063826.340         361.352          47.000    20543163.578    83942630.328         281.582          36.000    20543164.219    84380475.305         281.379          47.000  
G 8  21122217.422   108884879.855        2359.277          46.000    21122228.656    83788804.828        1838.449          34.000    21122229.469    84270679.812        1838.430          46.000  
G16  21366571.672   109308987.578       -2339.137          46.000    21366579.359    84139325.852       -1822.742          31.000                                                                  
G 9  21596393.719   117295448.180        2116.461          31.000                                                                    21596406.141    84284149.039        1649.062          39.000  
G26  23461136.328   126124916.777       -2759.766          42.000    23461147.844    92560073.074       -2150.410          27.000    23461148.023    92942616.062       -2150.516          43.000  
G 7  23955342.477   125671266.672        2406.504          36.000                                                                    23955350.680   101046698.633        1875.500          32.000  
G 3  24430508.984   126108130.367       -2570.230          37.000    24430524.664   100934863.992       -2002.824          22.000    24430524.984   101320988.977       -2003.066          42.000  
R 6  20897462.023   109346218.750       -2944.703          38.000                                                                  
R18  21464444.844   117503301.473        -218.309          40.000    21464451.859    92333254.723        -169.855          43.000  
R 9  21344130.461   117399008.754         990.992          33.000    21344133.656    92252723.004         770.320          33.000  
R16  21275583.922   117585802.898       -1132.719          37.000    21275588.344    92395888.211        -881.059          36.000  
R19  21480394.820   117331502.441        3083.730          36.000    21480399.789    92205783.215        2398.402          38.000  
R 7  21110270.336   109041393.266         640.105          31.000                                                                  
S31                                                        42.000  
S25                                                        41.000  
S38                                                        42.000  
S33                                                        37.000  
> 2019  3 11 18 50 25.0000000  0 18                     
G23  20440308.961   109065184.180         345.855          44.000    20440314.969    83947713.633         269.523          28.000                                                                  
G27  20543085.117   109063465.422         361.098          48.000    20543094.875    83942349.066         281.383          37.000    20543095.578    84380194.062         281.469          47.000  
G 8  21121768.570   108882520.922        2359.387          47.000    21121779.758    83786966.680        1838.480          34.000    21121780.344    84268841.676        1838.348          47.000  
G16  21367016.883   109311326.680       -2338.488          46.000    21367024.477    84141148.504       -1822.168          32.000                                                                  
G 9  21595990.867   117293332.414        2116.246          32.000                                                                    21596004.211    84282500.359        1649.164          39.000  
G26  23461660.984   126127676.676       -2759.441          42.000    23461672.906    92562223.637       -2150.219          28.000    23461673.195    92944766.605       -2149.914          43.000  
G 7  23954884.078   125668860.480        2406.582          36.000                                                                    23954892.742   101044823.676        1875.133          32.000  
G 3  24430997.109   126110700.766       -2569.941          36.000    24431013.977   100936866.895       -2002.582          22.000    24431014.180   101322991.852       -2002.188          43.000  
R 6  20898013.812   109349164.801       -2944.973          38.000                                                                  
R18  21464485.891   117503520.758        -219.035          40.000    21464492.898    92333425.293        -170.383          43.000  
R 9  21343944.648   117398018.148         990.250          32.000    21343947.875    92251952.484         771.023          31.000  
R16  21275795.727   117586935.965       -1132.074          37.000    21275800.711    92396769.523        -880.512          37.000  
R19  21479818.711   117328418.773        3084.383          36.000    21479823.312    92203384.836        2398.238          38.000  
R 7  21110150.180   109040753.559         640.250          31.000    21110157.273    83891084.9261        498.023          32.000  
S31                                                        42.000  
S25                                                        41.000  
S38                                                        42.000  
S33                                                        38.000  
> 2019  3 11 18 50 26.0000000  0 18                     
G23  20440243.641   109064840.402         344.684          45.000    20440249.609    83947445.742         268.621          30.000                                                                  
G27  20543016.789   109063106.062         360.141          47.000    20543026.469    83942069.039         280.664          36.000    20543027.672    84379914.043         280.367          48.000  
G 8  21121319.523   108880163.363        2358.680          45.000    21121331.008    83785129.609        1838.047          32.000    21121332.008    84267004.578        1837.715          46.000  
G16  21367462.180   109313666.887       -2338.723          44.000    21367469.867    84142972.020       -1822.355          32.000                                                                  
G 9                                                                                                                                  21595600.578    84280852.688        1648.250          35.000  
G26  23462186.633   126130437.422       -2759.898          41.000    23462198.234    92564374.848       -2150.516          27.000    23462198.805    92946917.820       -2150.430          43.000  
G 7  23954426.898   125666454.918        2406.559          40.000                                                                    23954433.758   101042949.125        1875.586          33.000  
G 3  24431487.117   126113271.988       -2569.969          38.000    24431503.070   100938870.371       -2002.398          24.000    24431503.594   101324995.348       -2002.562          45.000  
R 6  20898566.523   109352112.309       -2946.633          39.000                                                                  
R18  21464527.547   117503741.746        -220.320          42.000    21464534.422    92333597.199        -171.398          43.000  
R 9  21343759.125   117397028.348         991.383          39.000    21343762.055    92251182.641         770.230          39.000  
R16  21276007.578   117588069.965       -1133.926          36.000    21276012.359    92397651.590        -882.047          36.000  
R19  21479242.898   117325336.504        3083.695          36.000    21479246.852    92200987.496        2397.871          37.000  
R 7  21110031.633   109040115.555         638.219          35.000    21110037.047    83890588.680         496.445          31.000  
S31                                                        45.000  
S25                                                        41.000  
S38                                                        45.000  
S33                                                        41.000  
> 2019  3 11 18 50 27.0000000  0 17                     
G23  20440178.586   109064495.871         343.703          48.000    20440184.039    83947177.285         267.785          34.000                                                                  
G27  20542948.297   109062746.000         358.961          49.000    20542957.922    83941788.480         279.688          37.000    20542958.773    84379633.461         280.012          46.000  
G 8  21120870.953   108877804.859        2358.023          47.000    21120882.195    83783291.809        1837.367          34.000    21120883.562    84265166.828        1837.133          45.000  
G16  21367907.336   109316005.832       -2339.559          46.000    21367915.016    84144794.559       -1823.043          32.000                                                                  
G 9                                                                                                                                  21595198.461    84279204.121        1648.559          39.000  
G26  23462711.617   126133196.660       -2759.586          43.000    23462723.250    92566524.922       -2150.277          28.000    23462723.633    92949067.914       -2150.543          42.000  
G 7  23953968.883   125664047.996        2406.785          41.000                                                                    23953977.930   101041073.719        1875.418          31.000  
G 3  24431976.648   126115841.566       -2570.430          39.000    24431992.305   100940872.691       -2003.074          26.000    24431993.062   101326997.652       -2002.578          43.000  
R 6  20899118.750   109355058.816       -2947.148          41.000                                                                  
R18  21464569.469   117503962.145        -221.586          43.000    21464575.602    92333768.617        -172.355          40.000  
R16  21276219.945   117589202.547       -1133.191          39.000    21276224.555    92398532.488        -881.461          35.000  
R19  21478665.992   117322253.184        3082.914          38.000    21478670.367    92198589.332        2397.211          35.000  
R 7  21109914.234   109039476.648         637.121          46.000    21109917.516    83890091.637         495.680          41.000  
S31                                                        45.000  
S25                                                        43.000  
S38                                                        47.000  
S33                                                        42.000  
> 2019  3 11 18 50 28.0000000  0 17                     
G23  20440111.852   109064152.797         343.496          38.000    20440118.633    83946909.961         267.605          29.000                                                                  
G27  20542878.242   109062387.477         358.906          39.000    20542889.570    83941509.113         279.625          32.000    20542890.156    84379354.105         279.465          45.000  
G 8  21120421.148   108875447.754        2357.633          37.000    21120433.523    83781455.113        1837.117          28.000    21120435.094    84263330.094        1837.086          44.000  
G16  21368350.711   109318345.801       -2339.480          36.000    21368360.227    84146617.918       -1822.895          27.000                                                                  
G 9                                                                                                                                  21594795.008    84277556.805        1647.719          44.000  
G26  23463235.539   126135956.734       -2759.520          34.000    23463248.398    92568675.672       -2150.352          23.000    23463248.688    92951218.625       -2149.988          43.000  
G 7  23953508.953   125661641.836        2406.797          36.000                                                                    23953519.336   101039198.824        1875.633          38.000  
G 3  24432462.281   126118411.938       -2570.266          27.000                                                                    24432482.188   101329000.559       -2002.223          42.000  
R 6  20899670.945   109358006.727       -2946.930          38.000                                                                  
R18  21464610.805   117504184.258        -222.195          41.000    21464617.094    92333941.355        -172.801          39.000  
R16  21276432.000   117590336.059       -1132.703          35.000    21276436.969    92399414.082        -880.961          33.000  
R19  21478090.023   117319171.312        3082.348          35.000    21478093.828    92196192.297        2397.348          35.000  
R 7  21109795.797   109038839.852         637.172          43.000    21109797.805    83889596.336         495.539          40.000  
S31                                                        36.000  
S25                                                        33.000  
S38                                                        36.000  
S33                                                        34.000  
> 2019  3 11 18 50 29.0000000  0 17                     
G23  20440046.453   109063812.070         342.230          46.000    20440053.742    83946644.461         266.656          28.000                                                                  
G27  20542810.969   109062031.383         357.590          46.000    20542821.789    83941231.637         278.645          30.000    20542822.562    84379076.625         278.586          46.000  
G 8  21119972.984   108873092.863        2356.379          43.000    21119985.320    83779620.137        1836.082          26.000    21119986.867    84261495.121        1836.164          45.000  
G16  21368796.586   109320687.668       -2340.270          45.000    21368805.898    84148442.762       -1823.656          25.000                                                                  
G 9                                                                                                                                  21594393.703    84275911.238        1646.418          45.000  
G26  23463760.094   126138718.520       -2760.051          41.000    23463773.664    92570827.676       -2150.695          23.000    23463774.398    92953370.648       -2150.465          42.000  
G 7  23953051.117   125659237.324        2406.469          44.000                                                                    23953061.992   101037325.180        1874.980          39.000  
G 3  24432952.172   126120983.953       -2570.066          34.000                                                                    24432970.430   101331004.688       -2002.410          42.000  
R 6  20900223.312   109360956.828       -2946.371          38.000                                                                  
R18  21464653.008   117504408.953        -223.012          43.000    21464659.180    92334116.121        -173.492          40.000  
R16  21276645.133   117591471.332       -1133.535          37.000    21276649.477    92400297.070        -881.668          35.000  
R19  21477514.375   117316091.664        3081.238          35.000    21477518.125    92193797.016        2396.453          36.000  
R 7  21109677.406   109038205.641         636.020          44.000    21109679.453    83889103.082         494.664          41.000  
S31                                                        43.000  
S25                                                        41.000  
S38                                                        42.000  
S33                                                        40.000  
> 2019  3 11 18 50 30.0000000  0 18                     
G23  20439981.367   109063470.570         340.965          44.000    20439988.672    83946378.359         265.734          29.000                                                                  
G27  20542742.523   109061674.578         356.301          45.000    20542753.930    83940953.621         277.574          31.000    20542754.898    84378798.605         277.367          45.000  
G 8  21119524.016   108870737.070        2355.344          43.000    21119536.820    83777784.461        1835.336          27.000    21119538.484    84259659.438        1835.281          44.000  
G16  21369242.180   109323028.312       -2340.766          42.000    21369251.383    84150266.637       -1823.941          25.000                                                                  
G 9                                                                                                                                  21593991.656    84274264.918        1645.977          44.000  
G26  23464285.531   126141478.836       -2760.059          38.000    23464299.039    92572978.574       -2150.523          24.000    23464299.977    92955521.559       -2150.746          42.000  
G 7  23952593.398   125656831.312        2405.707          42.000    23952601.562   100537481.3871       1874.656          23.000    23952603.320   101035450.348        1874.430          39.000  
G 3  24433440.742   126123554.426       -2571.344          34.000                                                                    24433459.836   101333007.672       -2003.324          42.000  
R 6  20900775.250   109363906.211       -2947.973          35.000                                                                  
R18  21464694.812   117504633.078        -224.031          40.000    21464701.344    92334290.449        -174.277          40.000  
R 9  21343017.789   117393061.9571        989.957          40.000    21343022.000    92248106.1171        769.676          40.000  
R16  21276857.117   117592605.133       -1133.930          35.000    21276860.812    92401178.918        -881.977          33.000  
R19  21476938.266   117313011.070        3080.109          33.000    21476942.344    92191401.008        2395.508          35.000  
R 7  21109558.578   109037570.898         634.238          42.000    21109561.117    83888609.406         493.301          41.000  
S31                                                        42.000  
S25                                                        39.000  
S38                                                        42.000  
S33                                                        38.000  
> 2019  3 11 18 50 31.0000000  0 18                     
G23  20439917.484   109063131.523         341.855          47.000    20439924.109    83946114.168         266.410          30.000                                                                  
G27  20542676.062   109061320.285         357.172          47.000    20542686.375    83940677.539         278.344          31.000    20542687.000    84378522.520         278.375          45.000  
G 8  21119077.164   108868383.594        2356.297          45.000    21119088.914    83775950.582        1836.141          28.000    21119089.883    84257825.551        1836.449          43.000  
G16  21369688.359   109325370.957       -2339.527          44.000    21369697.055    84152092.082       -1822.977          26.000                                                                  
G 9                                                                                                                                  21593589.695    84272620.391        1646.797          44.000  
G26  23464811.383   126144240.980       -2759.363          42.000    23464824.789    92575130.883       -2150.141          23.000    23464825.367    92957673.863       -2149.867          42.000  
G 7  23952136.227   125654427.000        2407.684          45.000    23952144.453   100535607.895        1875.918          22.000    23952145.914   101033576.867        1876.531          38.000  
G 3  24433932.695   126126126.641       -2569.750          37.000                                                                    24433949.836   101335011.949       -2001.836          41.000  
R 6  20901328.117   109366857.910       -2948.137          35.000                                                                  
R18  21464737.109   117504859.934        -223.883          41.000    21464743.438    92334466.891        -174.113          39.000  
R 9  21342832.961   117392074.094         991.012          40.000    21342836.617    92247337.781         770.805          40.000  
R16  21277069.070   117593740.863       -1132.691          34.000    21277073.797    92402062.258        -880.980          34.000  
R19  21476362.828   117309932.734        3081.539          33.000    21476367.039    92189006.758        2396.992          35.000  
R 7  21109440.273   109036938.871         634.852          42.000    21109442.734    83888117.820         493.789          40.000  
S31                                                        45.000  
S25                                                        41.000  
S38                                                        45.000  
S33                                                        41.000  
> 2019  3 11 18 50 32.0000000  0 18                     
G23  20439853.016   109062789.418         340.836          45.000    20439858.867    83945847.578         265.543          30.000                                                                  
G27  20542608.617   109060963.016         355.918          46.000    20542618.266    83940399.145         277.332          32.000    20542618.781    84378244.125         277.531          45.000  
G 8  21118628.969   108866026.914        2355.742          44.000    21118640.500    83774114.207        1835.582          28.000    21118641.891    84255989.199        1835.465          44.000  
G16  21370133.391   109327710.102       -2339.953          42.000    21370142.125    84153914.781       -1823.168          27.000                                                                  
G 9  21593176.281   117278558.4731       2112.434          44.000                                                                    21593187.891    84270973.379        1645.977          44.000  
G26  23465336.273   126146999.363       -2759.422          40.000    23465349.664    92577280.301       -2150.289          23.000    23465349.922    92959823.262       -2150.195          42.000  
G 7  23951677.836   125652018.922        2407.367          44.000    23951686.922   100533731.441        1875.871          23.000    23951687.297   101031700.449        1875.930          38.000  
G 3  24434421.234   126128695.000       -2569.629          35.000                                                                    24434438.492   101337013.285       -2002.062          41.000  
R 6  20901880.867   109369806.418       -2950.332          35.000                                                                  
R18  21464779.117   117505083.844        -225.215          42.000    21464785.438    92334641.047        -175.125          40.000  
R 9  21342647.070   117391082.527         991.137          41.000    21342650.766    92246566.574         770.250          40.000  
R16  21277281.352   117594872.797       -1132.383          35.000    21277285.508    92402942.660        -880.758          34.000  
R19  21475786.273   117306851.152        3080.738          34.000    21475791.516    92186609.941        2396.207          36.000  
R 7  21109321.656   109036303.914         633.766          42.000    21109323.953    83887623.961         492.914          40.000  
S31                                                        43.000  
S25                                                        39.000  
S38                                                        43.000  
S33                                                        40.000  
> 2019  3 11 18 50 33.0000000  0 18                     
G23  20439788.469   109062451.559         339.516          45.000    20439794.602    83945584.324         264.527          30.000                                                                  
G27  20542540.727   109060610.016         354.633          45.000    20542551.039    83940124.098         276.312          31.000    20542552.188    84377969.078         276.047          44.000  
G 8  21118181.023   108863674.379        2354.000          42.000    21118192.703    83772281.062        1834.398          28.000    21118194.648    84254156.047        1834.215          43.000  
G16  21370578.992   109330053.039       -2341.129          42.000    21370587.914    84155740.441       -1824.191          26.000                                                                  
G 9  21592775.000   117276448.898        2111.238          43.000                                                                    21592786.539    84269329.562        1645.008          43.000  
G26  23465862.844   126149761.324       -2760.277          40.000    23465875.148    92579432.457       -2150.914          23.000    23465875.977    92961975.438       -2150.383          41.000  
G 7  23951220.703   125649614.363        2406.445          43.000    23951229.469   100531857.750        1875.234          23.000    23951230.031   101029826.777        1874.555          38.000  
G 3  24434910.273   126131266.887       -2569.418          35.000                                                                    24434927.781   101339017.352       -2002.469          41.000  
R 6  20902434.305   109372759.086       -2951.305          35.000                                                                  
R18  21464821.812   117505312.152        -224.266          41.000    21464828.430    92334818.613        -174.465          39.000  
R 9  21342461.984   117390094.668         989.895          40.000    21342465.867    92245798.238         769.926          40.000  
R16  21277493.609   117596008.492       -1133.160          34.000    21277497.938    92403825.988        -881.332          33.000  
R19  21475210.445   117303773.586        3078.836          33.000    21475215.812    92184216.320        2394.363          35.000  
R 7  21109203.734   109035673.430         632.207          42.000    21109206.242    83887133.590         491.738          40.000  
S31                                                        42.000  
S25                                                        39.000  
S38                                                        42.000  
S33                                                        39.000  
> 2019  3 11 18 50 34.0000000  0 18                     
G23  20439723.023   109062108.922         338.875          45.000    20439729.336    83945317.332         264.039          29.000                                                                  
G27  20542472.711   109060252.328         353.852          45.000    20542482.992    83939845.367         275.738          31.000    20542484.070    84377690.352         275.773          44.000  
G 8  21117732.453   108861316.902        2353.855          43.000    21117743.969    83770444.051        1834.172          28.000    21117745.453    84252319.051        1834.004          43.000  
G16  21371024.078   109332390.750       -2341.328          43.000    21371032.648    84157562.039       -1824.371          26.000                                                                  
G 9  21592372.719   117274334.414        2110.676          44.000    21592381.750    92179104.9181       1644.648          29.000    21592383.734    84267681.895        1644.938          44.000  
G26  23466387.695   126152517.840       -2759.699          40.000    23466399.812    92581580.375       -2150.414          23.000    23466400.766    92964123.379       -2150.441          42.000  
G 7  23950761.883   125647204.289        2406.480          44.000    23950771.297   100529979.820        1874.957          23.000    23950771.219   101027948.777        1875.535          38.000  
G 3  24435399.375   126133833.230       -2569.070          36.000                                                                    24435415.484   101341017.121       -2002.457          41.000  
R 6  20902986.375   109375706.785       -2952.473          35.000                                                                  
R18  21464863.438   117505536.086        -227.723          40.000    21464869.953    92334992.785        -177.074          39.000  
R 9  21342276.156   117389101.383         989.961          40.000    21342279.602    92245025.676         769.734          40.000  
R16  21277705.422   117597138.680       -1133.801          35.000    21277709.031    92404705.016        -881.879          33.000  
R19  21474634.539   117300690.875        3079.270          33.000    21474639.406    92181818.656        2394.781          35.000  
R 7  21109084.953   109035038.262         631.508          42.000    21109087.547    83886639.574         491.160          41.000  
S31                                                        43.000  
S25                                                        39.000  
S38                                                        42.000  
S33                                                        40.000  
> 2019  3 11 18 50 35.0000000  0 18                     
G23  20439658.805   109061770.121         338.938          46.000    20439664.914    83945053.332         264.141          29.000                                                                  
G27  20542405.539   109059898.527         353.914          46.000    20542415.688    83939569.676         275.754          31.000    20542416.898    84377414.672         275.660          45.000  
G 8  21117284.469   108858963.125        2354.098          43.000    21117296.141    83768609.953        1834.410          27.000    21117297.750    84250484.941        1834.434          44.000  
G16  21371469.672   109334731.824       -2340.559          44.000    21371478.234    84159386.250       -1823.859          26.000                                                                  
G 9  21591971.047   117272223.602        2110.957          44.000    21591980.609    92177460.137        1644.859          29.000    21591982.492    84266037.102        1645.000          44.000  
G26  23466912.352   126155277.535       -2759.414          41.000    23466925.086    92583730.793       -2150.133          22.000    23466926.031    92966273.773       -2149.719          42.000  
G 7  23950304.242   125644797.336        2407.434          44.000    23950313.609   100528104.277        1875.965          24.000    23950313.758   101026073.242        1876.051          38.000  
G 3  24435888.820   126136402.691       -2569.207          36.000                                                                    24435904.570   101343019.293       -2001.941          42.000  
R 6  20903539.836   109378658.230       -2951.941          36.000                                                                  
R18  21464906.266   117505763.977        -228.363          40.000    21464912.797    92335170.027        -177.594          40.000  
R 9  21342090.484   117388111.402         989.859          40.000    21342094.211    92244255.676         770.535          40.000  
R16  21277917.750   117598272.129       -1132.340          35.000    21277921.844    92405586.582        -880.734          34.000  
R19  21474058.453   117297611.879        3078.898          33.000    21474063.656    92179423.824        2396.160          36.000  
R 7  21108967.156   109034407.227         631.000          42.000    21108969.664    83886148.762         490.762          41.000  
S31                                                        43.000  
S25                                                        39.000  
S38                                                        43.000  
S33                                                        41.000  
> 2019  3 11 18 50 36.0000000  0 18                     
G23  20439593.812   109061430.527         338.176          45.000    20439600.281    83944788.711         263.516          30.000                                                                  
G27  20542337.930   109059544.012         352.852          45.000    20542348.227    83939293.434         274.914          32.000    20542349.211    84377138.422         274.914          44.000  
G 8  21116836.648   108856608.418        2353.215          43.000    21116848.109    83766775.109        1833.582          28.000    21116849.211    84248650.094        1833.859          43.000  
G16  21371914.695   109337071.691       -2341.160          43.000    21371923.359    84161209.527       -1824.285          26.000                                                                  
G 9  21591568.578   117270111.832        2110.199          44.000    21591579.234    92175814.594        1644.285          29.000    21591580.023    84264391.578        1644.379          44.000  
G26  23467436.469   126158035.742       -2759.219          40.000    23467449.961    92585880.059       -2150.027          23.000    23467450.586    92968423.043       -2150.148          41.000  
G 7  23949845.898   125642388.863        2407.145          44.000    23949855.461   100526227.523        1875.586          24.000    23949855.953   101024196.539        1875.516          38.000  
G 3  24436376.383   126138970.676       -2569.281          36.000    24436394.422   100958895.2931      -2001.594          20.000    24436394.102   101345020.277       -2001.977          41.000  
R 6  20904092.773   109381608.785       -2952.973          36.000                                                                  
R18  21464948.672   117505991.234        -228.828          40.000    21464955.477    92335346.797        -177.969          40.000  
R 9  21341905.039   117387120.020         989.562          40.000    21341908.555    92243484.586         769.914          39.000  
R16  21278130.375   117599404.164       -1132.938          34.000    21278134.016    92406467.051        -881.117          34.000  
R19  21473482.078   117294531.852        3077.930          33.000    21473488.062    92177028.320        2394.020          36.000  
R 7  21108849.336   109033775.641         629.859          42.000    21108851.625    83885657.535         489.875          41.000  
S31                                                        42.000  
S25                                                        39.000  
S38                                                        42.000  
S33                                                        40.000  
> 2019  3 11 18 50 37.0000000  0 18                     
G23  20439530.750   109061096.027         337.383          48.000    20439536.625    83944528.062         262.902          30.000                                                                  
G27  20542271.906   109059194.652         352.164          48.000    20542281.633    83939021.199         274.418          32.000    20542283.211    84376866.191         274.566          45.000  
G 8  21116389.547   108854258.652        2352.926          46.000    21116401.008    83764944.121        1833.531          28.000    21116402.641    84246819.098        1833.312          44.000  
G16  21372360.953   109339416.180       -2341.309          46.000    21372369.367    84163036.402       -1824.371          26.000                                                                  
G 9  21591168.703   117268005.008        2109.848          47.000    21591178.672    92174172.902        1644.066          30.000    21591179.359    84262749.891        1644.230          44.000  
G26  23467962.742   126160798.391       -2759.555          43.000    23467975.555    92588032.758       -2150.328          24.000    23467975.547    92970575.742       -2150.211          42.000  
G 7  23949388.789   125639984.762        2407.477          47.000    23949398.117   100524354.188        1875.914          23.000    23949397.758   101022323.164        1876.270          38.000  
G 3  24436866.734   126141542.926       -2569.008          39.000    24436883.844   100960899.645       -2001.746          20.000    24436883.016   101347024.641       -2001.730          42.000  
R 6  20904646.688   109384564.359       -2952.945          36.000                                                                  
R18  21464992.289   117506223.891        -229.875          40.000    21464999.406    92335527.738        -178.773          40.000  
R 9  21341720.414   117386133.172         989.895          41.000    21341723.758    92242717.074         770.059          39.000  
R16  21278342.586   117600540.727       -1134.098          35.000    21278346.812    92407351.055        -882.117          34.000  
R19  21472908.172   117291456.809        3078.367          34.000    21472914.117    92174636.633        2394.273          37.000  
R 7  21108732.430   109033149.477         628.988          43.000    21108734.680    83885170.508         489.227          42.000  
S31                                                        45.000  
S25                                                        42.000  
S38                                                        45.000  
S33                                                        42.000  
> 2019  3 11 18 50 38.0000000  0 18                     
G23  20439466.070   109060755.359         336.914          47.000    20439471.758    83944262.617         262.547          31.000                                                                  
G27  20542204.539   109058839.180         351.387          48.000    20542213.992    83938744.223         273.754          33.000    20542215.344    84376589.207         273.938          45.000  
G 8  21115941.156   108851902.566        2352.488          45.000    21115952.742    83763108.211        1833.109          29.000    21115954.641    84244983.203        1833.000          43.000  
G16  21372806.273   109341754.051       -2341.297          45.000    21372814.188    84164858.105       -1824.359          27.000                                                                  
G 9  21590766.773   117265891.859        2109.430          46.000    21590776.805    92172526.316        1643.684          31.000    21590777.359    84261103.293        1643.734          44.000  
G26  23468487.664   126163554.199       -2759.477          43.000    23468500.086    92590180.148       -2150.336          25.000    23468500.070    92972723.129       -2149.855          42.000  
G 7  23948929.844   125637573.762        2407.449          46.000    23948939.352   100522475.508        1875.977          25.000    23948939.391   101020444.496        1876.023          38.000  
G 3  24437355.414   126144108.281       -2568.812          38.000    24437371.914   100962898.645       -2001.590          21.000    24437371.266   101349023.625       -2001.738          41.000  
R 6  20905199.438   109387513.547       -2952.488          35.000                                                                  
R18  21465034.617   117506450.469        -230.480          40.000    21465041.516    92335703.977        -179.352          40.000  
R 9  21341534.438   117385139.496         990.105          40.000    21341537.805    92241944.211         769.910          39.000  
R16  21278553.414   117601670.398       -1133.301          35.000    21278557.883    92408229.688        -881.473          34.000  
R19  21472332.469   117288375.430        3077.668          33.000    21472337.844    92172239.941        2394.203          36.000  
R 7  21108614.195   109032517.234         628.090          42.000    21108616.344    83884678.773         488.516          42.000  
S31                                                        45.000  
S25                                                        41.000  
S38                                                        45.000  
S33                                                        42.000  
> 2019  3 11 18 50 39.0000000  0 18                     
G23  20439402.000   109060417.840         335.922          47.000    20439407.617    83943999.605         261.793          30.000                                                                  
G27  20542137.734   109058486.914         350.797          47.000    20542146.922    83938469.719         273.375          33.000    20542148.242    84376314.715         273.234          45.000  
G 8  21115493.680   108849549.516        2351.520          45.000    21115504.961    83761274.672        1832.363          29.000    21115506.625    84243149.652        1832.523          43.000  
G16  21373252.117   109344094.609       -2342.016          45.000    21373259.734    84166681.918       -1824.980          28.000                                                                  
G 9  21590365.375   117263781.715        2108.844          46.000    21590375.562    92170882.043        1643.324          31.000    21590375.367    84259459.023        1643.164          44.000  
G26  23469013.133   126166312.473       -2759.500          42.000    23469024.898    92592329.453       -2150.309          25.000    23469025.352    92974872.438       -2150.246          42.000  
G 7  23948471.086   125635165.176        2407.527          46.000    23948480.891   100520598.707        1875.934          25.000    23948480.461   101018567.676        1875.977          38.000  
G 3  24437844.242   126146676.105       -2568.816          38.000    24437860.727   100964899.551       -2001.598          20.000    24437859.352   101351024.473       -2001.691          41.000  
R 6  20905752.727   109390465.824       -2954.055          37.000                                                                  
R18  21465077.758   117506680.473        -231.805          40.000    21465084.633    92335882.871        -180.340          40.000  
R 9  21341348.641   117384148.391         989.816          40.000    21341352.164    92241173.348         770.086          39.000  
R16  21278765.570   117602802.617       -1133.523          35.000    21278770.523    92409110.301        -881.672          34.000  
R19  21471756.781   117285297.059        3077.113          33.000    21471762.648    92169845.703        2392.996          37.000  
R 7  21108496.727   109031888.363         627.039          42.000    21108499.047    83884189.652         487.715          42.000  
S31                                                        45.000  
S25                                                        41.000  
S38                                                        44.000  
S33                                                        41.000  
> 2019  3 11 18 50 40.0000000  0 17                     
G23  20439337.461   109060081.734         336.055          44.000    20439343.766    83943737.703         261.801          30.000                                                                  
G27  20542070.539   109058136.129         350.785          45.000    20542080.125    83938196.387         273.293          32.000    20542081.789    84376041.379         273.141          44.000  
G 8  21115045.680   108847197.754        2351.418          42.000    21115057.469    83759442.133        1832.258          28.000    21115058.164    84241317.113        1832.375          43.000  
G16  21373697.406   109346436.121       -2341.340          42.000    21373705.258    84168506.484       -1824.375          27.000                                                                  
G 9  21589963.367   117261672.848        2108.422          43.000    21589974.523    92169238.770        1642.895          30.000    21589974.766    84257815.742        1643.145          44.000  
G26  23469537.703   126169071.500       -2759.004          39.000    23469549.906    92594479.355       -2149.945          24.000    23469550.406    92977022.336       -2149.953          41.000  
G 7  23948012.570   125632757.297        2407.859          43.000    23948022.625   100518722.438        1876.277          24.000    23948021.695   101016691.398        1876.480          38.000  
G 3  24438331.484   126149244.512       -2568.723          35.000    24438349.195   100966900.898       -2001.621          21.000    24438349.211   101353025.867       -2001.316          41.000  
R18  21465121.469   117506912.102        -231.758          40.000    21465127.797    92336063.027        -180.328          40.000  
R 9  21341162.828   117383158.168         990.281          40.000    21341166.234    92240403.176         770.172          38.000  
R16  21278977.781   117603935.691       -1133.227          34.000    21278982.406    92409991.574        -881.410          34.000  
R19  21471181.898   117282220.059        3076.605          34.000    21471186.555    92167452.441        2393.469          36.000  
R 7  21108379.695   109031261.098         627.047          42.000    21108381.883    83883701.773         487.688          41.000  
S31                                                        42.000  
S25                                                        38.000  
S38                                                        42.000  
S33                                                        39.000  
> 2019  3 11 18 50 41.0000000  0 17                     
G23  20439273.930   109059749.445         334.082          44.000    20439280.547    83943478.762         260.348          29.000                                                                  
G27  20542004.289   109057789.230         348.785          45.000    20542014.164    83937926.074         271.777          32.000    20542015.375    84375771.055         271.957          44.000  
G 8  21114598.938   108844849.664        2349.836          43.000    21114610.602    83757612.449        1831.016          27.000    21114612.023    84239487.430        1831.121          43.000  
G16  21374143.438   109348781.016       -2343.117          42.000    21374151.609    84170333.664       -1825.719          25.000                                                                  
G 9  21589562.961   117259567.637        2106.797          43.000    21589574.164    92167598.328        1641.699          30.000    21589573.945    84256175.309        1641.746          43.000  
G26  23470062.508   126171833.668       -2760.227          40.000    23470075.531    92596631.684       -2150.840          24.000    23470075.156    92979174.660       -2150.812          41.000  
G 7  23947555.602   125630352.496        2406.934          43.000    23947565.086   100516848.531        1875.551          23.000    23947565.375   101014817.504        1876.289          38.000  
G 3  24438820.211   126151815.969       -2568.121          36.000    24438838.305   100968904.594       -2000.992          20.000    24438837.453   101355029.621       -2001.852          40.000  
R18  21465165.797   117507147.809        -233.941          40.000    21465172.070    92336246.340        -181.941          40.000  
R 9  21340978.312   117382171.234         988.824          40.000    21340981.609    92239635.551         769.434          39.000  
R16  21279190.961   117605071.969       -1134.051          35.000    21279195.492    92410875.348        -882.000          34.000  
R19  21470607.383   117279146.699        3074.617          33.000    21470612.227    92165062.098        2391.445          36.000  
R 7  21108263.531   109030637.926         624.902          42.000    21108265.883    83883217.078         486.059          41.000  
S31                                                        42.000  
S25                                                        38.000  
S38                                                        41.000  
S33                                                        38.000  
> 2019  3 11 18 50 42.0000000  0 17                     
G23  20439210.469   109059415.891         334.215          45.000    20439217.008    83943218.859         260.410          29.000                                                                  
G27  20541937.656   109057441.137         348.754          45.000    20541947.930    83937654.824         271.723          31.000    20541949.109    84375499.816         271.789          44.000  
G 8  21114151.688   108842500.156        2350.234          43.000    21114163.664    83755781.664        1831.367          27.000    21114164.734    84237656.656        1831.363          43.000  
G16  21374589.344   109351124.184       -2342.254          42.000    21374597.359    84172159.512       -1825.168          26.000                                                                  
G 9  21589161.562   117257461.004        2106.906          44.000    21589173.305    92165956.805        1641.699          29.000    21589172.812    84254533.789        1642.355          43.000  
G26  23470587.680   126174593.910       -2759.344          39.000    23470600.898    92598782.527       -2150.109          23.000    23470601.008    92981325.496       -2149.832          41.000  
G 7  23947097.055   125627945.715        2407.734          44.000    23947107.125   100514973.137        1876.066          24.000    23947106.664   101012942.117        1876.348          37.000  
G 3  24439309.250   126154385.500       -2568.340          36.000    24439327.203   100970906.832       -2001.242          20.000    24439327.109   101357031.848       -2001.445          41.000  
R18  21465209.727   117507382.438        -234.020          40.000    21465216.102    92336428.832        -181.984          40.000  
R 9  21340793.133   117381182.363         990.199          40.000    21340796.539    92238866.461         769.762          40.000  
R16  21279403.133   117606206.391       -1133.098          34.000    21279407.375    92411757.684        -881.305          34.000  
R19  21470033.438   117276071.934        3075.133          33.000    21470037.633    92162670.641        2391.871          36.000  
R 7  21108146.828   109030013.656         624.984          42.000    21108149.078    83882731.551         486.090          42.000  
S31                                                        42.000  
S25                                                        39.000  
S38                                                        42.000  
S33                                                        39.000  
> 2019  3 11 18 50 43.0000000  0 17                     
G23  20439147.273   109059081.852         333.984          47.000    20439153.406    83942958.570         260.258          29.000                                                                  
G27  20541871.508   109057092.586         348.336          47.000    20541881.664    83937383.234         271.445          32.000    20541882.789    84375228.223         271.445          45.000  
G 8  21113704.930   108840150.023        2350.105          45.000    21113716.445    83753950.379        1831.320          28.000    21113717.656    84235825.379        1831.355          43.000  
G16  21375035.469   109353466.398       -2342.188          45.000    21375043.039    84173984.605       -1825.098          26.000                                                                  
G 9  21588760.922   117255353.730        2107.266          46.000    21588772.391    92164314.781        1642.016          30.000    21588771.516    84252891.758        1642.066          44.000  
G26  23471114.078   126177352.980       -2759.047          42.000    23471125.820    92600932.449       -2149.891          23.000    23471126.078    92983475.434       -2150.102          42.000  
G 7  23946639.148   125625537.707        2408.387          46.000    23946649.000   100513096.746        1876.766          24.000    23946648.586   101011065.738        1876.754          38.000  
G 3  24439798.695   126156953.797       -2568.512          38.000    24439815.984   100972908.078       -2001.258          20.000    24439815.719   101359033.086       -2001.094          41.000  
R18  21465253.516   117507616.766        -234.891          41.000    21465260.031    92336611.098        -182.711          41.000  
R 9  21340607.789   117380192.488         989.391          41.000    21340611.367    92238096.543         770.270          41.000  
R16  21279615.117   117607339.668       -1133.469          34.000    21279619.242    92412639.105        -881.520          34.000  
R19  21469457.805   117272996.441        3075.453          33.000    21469463.273    92160278.559        2392.105          37.000  
R 7  21108030.039   109029389.105         624.363          43.000    21108032.344    83882245.777         485.641          42.000  
S31                                                        45.000  
S25                                                        40.000  
S38                                                        44.000  
S33                                                        42.000  
> 2019  3 11 18 50 44.0000000  0 17                     
G23  20439083.859   109058748.797         332.371          45.000    20439090.094    83942699.055         259.000          31.000                                                                  
G27  20541805.500   109056745.105         346.629          45.000    20541815.617    83937112.473         270.055          33.000    20541816.672    84374957.449         270.305          44.000  
G 8  21113257.820   108837800.773        2348.355          43.000    21113269.203    83752119.805        1829.863          28.000    21113270.945    84233994.785        1830.211          43.000  
G16  21375480.750   109355809.164       -2343.336          43.000    21375488.867    84175810.145       -1826.023          27.000                                                                  
G 9  21588359.945   117253247.309        2105.691          44.000    21588371.656    92162673.402        1640.848          30.000    21588371.086    84251250.387        1640.789          44.000  
G26  23471639.461   126180112.348       -2759.812          40.000    23471650.844    92603082.617       -2150.637          24.000    23471651.992    92985625.594       -2150.125          42.000  
G 7  23946180.922   125623129.984        2407.168          44.000    23946190.742   100511220.621        1875.738          23.000    23946189.812   101009189.598        1875.742          38.000  
G 3  24440288.039   126159522.258       -2567.891          36.000    24440304.656   100974909.535       -2001.148          22.000    24440304.438   101361034.520       -2001.828          41.000  
R18  21465297.445   117507852.305        -236.328          40.000    21465304.422    92336794.277        -183.793          41.000  
R 9  21340422.602   117379202.953         988.586          41.000    21340426.266    92237326.902         769.070          40.000  
R16  21279827.375   117608473.324       -1134.414          35.000    21279831.805    92413520.844        -882.320          34.000  
R19  21468882.516   117269921.711        3073.227          33.000    21468888.039    92157887.070        2390.895          36.000  
R 7  21107913.375   109028765.770         622.715          43.000    21107915.914    83881760.961         484.328          41.000  
S31                                                        43.000  
S25                                                        39.000  
S38                                                        43.000  
S33                                                        40.000  
> 2019  3 11 18 50 45.0000000  0 17                     
G23  20439020.477   109058414.891         332.270          46.000    20439026.461    83942438.859         258.883          30.000                                                                  
G27  20541739.430   109056396.824         346.535          46.000    20541749.289    83936841.090         270.051          32.000    20541750.148    84374686.082         269.902          45.000  
G 8  21112810.453   108835450.504        2348.828          44.000    21112822.031    83750288.434        1830.238          28.000    21112823.266    84232163.418        1830.332          44.000  
G16  21375925.992   109358150.609       -2342.742          44.000    21375934.336    84177634.656       -1825.547          26.000                                                                  
G 9  21587958.906   117251139.871        2105.723          45.000    21587970.531    92161031.246        1640.777          30.000    21587969.953    84249608.242        1640.797          45.000  
G26  23472163.500   126182870.227       -2759.254          41.000    23472175.586    92605231.594       -2150.074          24.000    23472176.430    92987774.586       -2149.910          42.000  
G 7  23945722.297   125620720.664        2407.832          45.000    23945732.172   100509343.262        1876.211          24.000    23945732.477   101007312.230        1875.965          38.000  
G 3  24440776.344   126162089.223       -2567.914          37.000    24440792.945   100976909.703       -2000.992          20.000    24440792.742   101363034.715       -2001.043          42.000  
R18  21465341.445   117508087.227        -237.555          40.000    21465348.023    92336977.008        -184.832          41.000  
R 9  21340236.961   117378211.984         989.641          41.000    21340240.984    92236556.145         769.461          41.000  
R16  21280039.688   117609605.434       -1132.965          35.000    21280043.352    92414401.359        -881.219          34.000  
R19  21468307.492   117266845.867        3074.168          34.000    21468312.836    92155494.793        2390.637          37.000  
R 7  21107796.641   109028141.820         622.043          43.000    21107799.219    83881275.684         483.812          42.000  
S31                                                        44.000  
S25                                                        40.000  
S38                                                        44.000  
S33                                                        41.000  
> 2019  3 11 18 50 46.0000000  0 17                     
G23  20438957.383   109058081.344         331.977          47.000    20438963.047    83942178.957         258.602          31.000                                                                  
G27  20541673.508   109056048.996         346.191          47.000    20541683.180    83936570.043         269.754          32.000    20541684.555    84374415.031         269.848          45.000  
G 8  21112363.398   108833100.492        2348.555          44.000    21112374.781    83748457.270        1829.945          29.000    21112376.414    84230332.230        1830.191          44.000  
G16  21376372.070   109360491.988       -2342.840          44.000    21376380.055    84179459.090       -1825.539          27.000                                                                  
G 9  21587558.453   117249032.664        2105.539          45.000    21587569.570    92159389.281        1640.656          31.000    21587568.930    84247966.250        1640.934          44.000  
G26  23472688.008   126185627.797       -2759.043          41.000    23472700.469    92607380.379       -2150.000          24.000    23472700.797    92989923.336       -2149.633          42.000  
G 7  23945264.047   125618311.023        2408.324          45.000    23945273.617   100507465.570        1876.652          23.000    23945272.969   101005434.562        1876.809          38.000  
G 3  24441264.680   126164655.797       -2568.043          38.000    24441281.172   100978909.641       -2000.961          20.000    24441281.211   101365034.617       -2000.984          42.000  
R18  21465385.562   117508322.609        -237.402          40.000    21465392.031    92337160.082        -184.703          41.000  
R 9  21340051.633   117377220.805         989.695          41.000    21340055.430    92235785.230         769.754          41.000  
R16  21280251.297   117610737.285       -1133.363          34.000    21280256.094    92415281.695        -881.520          34.000  
R19  21467732.766   117263770.219        3073.734          33.000    21467738.000    92153102.605        2389.488          37.000  
R 7  21107680.062   109027518.434         621.445          42.000    21107683.203    83880790.812         483.340          42.000  
S31                                                        44.000  
S25                                                        40.000  
S38                                                        44.000  
S33                                                        41.000  
> 2019  3 11 18 50 47.0000000  0 18                     
G23  20438894.508   109057751.488         331.109          46.000    20438900.320    83941921.930         258.066          31.000                                                                  
G27  20541607.914   109055704.895         345.211          47.000    20541617.672    83936301.902         269.066          33.000    20541618.844    84374146.895         269.016          45.000  
G 8  21111916.695   108830753.992        2348.055          44.000    21111928.258    83746628.816        1829.641          29.000    21111929.789    84228503.812        1829.246          43.000  
G16  21376818.242   109362836.570       -2343.098          44.000    21376826.266    84181286.043       -1825.805          27.000                                                                  
G 9  21587157.906   117246928.961        2105.188          45.000    21587169.297    92157750.012        1640.418          30.000    21587169.312    84246327.020        1640.008          45.000  
G26  23473214.383   126188388.367       -2759.141          41.000    23473225.875    92609531.477       -2149.902          24.000    23473226.039    92992074.445       -2149.820          41.000  
G 7  23944806.203   125615904.305        2408.316          45.000    23944815.633   100505590.207        1876.574          24.000    23944816.188   101003559.238        1876.250          38.000  
G 3  24441753.219   126167225.246       -2567.941          37.000    24441769.711   100980911.797       -2001.086          21.000    24441769.992   101367036.801       -2001.125          41.000  
R 6  20910184.828   109414113.8831      -2956.832          37.000                                                                  
R18  21465430.125   117508561.980        -238.129          40.000    21465437.266    92337346.266        -185.191          40.000  
R 9  21339866.336   117376232.742         989.566          41.000    21339870.273    92235016.727         769.730          40.000  
R16  21280463.141   117611872.289       -1134.461          35.000    21280468.008    92416164.477        -882.336          36.000  
R19  21467158.516   117260698.070        3073.902          34.000    21467163.602    92150713.160        2390.438          37.000  
R 7  21107564.320   109026898.969         620.816          42.000    21107567.383    83880308.996         482.840          42.000  
S31                                                        44.000  
S25                                                        40.000  
S38                                                        44.000  
S33                                                        41.000  
> 2019  3 11 18 50 48.0000000  0 18                     
G23  20438830.703   109057418.297         330.508          46.000    20438836.984    83941662.293         257.531          30.000                                                                  
G27  20541541.672   109055357.523         344.738          47.000    20541551.547    83936031.238         268.613          33.000    20541552.805    84373876.227         268.496          45.000  
G 8  21111469.516   108828404.066        2347.398          44.000    21111480.914    83744797.711        1829.148          28.000    21111482.461    84226672.691        1829.242          44.000  
G16  21377263.289   109365177.371       -2342.910          44.000    21377271.773    84183110.043       -1825.629          27.000                                                                  
G 9  21586756.953   117244821.785        2104.664          45.000    21586768.289    92156108.074        1639.953          31.000    21586768.023    84244685.059        1640.109          44.000  
G26  23473738.172   126191144.922       -2758.684          41.000    23473750.398    92611679.430       -2149.672          24.000    23473750.516    92994222.406       -2149.730          41.000  
G 7  23944347.305   125613493.535        2408.656          45.000    23944356.836   100503711.727        1876.902          25.000    23944357.453   101001680.711        1876.355          39.000  
G 3  24442241.352   126169790.672       -2568.117          37.000    24442257.906   100982910.836       -2000.926          20.000    24442258.242   101369035.812       -2000.852          41.000  
R 6  20910738.289   109417069.496       -2959.141          36.000                                                                  
R18  21465474.453   117508798.195        -239.594          41.000    21465481.273    92337529.980        -186.379          40.000  
R 9  21339680.500   117375240.711         989.754          41.000    21339684.414    92234245.148         770.055          41.000  
R16  21280674.500   117613003.301       -1134.480          35.000    21280679.820    92417044.160        -882.410          35.000  
R19  21466583.906   117257622.375        3073.629          34.000    21466588.586    92148321.000        2390.164          37.000  
R 7  21107447.938   109026276.328         619.945          42.000    21107451.133    83879824.738         482.184          42.000  
S31                                                        44.000  
S25                                                        40.000  
S38                                                        43.000  
S33                                                        41.000  
> 2019  3 11 18 50 49.0000000  0 17                     
G23  20438768.773   109057091.504         329.840          45.000    20438774.805    83941407.656         257.020          30.000                                                                  
G27  20541476.844   109055016.613         343.961          45.000    20541486.664    83935765.590         268.020          32.000    20541488.180    84373610.582         267.898          45.000  
G 8  21111023.602   108826060.410        2346.895          43.000    21111034.891    83742971.480        1828.730          28.000    21111036.883    84224846.477        1828.273          43.000  
G16  21377710.789   109367524.133       -2343.332          43.000    21377718.336    84184938.684       -1825.977          27.000                                                                  
G 9  21586356.812   117242720.879        2103.969          44.000    21586368.523    92154471.000        1639.469          31.000    21586368.609    84243047.988        1639.402          44.000  
G26  23474263.852   126193907.230       -2758.809          40.000    23474275.992    92613831.867       -2149.648          24.000    23474276.555    92996374.859       -2149.945          41.000  
G 7  23943889.562   125611088.449        2408.527          44.000    23943899.156   100501837.629        1876.770          24.000    23943900.164   100999806.621        1876.520          38.000  
G 3  24442729.859   126172361.699       -2568.070          36.000    24442746.852   100984914.270       -2001.211          21.000    24442747.094   101371039.238       -2001.180          41.000  
R18  21465519.898   117509041.078        -240.246          40.000    21465526.672    92337718.891        -186.805          40.000  
R 9  21339495.719   117374254.629         988.945          41.000    21339499.703    92233478.180         769.398          40.000  
R16  21280887.531   117614140.133       -1133.047          35.000    21280892.344    92417928.344        -881.254          34.000  
R19  21466009.836   117254553.082        3072.348          34.000    21466015.094    92145933.715        2390.184          37.000  
R 7  21107333.008   109025660.402         618.773          43.000    21107336.102    83879345.680         481.281          42.000  
S31                                                        43.000  
S25                                                        38.000  
S38                                                        42.000  
S33                                                        40.000  
> 2019  3 11 18 50 50.0000000  0 17                     
G23  20438705.891   109056761.062         328.957          44.000    20438711.922    83941150.164         256.250          30.000                                                                  
G27  20541411.188   109054672.129         342.891          45.000    20541421.039    83935497.156         267.180          32.000    20541422.414    84373342.141         267.402          44.000  
G 8  21110576.828   108823712.984        2345.688          43.000    21110588.156    83741142.328        1827.742          28.000    21110589.766    84223017.289        1828.086          43.000  
G16  21378156.539   109369866.797       -2343.871          43.000    21378164.016    84186764.141       -1826.508          27.000                                                                  
G 9  21585956.359   117240616.164        2102.973          43.000    21585967.945    92152830.973        1638.613          30.000    21585967.977    84241407.945        1638.746          44.000  
G26  23474788.336   126196665.223       -2759.363          40.000    23474800.750    92615980.945       -2150.113          23.000    23474800.992    92998523.926       -2150.145          41.000  
G 7  23943430.836   125608678.980        2408.289          43.000    23943440.602   100499960.105        1876.613          24.000    23943441.617   100997929.109        1876.383          38.000  
G 3  24443219.227   126174928.375       -2567.629          35.000    24443235.625   100986914.281       -2000.641          20.000    24443236.258   101373039.211       -2001.008          41.000  
R18  21465565.031   117509280.430        -240.773          40.000    21465571.266    92337905.062        -187.293          39.000  
R 9  21339310.336   117373264.195         988.652          40.000    21339314.359    92232707.859         769.273          40.000  
R16  21281099.430   117615272.676       -1134.137          35.000    21281104.688    92418809.223        -882.148          34.000  
R19  21465434.992   117251479.855        3071.742          34.000    21465440.609    92143543.441        2389.324          37.000  
R 7  21107217.195   109025040.938         617.641          43.000    21107220.086    83878863.875         480.352          41.000  
S31                                                        42.000  
S25                                                        38.000  
S38                                                        42.000  
S33                                                        39.000  
> 2019  3 11 18 50 51.0000000  0 18                     
G23  20438642.844   109056432.539         328.535          45.000    20438649.367    83940894.172         255.992          30.000                                                                  
G27  20541346.180   109054329.621         342.625          46.000    20541355.852    83935230.270         266.949          32.000    20541357.070    84373075.250         266.922          44.000  
G 8  21110130.633   108821367.309        2345.699          43.000    21110141.742    83739314.512        1827.750          28.000    21110143.609    84221189.504        1827.797          43.000  
G16  21378603.961   109372210.914       -2344.285          43.000    21378610.156    84188590.707       -1826.676          27.000                                                                  
G 9  21585555.922   117238513.199        2103.086          44.000    21585567.750    92151192.289        1638.762          30.000    21585567.000    84239769.277        1638.750          44.000  
G26  23475313.617   126199424.461       -2758.891          41.000    23475325.641    92618130.980       -2149.746          23.000    23475325.953    93000673.973       -2149.898          41.000  
G 7  23942972.633   125606270.719        2408.461          44.000    23942982.297   100498083.543        1876.707          23.000    23942982.742   100996052.527        1876.926          38.000  
G 3  24443707.969   126177496.203       -2567.582          36.000    24443724.289   100988915.094       -2000.777          20.000    24443724.008   101375040.113       -2000.496          41.000  
R 6  20912401.508   109425949.5701      -2960.527          36.000                                                                  
R18  21465610.133   117509521.969        -241.703          40.000    21465616.781    92338092.922        -188.008          39.000  
R 9  21339124.914   117372275.113         989.195          40.000    21339129.078    92231938.582         769.355          40.000  
R16  21281312.031   117616406.527       -1133.754          35.000    21281317.289    92419691.105        -881.867          34.000  
R19  21464860.898   117248408.371        3071.789          34.000    21464866.273    92141154.512        2389.504          36.000  
R 7  21107101.961   109024423.656         617.184          43.000    21107104.867    83878383.770         480.055          41.000  
S31                                                        42.000  
S25                                                        39.000  
S38                                                        42.000  
S33                                                        39.000  
> 2019  3 11 18 50 52.0000000  0 18                     
G23  20438580.172   109056104.148         327.828          44.000    20438586.938    83940638.277         255.508          29.000                                                                  
G27  20541280.766   109053987.305         341.496          45.000    20541290.656    83934963.527         266.098          32.000    20541292.125    84372808.512         266.199          45.000  
G 8  21109684.328   108819021.645        2344.926          43.000    21109695.477    83737486.719        1827.289          28.000    21109696.844    84219361.707        1827.098          43.000  
G16  21379047.734   109374554.699       -2344.461          43.000    21379056.164    84190417.039       -1826.828          26.000                                                                  
G 9  21585155.742   117236410.230        2102.344          43.000    21585167.539    92149553.609        1638.176          30.000    21585167.180    84238130.602        1638.098          44.000  
G26  23475838.328   126202183.145       -2759.125          39.000    23475850.445    92620280.621       -2149.969          23.000    23475851.344    93002823.605       -2150.066          41.000  
G 7  23942514.180   125603861.848        2408.559          43.000    23942524.039   100496206.508        1876.773          24.000    23942523.953   100994175.504        1876.312          38.000  
G 3  24444196.398   126180063.410       -2567.293          36.000    24444212.555   100990915.574       -2000.562          21.000    24444212.992   101377040.551       -2000.832          41.000  
R 6  20912956.398   109428909.508       -2960.566          37.000                                                                  
R18  21465655.609   117509763.879        -243.344          41.000    21465662.047    92338281.070        -189.242          39.000  
R 9  21338939.578   117371285.598         989.043          40.000    21338944.094    92231168.945         769.824          40.000  
R16  21281524.219   117617539.805       -1132.465          34.000    21281528.867    92420572.543        -880.820          34.000  
R19  21464286.727   117245336.887        3071.738          34.000    21464291.625    92138765.602        2388.051          36.000  
R 7  21106986.578   109023806.734         615.875          43.000    21106989.555    83877903.934         479.020          42.000  
S31                                                        41.000  
S25                                                        38.000  
S38                                                        41.000  
S33                                                        39.000  
> 2019  3 11 18 50 53.0000000  0 18                     
G23  20438517.992   109055776.211         327.285          44.000    20438524.523    83940382.754         255.016          29.000                                                                  
G27  20541215.461   109053645.492         341.316          45.000    20541225.656    83934697.184         265.926          32.000    20541227.016    84372542.176         265.742          44.000  
G 8  21109237.641   108816676.301        2344.762          43.000    21109249.188    83735659.176        1827.008          27.000    21109251.203    84217534.168        1827.137          43.000  
G16  21379493.648   109376898.477       -2344.207          43.000    21379502.188    84192243.359       -1826.656          26.000                                                                  
G 9  21584755.211   117234307.555        2102.281          43.000    21584767.297    92147915.168        1638.109          29.000    21584766.977    84236492.148        1637.922          44.000  
G26  23476362.906   126204941.605       -2758.691          39.000    23476375.641    92622430.090       -2149.828          22.000    23476375.820    93004973.039       -2149.188          41.000  
G 7  23942055.266   125601452.711        2408.762          43.000    23942065.555   100494329.258        1877.066          23.000    23942064.812   100992298.254        1876.719          38.000  
G 3  24444684.062   126182630.344       -2567.594          36.000    24444701.055   100992915.770       -2000.656          20.000    24444702.039   101379040.750       -2000.371          41.000  
R 6  20913511.477   109431869.824       -2961.711          36.000                                                                  
R18  21465701.016   117510006.375        -243.246          40.000    21465707.242    92338469.684        -189.160          39.000  
R 9  21338753.867   117370295.941         988.152          40.000    21338758.508    92230399.215         769.820          40.000  
R16  21281736.398   117618673.031       -1132.859          34.000    21281741.367    92421453.945        -881.098          34.000  
R19  21463712.500   117242265.758        3069.773          34.000    21463717.539    92136376.914        2387.836          37.000  
R 7  21106871.547   109023190.445         615.629          42.000    21106874.039    83877424.609         478.816          41.000  
S31                                                        42.000  
S25                                                        38.000  
S38                                                        42.000  
S33                                                        39.000  
> 2019  3 11 18 50 54.0000000  0 18                     
G23  20438455.781   109055450.328         327.094          45.000    20438462.484    83940128.797         254.977          29.000                                                                  
G27  20541150.992   109053305.832         340.676          46.000    20541161.047    83934432.512         265.457          32.000    20541162.172    84372277.492         265.496          45.000  
G 8  21108791.773   108814332.887        2344.645          43.000    21108803.258    83733833.145        1827.047          27.000    21108804.859    84215708.137        1826.621          43.000  
G16  21379940.453   109379243.863       -2344.074          43.000    21379948.641    84194070.941       -1826.672          27.000                                                                  
G 9  21584355.875   117232206.785        2102.090          44.000    21584367.508    92146278.207        1638.000          29.000    21584368.180    84234855.195        1637.785          44.000  
G26  23476888.328   126207701.449       -2758.156          40.000    23476900.867    92624580.609       -2149.176          23.000    23476900.984    93007123.602       -2149.789          41.000  
G 7  23941597.414   125599044.902        2409.285          43.000    23941607.352   100492453.047        1877.422          23.000    23941606.375   100990422.039        1877.180          38.000  
G 3  24445173.922   126185198.641       -2567.664          36.000    24445189.969   100994917.074       -2000.562          20.000    24445190.383   101381041.977       -2000.020          41.000  
R 6  20914066.562   109434832.098       -2961.977          36.000                                                                  
R18  21465746.891   117510251.223        -244.383          40.000    21465753.266    92338660.117        -190.090          39.000  
R 9  21338569.562   117369307.785         989.309          41.000    21338573.445    92229630.664         769.473          40.000  
R16  21281949.211   117619807.672       -1132.801          35.000    21281954.039    92422336.438        -881.047          35.000  
R19  21463139.125   117239196.488        3070.602          33.000    21463144.008    92133989.758        2387.465          37.000  
R 7  21106756.891   109022576.473         615.180          43.000    21106759.703    83876947.062         478.539          42.000  
S31                                                        43.000  
S25                                                        39.000  
S38                                                        42.000  
S33                                                        40.000  
> 2019  3 11 18 50 55.0000000  0 18                     
G23  20438393.734   109055122.711         326.188          45.000    20438400.133    83939873.527         254.145          30.000                                                                  
G27  20541086.109   109052964.480         339.664          46.000    20541096.102    83934166.520         264.660          32.000    20541097.242    84372011.512         264.750          44.000  
G 8  21108344.797   108811987.602        2343.602          43.000    21108357.016    83732005.645        1826.117          28.000    21108358.188    84213880.641        1826.020          43.000  
G16  21380385.570   109381587.062       -2344.512          43.000    21380394.648    84195896.824       -1826.949          26.000                                                                  
G 9  21583955.555   117230104.160        2101.176          44.000    21583967.188    92144639.801        1637.312          29.000    21583967.031    84233216.777        1637.301          44.000  
G26  23477412.703   126210458.910       -2758.859          40.000    23477425.484    92626729.266       -2149.820          22.000    23477425.516    93009272.266       -2149.973          41.000  
G 7  23941138.727   125596634.652        2409.152          43.000    23941148.805   100490574.930        1877.332          23.000    23941148.938   100988543.934        1876.906          38.000  
G 3  24445661.398   126187764.383       -2567.152          37.000    24445678.367   100996916.301       -2000.402          20.000    24445679.414   101383041.285       -2000.430          41.000  
R 6  20914621.352   109437792.516       -2961.324          36.000                                                                  
R18  21465792.195   117510494.516        -245.324          40.000    21465799.117    92338849.355        -190.797          40.000  
R 9  21338383.781   117368317.312         988.684          40.000    21338387.805    92228860.277         769.375          41.000  
R16  21282161.250   117620939.980       -1134.066          35.000    21282165.820    92423217.129        -882.055          35.000  
R19  21462564.727   117236125.367        3069.117          34.000    21462569.977    92131601.004        2388.762          37.000  
R 7  21106641.672   109021960.934         613.746          43.000    21106644.867    83876468.316         477.363          42.000  
S31                                                        43.000  
S25                                                        39.000  
S38                                                        42.000  
S33                                                        40.000  
> 2019  3 11 18 50 56.0000000  0 18                     
G23  20438332.430   109054799.418         325.363          45.000    20438338.570    83939621.605         253.492          30.000                                                                  
G27  20541021.867   109052627.520         338.957          45.000    20541031.945    83933903.957         264.180          32.000    20541033.258    84371748.945         264.090          44.000  
G 8  21107899.359   108809646.488        2343.250          43.000    21107911.508    83730181.398        1825.941          27.000    21107913.312    84212056.402        1825.766          43.000  
G16  21380832.016   109383934.141       -2344.820          43.000    21380841.250    84197725.699       -1827.098          25.000                                                                  
G 9  21583556.242   117228005.688        2100.785          44.000    21583567.750    92143004.609        1637.051          29.000    21583567.828    84231581.602        1636.770          44.000  
G26  23477938.461   126213220.000       -2758.785          40.000    23477950.914    92628880.785       -2149.504          22.000    23477951.352    93011423.754       -2149.512          41.000  
G 7  23940680.359   125594228.008        2408.926          44.000    23940690.719   100488699.613        1877.180          23.000    23940690.953   100986668.594        1877.293          38.000  
G 3  24446150.898   126190333.727       -2567.199          35.000    24446166.984   100998918.387       -2000.160          20.000    24446167.328   101385043.367       -2000.184          41.000  
R 6  20915176.898   109440757.238       -2962.684          36.000                                                                  
R18  21465838.906   117510742.359        -245.477          40.000    21465845.508    92339042.098        -190.887          39.000  
R 9  21338198.727   117367330.582         989.477          42.000    21338203.484    92228092.840         768.824          41.000  
R16  21282373.750   117622076.051       -1134.645          35.000    21282378.789    92424100.727        -882.496          34.000  
R19  21461991.195   117233058.309        3070.789          33.000    21461996.883    92129215.613        2387.191          37.000  
R 7  21106527.875   109021349.984         612.566          42.000    21106530.758    83875993.133         476.445          42.000  
S31                                                        42.000  
S25                                                        39.000  
S38                                                        42.000  
S33                                                        40.000  
> 2019  3 11 18 50 57.0000000  0 18                     
G23  20438270.430   109054473.926         324.637          45.000    20438276.617    83939367.980         252.945          30.000                                                                  
G27  20540957.438   109052288.410         338.508          45.000    20540967.383    83933639.734         263.789          31.000    20540968.469    84371484.703         263.457          44.000  
G 8  21107453.438   108807303.023        2342.668          43.000    21107465.461    83728355.348        1825.543          27.000    21107467.227    84210230.340        1825.516          43.000  
G16  21381279.078   109386278.551       -2345.340          43.000    21381287.508    84199552.516       -1827.539          26.000                                                                  
G 9  21583156.367   117225904.867        2100.074          44.000    21583167.805    92141367.613        1636.406          28.000    21583167.969    84229944.590        1636.543          43.000  
G26  23478463.633   126215978.230       -2759.086          40.000    23478475.703    92631030.059       -2149.938          24.000    23478476.758    93013573.043       -2150.066          41.000  
G 7  23940222.117   125591818.395        2409.320          44.000    23940231.977   100486822.004        1877.379          23.000    23940232.305   100984791.008        1877.168          38.000  
G 3  24446639.469   126192900.094       -2566.910          37.000    24446655.344   101000918.207       -2000.066          20.000    24446656.391   101387043.152       -2000.199          41.000  
R 6  20915731.641   109443719.594       -2963.715          36.000                                                                  
R18  21465884.641   117510988.180        -246.586          40.000    21465891.484    92339233.309        -191.816          39.000  
R 9  21338013.617   117366340.988         990.129          41.000    21338017.867    92227323.168         769.312          41.000  
R16  21282586.289   117623209.211       -1133.633          35.000    21282590.656    92424982.090        -881.719          35.000  
R19  21461417.117   117229988.895        3068.477          33.000    21461422.875    92126828.285        2386.922          36.000  
R 7  21106413.375   109020736.996         611.961          42.000    21106415.836    83875516.363         475.965          42.000  
S31                                                        43.000  
S25                                                        39.000  
S38                                                        42.000  
S33                                                        39.000  
> 2019  3 11 18 50 58.0000000  0 18                     
G23  20438208.602   109054150.059         323.363          45.000    20438215.031    83939115.609         251.973          30.000                                                                  
G27  20540893.180   109051950.984         337.121          46.000    20540903.273    83933376.809         262.695          32.000    20540904.344    84371221.793         262.562          44.000  
G 8  21107007.672   108804961.078        2341.629          43.000    21107019.742    83726530.453        1824.684          28.000    21107021.352    84208405.438        1824.684          43.000  
G16  21381725.375   109388624.117       -2345.734          43.000    21381733.828    84201380.234       -1827.871          26.000                                                                  
G 9  21582756.992   117223805.516        2099.160          44.000    21582768.188    92139731.754        1635.680          28.000    21582768.438    84228308.754        1635.832          43.000  
G26  23478988.094   126218737.406       -2759.445          40.000    23479000.781    92633180.066       -2150.293          23.000    23479001.672    93015723.031       -2149.805          41.000  
G 7  23939763.195   125589409.723        2409.004          43.000    23939773.344   100484945.117        1877.246          23.000    23939774.633   100982914.109        1876.336          38.000  
G 3  24447128.031   126195467.387       -2566.742          37.000    24447143.953   101002918.652       -2000.102          20.000    24447144.508   101389043.629       -2000.648          42.000  
R 6  20916287.500   109446683.352       -2962.773          36.000                                                                  
R18  21465931.406   117511235.867        -248.055          40.000    21465937.727    92339425.945        -192.949          39.000  
R 9  21337828.773   117365352.539         987.848          40.000    21337832.781    92226554.348         768.152          42.000  
R16  21282798.172   117624343.402       -1134.203          35.000    21282803.188    92425864.230        -882.168          34.000  
R19  21460844.047   117226920.961        3068.316          33.000    21460849.227    92124442.094        2385.547          37.000  
R 7  21106299.352   109020125.887         610.566          42.000    21106301.672    83875041.059         474.863          42.000  
S31                                                        43.000  
S25                                                        39.000  
S38                                                        42.000  
S33                                                        40.000  
> 2019  3 11 18 50 59.0000000  0 18                     
G23  20438147.320   109053826.172         323.770          45.000    20438153.391    83938863.230         252.293          29.000                                                                  
G27  20540828.859   109051613.613         337.316          46.000    20540838.984    83933113.902         262.867          31.000    20540840.055    84370958.895         262.859          45.000  
G 8  21106562.578   108802618.961        2342.039          43.000    21106574.023    83724705.430        1824.914          28.000    21106575.797    84206580.414        1825.027          43.000  
G16  21382171.469   109390969.223       -2345.039          43.000    21382179.984    84203207.578       -1827.367          25.000                                                                  
G 9  21582357.641   117221706.000        2099.668          44.000    21582368.641    92138095.770        1636.098          29.000    21582369.000    84226672.754        1636.078          44.000  
G26  23479513.688   126221495.887       -2758.234          40.000    23479525.758    92635329.504       -2149.352          24.000    23479526.461    93017872.508       -2149.355          41.000  
G 7  23939304.750   125587000.301        2409.684          43.000    23939314.992   100483067.621        1877.621          23.000    23939315.414   100981036.621        1877.824          38.000  
G 3  24447616.234   126198033.941       -2567.102          36.000    24447632.570   101004918.566       -2000.543          20.000    24447633.297   101391043.496       -1999.766          42.000  
R 6  20916843.023   109449647.105       -2963.848          36.000                                                                  
R18  21465977.656   117511483.734        -248.238          40.000    21465984.125    92339618.746        -193.102          39.000  
R 9  21337643.328   117364363.387         988.711          40.000    21337647.727    92225785.031         769.211          41.000  
R16  21283010.703   117625476.906       -1133.871          35.000    21283014.828    92426745.855        -881.832          34.000  
R19  21460270.562   117223852.773        3068.984          34.000    21460275.562    92122055.730        2386.340          37.000  
R 7  21106185.297   109019514.953         610.559          42.000    21106187.500    83874565.891         474.875          42.000  
S31                                                        43.000  
S25                                                        39.000  
S38                                                        43.000  
S33                                                        41.000  
> 2019  3 11 18 51  0.0000000  0 18                     
G23  20438085.930   109053504.160         322.109          46.000    20438092.008    83938612.305         250.977          29.000                                                                  
G27  20540764.969   109051278.156         335.902          46.000    20540775.188    83932852.531         261.754          31.000    20540776.172    84370697.520         261.465          44.000  
G 8  21106116.836   108800278.574        2340.746          43.000    21106128.703    83722881.746        1824.066          28.000    21106130.492    84204756.742        1823.840          42.000  
G16  21382618.234   109393315.730       -2346.023          43.000    21382626.477    84205036.062       -1828.141          26.000                                                                  
G 9  21581958.062   117219608.215        2098.250          44.000    21581969.320    92136461.133        1635.012          29.000    21581969.555    84225038.125        1634.883          43.000  
G26  23480038.438   126224255.574       -2759.035          40.000    23480050.695    92637479.945       -2149.898          24.000    23480051.672    93020022.914       -2149.891          41.000  
G 7  23938846.859   125584592.020        2409.086          43.000    23938856.672   100481191.027        1877.164          23.000    23938856.250   100979160.039        1877.035          37.000  
G 3  24448102.625   126200601.523       -2566.871          37.000    24448121.195   101006919.266       -2000.188          20.000    24448121.812   101393044.246       -2000.316          41.000  
R 6  20917398.898   109452612.609       -2966.434          37.000                                                                  
R18  21466024.344   117511733.672        -249.281          40.000    21466031.352    92339813.137        -193.828          39.000  
R 9  21337458.492   117363375.598         988.227          40.000    21337462.820    92225016.734         769.012          41.000  
R16  21283223.375   117626611.688       -1133.957          36.000    21283226.953    92427628.457        -881.965          34.000  
R19  21459697.531   117220786.355        3065.637          34.000    21459702.734    92119670.703        2385.832          36.000  
R 7  21106071.172   109018906.109         609.207          42.000    21106073.766    83874092.340         473.840          42.000  
S31                                                        43.000  
S25                                                        39.000  
S38                                                        43.000  
S33                                                        40.000  
> 2019  3 11 18 51  1.0000000  0 18                     
G23  20438024.602   109053182.598         323.078          45.000    20438030.742    83938361.734         251.809          29.000                                                                  
G27  20540701.656   109050943.242         336.176          46.000    20540711.445    83932591.531         261.969          31.000    20540712.352    84370436.535         261.898          45.000  
G 8  21105671.734   108797938.492        2341.645          43.000    21105683.398    83721058.320        1824.715          27.000    21105685.070    84202933.309        1824.148          43.000  
G16  21383064.773   109395662.246       -2345.250          43.000    21383072.867    84206864.473       -1827.492          25.000                                                                  
G 9  21581559.266   117217510.715        2098.855          44.000    21581570.078    92134826.723        1635.426          28.000    21581570.844    84223403.699        1635.520          44.000  
G26  23480562.930   126227015.039       -2757.945          39.000    23480575.789    92639630.141       -2149.047          24.000    23480577.414    93022173.145       -2149.035          41.000  
G 7  23938388.500   125582183.449        2410.332          43.000    23938398.047   100479314.238        1878.191          22.000    23938398.086   100977283.238        1878.191          39.000  
G 3  24448593.922   126203168.945       -2566.961          37.000    24448609.742   101008919.820       -2000.125          20.000    24448610.469   101395044.762       -1999.215          42.000  
R 6  20917954.672   109455578.352       -2965.121          36.000                                                                  
R18  21466071.438   117511984.309        -249.422          40.000    21466078.148    92340008.074        -193.980          39.000  
R 9  21337273.594   117362387.676         989.230          42.000    21337277.859    92224248.367         769.633          41.000  
R16  21283435.375   117627746.398       -1134.152          36.000    21283439.000    92428511.000        -882.082          34.000  
R19  21459125.055   117217720.172        3066.734          34.000    21459129.305    92117285.914        2385.453          37.000  
R 7  21105957.711   109018297.941         609.488          42.000    21105960.234    83873619.312         474.027          41.000  
S31                                                        43.000  
S25                                                        38.000  
S38                                                        42.000  
S33                                                        40.000  
> 2019  3 11 18 51  2.0000000  0 18                     
G23  20437962.938   109052858.770         321.590          45.000    20437969.125    83938109.418         250.590          29.000                                                                  
G27  20540637.078   109050606.109         334.805          46.000    20540647.312    83932328.852         260.871          32.000    20540648.203    84370173.824         260.988          45.000  
G 8  21105225.977   108795596.016        2340.070          43.000    21105237.688    83719233.016        1823.465          27.000    21105239.156    84201108.008        1823.527          43.000  
G16  21383510.438   109398006.012       -2345.703          43.000    21383518.852    84208690.801       -1827.766          25.000                                                                  
G 9  21581159.320   117215410.797        2097.574          44.000    21581170.422    92133190.402        1634.453          29.000    21581171.055    84221767.395        1634.789          44.000  
G26  23481088.008   126229771.559       -2758.297          40.000    23481100.234    92641778.129       -2149.320          23.000    23481101.531    93024321.082       -2149.266          41.000  
G 7  23937929.391   125579771.895        2409.422          43.000    23937939.328   100477435.133        1877.531          22.000    23937939.039   100975404.098        1878.043          38.000  
G 3  24449080.805   126205733.176       -2566.484          36.000    24449097.758   101010917.926       -1999.852          20.000    24449097.992   101397042.930       -1999.766          41.000  
R 6  20918510.078   109458541.621       -2965.121          36.000                                                                  
R18  21466118.016   117512232.820        -251.754          40.000    21466124.750    92340201.367        -195.824          39.000  
R 9  21337088.094   117361396.844         988.664          41.000    21337092.133    92223477.703         769.098          40.000  
R16  21283647.383   117628878.055       -1133.438          35.000    21283650.820    92429391.184        -881.625          34.000  
R19  21458551.094   117214651.438        3066.793          34.000    21458555.531    92114899.227        2383.770          37.000  
R 7  21105843.234   109017687.656         607.766          41.000    21105846.023    83873144.656         472.695          41.000  
S31                                                        42.000  
S25                                                        39.000  
S38                                                        42.000  
S33                                                        40.000  
> 2019  3 11 18 51  3.0000000  0 18                     
G23  20437901.523   109052537.395         321.348          45.000    20437907.984    83937858.988         250.402          30.000                                                                  
G27  20540573.586   109050271.488         334.840          46.000    20540583.648    83932068.102         260.891          31.000    20540584.867    84369913.090         260.789          45.000  
G 8  21104780.242   108793255.887        2340.539          43.000    21104792.375    83717409.543        1823.809          27.000    21104793.516    84199284.516        1823.695          43.000  
G16  21383957.078   109400351.797       -2345.320          43.000    21383965.398    84210518.695       -1827.617          26.000                                                                  
G 9  21580760.469   117213313.203        2097.805          44.000    21580771.289    92131555.934        1634.621          29.000    21580771.625    84220132.910        1634.754          44.000  
G26  23481612.555   126232529.859       -2757.617          41.000    23481625.289    92643927.434       -2148.852          23.000    23481627.289    93026470.422       -2149.078          42.000  
G 7  23937470.031   125577362.090        2410.230          43.000    23937481.016   100475557.340        1878.012          23.000    23937481.336   100973526.332        1878.156          38.000  
G 3  24449568.672   126208299.250       -2566.949          36.000    24449585.938   101012917.480       -2000.184          20.000    24449586.391   101399042.434       -1998.988          42.000  
R 6  20919066.320   109461507.363       -2965.074          37.000                                                                  
R18  21466164.977   117512484.023        -251.098          41.000    21466171.562    92340396.758        -195.281          39.000  
R 9  21336903.164   117360407.867         989.215          41.000    21336906.984    92222708.535         769.688          41.000  
R16  21283859.539   117630011.676       -1134.160          35.000    21283864.078    92430272.895        -882.164          34.000  
R19  21457977.680   117211585.043        3067.402          34.000    21457982.852    92112514.148        2386.539          36.000  
R 7  21105729.875   109017080.082         607.613          43.000    21105732.523    83872672.098         472.605          42.000  
S31                                                        43.000  
S25                                                        38.000  
S38                                                        42.000  
S33                                                        41.000  
> 2019  3 11 18 51  4.0000000  0 18                     
G23  20437841.297   109052220.352         319.852          45.000    20437847.734    83937611.938         249.207          29.000                                                                  
G27  20540510.359   109049941.285         333.016          46.000    20540520.797    83931810.797         259.492          31.000    20540522.273    84369655.770         259.738          45.000  
G 8  21104335.781   108790919.941        2338.609          44.000    21104347.773    83715589.309        1822.309          27.000    21104349.242    84197464.289        1822.555          43.000  
G16  21384403.555   109402701.453       -2346.414          43.000    21384412.359    84212349.578       -1828.402          26.000                                                                  
G 9  21580361.875   117211219.793        2096.562          44.000    21580372.992    92129924.695        1633.719          29.000    21580373.602    84218501.664        1633.855          44.000  
G26  23482138.039   126235291.852       -2758.648          40.000    23482150.703    92646079.641       -2149.711          23.000    23482152.320    93028622.598       -2149.688          41.000  
G 7  23937013.648   125574955.871        2409.477          43.000    23937023.086   100473682.438        1877.453          22.000    23937022.555   100971651.375        1877.621          39.000  
G 3  24450059.703   126210868.852       -2566.438          37.000    24450075.094   101014919.742       -2000.016          20.000    24450075.516   101401044.727       -1999.594          42.000  
R 6  20919623.211   109464477.320       -2967.168          37.000                                                                  
R18  21466213.273   117512739.871        -252.562          40.000    21466219.742    92340595.742        -196.398          39.000  
R 9  21336718.453   117359422.727         988.777          41.000    21336722.578    92221942.316         768.852          41.000  
R16  21284072.555   117631149.008       -1133.770          35.000    21284076.789    92431157.473        -881.816          35.000  
R19  21457405.219   117208522.941        3065.289          34.000    21457410.188    92110132.551        2384.305          36.000  
R 7  21105617.180   109016477.160         606.051          43.000    21105620.031    83872203.148         471.367          42.000  
S31                                                        43.000  
S25                                                        39.000  
S38                                                        42.000  
S33                                                        39.000  
> 2019  3 11 18 51  5.0000000  0 18                     
G23  20437779.586   109051898.320         318.734          45.000    20437786.445    83937361.008         248.270          29.000                                                                  
G27  20540446.805   109049606.148         332.020          46.000    20540457.055    83931549.656         258.672          31.000    20540458.102    84369394.633         258.691          45.000  
G 8  21103890.336   108788578.887        2337.727          44.000    21103902.352    83713765.113        1821.602          28.000    21103903.961    84195640.094        1821.867          43.000  
G16  21384850.164   109405045.676       -2346.797          44.000    21384858.430    84214176.250       -1828.836          26.000                                                                  
G 9  21579962.461   117209121.242        2095.551          44.000    21579973.648    92128289.453        1632.867          29.000    21579975.219    84216866.438        1632.918          43.000  
G26  23482662.406   126238048.164       -2759.027          40.000    23482675.016    92648227.395       -2150.055          23.000    23482676.625    93030770.383       -2149.879          41.000  
G 7  23936554.961   125572543.949        2409.383          43.000    23936563.812   100471802.957        1877.344          21.000    23936564.344   100969771.984        1877.004          39.000  
G 3  24450545.711   126213432.738       -2566.324          37.000    24450563.078   101016917.562       -1999.930          20.000    24450563.742   101403042.570       -1999.984          41.000  
R 6  20920178.461   109467442.102       -2967.742          37.000                                                                  
R18  21466260.094   117512990.805        -253.449          41.000    21466266.438    92340790.902        -197.172          39.000  
R 9  21336533.070   117358431.941         988.430          41.000    21336536.789    92221171.707         768.266          41.000  
R16  21284284.039   117632280.645       -1133.965          35.000    21284289.016    92432037.645        -881.984          34.000  
R19  21456831.977   117205455.574        3064.141          33.000    21456836.852    92107746.754        2384.891          36.000  
R 7  21105503.539   109015869.375         604.727          42.000    21105506.633    83871730.430         470.340          42.000  
S31                                                        43.000  
S25                                                        39.000  
S38                                                        43.000  
S33                                                        40.000  
> 2019  3 11 18 51  6.0000000  0 18                     
G23  20437719.945   109051581.004         318.320          45.000    20437726.148    83937113.738         248.055          29.000                                                                  
G27  20540384.211   109049275.766         331.230          45.000    20540394.227    83931292.219         258.074          31.000    20540394.836    84369137.199         258.121          45.000  
G 8  21103446.734   108786242.387        2337.945          44.000    21103457.820    83711944.473        1821.828          28.000    21103459.188    84193819.445        1821.449          43.000  
G16  21385297.250   109407394.137       -2347.215          43.000    21385305.289    84216006.227       -1829.043          26.000                                                                  
G 9  21579564.141   117207027.227        2095.340          44.000    21579575.141    92126657.762        1632.699          29.000    21579575.891    84215234.750        1632.797          44.000  
G26  23483187.945   126240808.520       -2758.852          40.000    23483200.289    92650378.328       -2149.660          23.000    23483201.727    93032921.301       -2149.855          41.000  
G 7  23936096.859   125570136.020        2409.441          43.000    23936105.539   100469926.617        1877.508          23.000    23936107.070   100967895.652        1877.410          39.000  
G 3  24451034.812   126216000.562       -2566.137          36.000    24451051.891   101018918.461       -1999.539          20.000    24451052.617   101405043.469       -1999.535          42.000  
R 6  20920734.461   109470411.570       -2969.266          37.000                                                                  
R18  21466307.828   117513246.793        -255.328          40.000    21466314.445    92340990.016        -198.516          39.000  
R 9  21336348.172   117357445.352         987.672          41.000    21336352.023    92220404.340         768.223          41.000  
R16  21284496.539   117633416.434       -1134.074          36.000    21284501.266    92432921.027        -882.008          35.000  
R19  21456259.969   117202392.785        3063.406          33.000    21456264.312    92105364.578        2385.047          37.000  
R 7  21105391.086   109015266.547         603.488          43.000    21105393.953    83871261.562         469.410          42.000  
S31                                                        42.000  
S25                                                        39.000  
S38                                                        42.000  
S33                                                        39.000  
> 2019  3 11 18 51  7.0000000  0 18                     
G23  20437658.750   109051259.723         317.422          45.000    20437664.922    83936863.395         247.355          30.000                                                                  
G27  20540320.391   109048941.504         330.145          45.000    20540330.625    83931031.754         257.227          31.000    20540331.742    84368876.715         257.629          45.000  
G 8  21103001.500   108783901.805        2336.871          44.000    21103012.445    83710120.629        1820.871          28.000    21103014.227    84191995.621        1820.863          43.000  
G16  21385743.375   109409738.191       -2347.805          43.000    21385751.703    84217832.766       -1829.434          26.000                                                                  
G 9  21579165.164   117204929.113        2094.242          44.000    21579175.961    92125022.871        1631.902          29.000    21579176.766    84213599.852        1631.902          43.000  
G26  23483712.266   126243564.227       -2759.234          40.000    23483724.766    92652525.609       -2150.086          23.000    23483725.859    93035068.609       -2150.160          42.000  
G 7  23935636.797   125567723.398        2409.191          43.000    23935646.594   100468046.703        1877.250          23.000    23935646.898   100966015.684        1877.355          39.000  
G 3  24451522.672   126218563.766       -2565.684          37.000    24451539.609   101020915.766       -1999.270          20.000    24451539.805   101407040.727       -2000.156          42.000  
R 6  20921290.859   109473376.844       -2968.137          37.000                                                                  
R18  21466355.141   117513498.926        -256.258          40.000    21466361.258    92341186.109        -199.219          39.000  
R 9  21336162.688   117356454.082         987.160          41.000    21336166.406    92219633.348         768.508          41.000  
R16  21284708.406   117634547.621       -1135.391          35.000    21284712.812    92433800.840        -883.156          35.000  
R19  21455685.805   117199325.730        3063.297          35.000    21455690.633    92102979.164        2382.215          36.000  
R 7  21105277.805   109014659.840         602.367          42.000    21105280.555    83870789.688         468.516          42.000  
S31                                                        42.000  
S25                                                        39.000  
S38                                                        41.000  
S33                                                        40.000  
> 2019  3 11 18 51  8.0000000  0 18                     
G23  20437598.227   109050943.730         317.297          45.000    20437604.789    83936617.176         247.277          29.000                                                                  
G27  20540257.734   109048612.582         330.203          46.000    20540268.062    83930775.453         257.320          31.000    20540269.297    84368620.438         257.156          45.000  
G 8  21102556.367   108781566.395        2336.480          43.000    21102567.969    83708300.816        1820.688          28.000    21102569.547    84190175.816        1820.668          43.000  
G16  21386190.031   109412087.074       -2347.219          44.000    21386198.711    84219663.055       -1828.953          26.000                                                                  
G 9  21578767.078   117202836.168        2094.102          44.000    21578777.609    92123391.992        1631.723          29.000    21578778.383    84211968.977        1631.906          44.000  
G26  23484238.445   126246324.574       -2758.730          40.000    23484250.148    92654676.523       -2149.660          23.000    23484251.133    93037219.520       -2149.812          41.000  
G 7  23935178.367   125565315.359        2409.438          43.000    23935188.234   100466170.281        1877.594          22.000    23935188.977   100964139.285        1877.762          39.000  
G 3  24452011.734   126221131.422       -2565.945          36.000    24452028.211   101022916.523       -1999.324          20.000    24452028.789   101409041.512       -1999.129          42.000  
R 6  20921847.656   109476347.484       -2971.422          37.000                                                                  
R18  21466403.297   117513756.547        -255.734          40.000    21466409.539    92341386.477        -198.895          39.000  
R 9  21335978.250   117355467.633         987.594          41.000    21335981.711    92218866.121         768.473          40.000  
R16  21284921.289   117635683.535       -1134.738          35.000    21284925.914    92434684.336        -882.590          34.000  
R19  21455113.008   117196263.906        3062.453          34.000    21455118.250    92100597.730        2382.832          36.000  
R 7  21105165.570   109014058.754         602.207          42.000    21105168.406    83870322.164         468.391          42.000  
S31                                                        43.000  
S25                                                        39.000  
S38                                                        42.000  
S33                                                        39.000  
> 2019  3 11 18 51  9.0000000  0 18                     
G23  20437537.195   109050622.109         317.008          45.000    20437543.500    83936366.559         247.031          29.000                                                                  
G27  20540193.617   109048278.078         329.957          45.000    20540204.359    83930514.801         257.113          31.000    20540205.711    84368359.789         256.820          45.000  
G 8  21102110.164   108779225.180        2336.551          43.000    21102122.352    83706476.520        1820.676          27.000    21102124.000    84188351.488        1820.953          43.000  
G16  21386635.992   109414429.859       -2347.016          43.000    21386644.516    84221488.602       -1828.840          26.000                                                                  
G 9  21578367.477   117200737.402        2094.129          44.000    21578378.070    92121756.605        1631.762          29.000    21578378.602    84210333.582        1632.027          43.000  
G26  23484762.664   126249078.582       -2758.469          41.000    23484774.336    92656822.520       -2149.492          23.000    23484775.906    93039365.500       -2149.398          41.000  
G 7  23934719.250   125562900.934        2409.859          43.000    23934728.625   100464288.941        1877.727          24.000    23934730.617   100962257.898        1878.160          39.000  
G 3  24452498.781   126223692.707       -2565.750          37.000    24452515.555   101024912.340       -1999.305          20.000    24452516.312   101411037.328       -1999.105          41.000  
R 6  20922403.055   109479312.242       -2970.555          38.000                                                                  
R18  21466450.562   117514008.703        -256.754          40.000    21466456.852    92341582.609        -199.727          39.000  
R 9  21335792.305   117354474.828         988.723          41.000    21335795.625    92218093.941         768.688          41.000  
R16  21285133.039   117636813.062       -1133.516          35.000    21285137.312    92435562.867        -881.641          34.000  
R19  21454539.469   117193196.043        3063.766          34.000    21454544.711    92098211.633        2383.191          37.000  
R 7  21105052.234   109013452.145         601.602          42.000    21105054.898    83869850.375         467.891          42.000  
S31                                                        43.000  
S25                                                        39.000  
S38                                                        42.000  
S33                                                        40.000  
> 2019  3 11 18 51 10.0000000  0 17                     
G23  20437477.961   109050308.113         315.578          45.000    20437483.781    83936121.875         245.918          29.000                                                                  
G27  20540133.617   109047951.293         328.453          45.000    20540142.219    83930260.172         255.961          31.000    20540143.172    84368105.148         255.891          45.000  
G 8  21101667.242   108776891.496        2335.379          43.000    21101678.359    83704658.055        1819.824          27.000    21101679.945    84186533.031        1820.078          43.000  
G16  21387083.477   109416779.844       -2348.027          44.000    21387091.695    84223319.762       -1829.652          26.000                                                                  
G 9  21577969.227   117198646.141        2092.965          44.000    21577980.094    92120127.055        1630.922          29.000    21577980.961    84208704.031        1630.852          44.000  
G26  23485287.727   126251839.562       -2758.457          40.000    23485299.750    92658973.930       -2149.441          23.000    23485301.086    93041516.922       -2149.941          42.000  
G 7  23934261.359   125560493.445        2409.637          44.000    23934270.445   100462412.984        1877.711          22.000    23934270.977   100960381.949        1877.500          38.000  
G 3  24452987.500   126226260.906       -2565.785          37.000    24453004.094   101026913.512       -1999.285          20.000    24453003.695   101413038.523       -1999.551          42.000  
R18  21466499.219   117514268.863        -258.609          40.000    21466505.961    92341784.953        -201.188          40.000  
R 9  21335607.445   117353489.273         987.402          41.000    21335611.281    92217327.371         768.203          41.000  
R16  21285345.531   117637949.742       -1134.684          35.000    21285349.898    92436446.934        -882.512          34.000  
R19  21453967.586   117190135.875        3061.961          34.000    21453972.711    92095831.512        2382.008          37.000  
R 7  21104940.812   109012853.543         600.055          43.000    21104943.180    83869384.781         466.680          42.000  
S31                                                        43.000  
S25                                                        39.000  
S38                                                        42.000  
S33                                                        40.000  
> 2019  3 11 18 51 11.0000000  0 18                     
G23  20437417.516   109049991.363         315.977          45.000    20437423.562    83935875.074         246.227          29.000                                                                  
G27  20540067.625   109047621.820         328.398          46.000    20540079.594    83930003.430         255.918          31.000    20540080.438    84367848.422         255.816          45.000  
G 8  21101222.617   108774554.930        2335.613          44.000    21101233.805    83702837.348        1819.922          27.000    21101235.680    84184712.344        1819.707          44.000  
G16  21387529.703   109419126.621       -2347.602          44.000    21387538.156    84225148.406       -1829.219          26.000                                                                  
G 9  21577570.367   117196551.984        2093.051          44.000    21577581.555    92118495.223        1630.980          28.000    21577582.148    84207072.207        1631.070          44.000  
G26  23485812.219   126254597.160       -2758.734          41.000    23485824.820    92661122.707       -2149.637          23.000    23485825.219    93043665.672       -2149.145          42.000  
G 7  23933802.469   125558082.473        2410.203          43.000    23933811.781   100460534.285        1878.086          22.000    23933813.094   100958503.258        1878.395          39.000  
G 3  24453476.414   126228825.598       -2565.277          36.000    24453492.023   101028911.984       -1998.957          20.000    24453492.258   101415036.988       -1999.117          41.000  
R 6  20923517.242   109485254.0551      -2969.859          38.000                                                                  
R18  21466547.273   117514526.383        -257.734          40.000    21466554.391    92341985.242        -200.430          40.000  
R 9  21335422.141   117352500.273         988.867          41.000    21335425.961    92216558.199         768.508          41.000  
R16  21285557.438   117639083.020       -1134.000          36.000    21285562.039    92437328.367        -881.957          34.000  
R19  21453394.773   117187072.715        3062.258          34.000    21453400.156    92093449.051        2381.812          37.000  
R 7  21104828.312   109012252.344         600.398          42.000    21104830.852    83868917.188         466.977          42.000  
S31                                                        43.000  
S25                                                        39.000  
S38                                                        42.000  
S33                                                        40.000  
> 2019  3 11 18 51 12.0000000  0 18                     
G23  20437355.477   109049674.375         314.707          46.000    20437363.180    83935628.062         245.152          29.000                                                                  
G27  20540005.031   109047292.148         327.637          46.000    20540017.023    83929746.555         255.301          31.000    20540017.969    84367591.527         255.266          45.000  
G 8  21100777.406   108772217.965        2334.590          44.000    21100789.234    83701016.340        1819.113          28.000    21100790.109    84182891.328        1819.266          43.000  
G16  21387976.383   109421472.664       -2347.984          44.000    21387984.711    84226976.500       -1829.562          27.000                                                                  
G 9  21577172.148   117194457.422        2092.027          44.000    21577183.039    92116863.105        1630.105          29.000    21577183.719    84205440.074        1630.449          44.000  
G26  23486336.609   126257353.777       -2758.434          40.000    23486349.180    92663270.719       -2149.406          23.000    23486350.945    93045813.707       -2149.672          42.000  
G 7  23933343.578   125555670.520        2410.156          43.000    23933352.750   100458654.840        1877.930          23.000    23933353.703   100956623.828        1878.031          38.000  
G 3  24453964.156   126231389.285       -2565.508          37.000    24453979.805   101030909.688       -1999.125          20.000    24453980.602   101417034.664       -1999.086          41.000  
R 6  20924073.383   109488223.160       -2970.801          37.000                                                                  
R18  21466595.500   117514783.832        -259.605          40.000    21466602.078    92342185.480        -201.988          40.000  
R 9  21335237.016   117351510.453         988.078          42.000    21335240.445    92215788.324         768.227          41.000  
R16  21285769.484   117640215.391       -1134.676          35.000    21285774.227    92438209.117        -882.586          35.000  
R19  21452822.547   117184009.164        3062.129          35.000    21452827.312    92091066.305        2380.930          37.000  
R 7  21104716.133   109011651.043         599.074          42.000    21104718.312    83868449.508         465.887          42.000  
S31                                                        43.000  
S25                                                        39.000  
S38                                                        42.000  
S33                                                        40.000  
> 2019  3 11 18 51 13.0000000  0 18                     
G23  20437296.430   109049360.586         314.199          45.000    20437303.516    83935383.551         244.824          29.000                                                                  
G27  20539944.664   109046965.762         326.770          45.000    20539954.961    83929492.223         254.664          32.000    20539955.773    84367337.199         254.898          45.000  
G 8  21100333.359   108769884.102        2334.207          44.000    21100345.133    83699197.742        1818.852          27.000    21100346.969    84181072.738        1818.840          43.000  
G16  21388422.555   109423821.465       -2348.195          43.000    21388431.633    84228806.734       -1829.805          26.000                                                                  
G 9  21576774.633   117192365.910        2092.121          44.000    21576785.039    92115233.352        1630.242          29.000    21576785.352    84203810.332        1630.207          44.000  
G26  23486862.039   126260112.945       -2758.430          40.000    23486874.281    92665420.715       -2149.332          23.000    23486875.938    93047963.711       -2149.340          42.000  
G 7  23932884.758   125553261.062        2410.309          43.000    23932894.164   100456777.352        1878.055          23.000    23932894.531   100954746.355        1877.766          38.000  
G 3  24454452.344   126233955.484       -2565.453          37.000    24454468.031   101032909.293       -1998.871          21.000    24454468.398   101419034.262       -1998.719          42.000  
R 6  20924630.328   109491195.383       -2971.434          37.000                                                                  
R18  21466644.547   117515044.797        -260.914          40.000    21466651.344    92342388.477        -202.926          40.000  
R 9  21335052.078   117350523.270         987.551          41.000    21335055.688    92215020.523         768.543          41.000  
R16  21285982.008   117641350.398       -1134.363          35.000    21285986.617    92439091.906        -882.273          35.000  
R19  21452250.234   117180948.699        3061.828          35.000    21452255.234    92088685.957        2379.707          37.000  
R 7  21104604.562   109011053.215         598.469          43.000    21104606.836    83867984.535         465.461          42.000  
S31                                                        43.000  
S25                                                        39.000  
S38                                                        42.000  
S33                                                        39.000  
> 2019  3 11 18 51 14.0000000  0 18                     
G23  20437236.492   109049046.727         313.375          45.000    20437243.766    83935138.984         244.180          30.000                                                                  
G27  20539882.508   109046639.367         325.941          45.000    20539892.820    83929237.883         253.965          32.000    20539893.070    84367082.859         254.062          45.000  
G 8  21099889.625   108767550.008        2334.020          43.000    21099900.992    83697378.980        1818.668          28.000    21099902.367    84179253.965        1818.449          43.000  
G16  21388869.820   109426169.750       -2348.570          44.000    21388878.547    84230636.578       -1829.973          26.000                                                                  
G 9  21576376.211   117190274.199        2091.230          43.000    21576387.016    92113603.457        1629.551          29.000    21576387.266    84202180.426        1629.656          43.000  
G26  23487386.102   126262871.383       -2758.812          40.000    23487399.266    92667570.184       -2149.824          23.000    23487400.945    93050113.141       -2149.508          41.000  
G 7  23932426.117   125550850.812        2410.016          43.000    23932435.430   100454899.254        1877.902          24.000    23932437.047   100952868.215        1878.320          38.000  
G 3  24454938.602   126236520.816       -2565.062          37.000    24454956.180   101034908.250       -1998.781          20.000    24454956.734   101421033.230       -1999.113          41.000  
R 6  20925187.383   109494167.344       -2972.770          37.000                                                                  
R18  21466693.547   117515305.855        -261.656          40.000    21466700.445    92342591.512        -203.523          40.000  
R 9  21334866.906   117349535.387         988.102          41.000    21334870.602    92214252.176         767.949          41.000  
R16  21286194.422   117642484.703       -1134.797          35.000    21286198.977    92439974.141        -882.625          35.000  
R19  21451678.625   117177887.918        3061.277          36.000    21451682.766    92086305.336        2380.602          37.000  
R 7  21104492.805   109010455.551         596.902          42.000    21104495.039    83867519.691         464.230          42.000  
S31                                                        43.000  
S25                                                        39.000  
S38                                                        42.000  
S33                                                        40.000  
> 2019  3 11 18 51 15.0000000  0 18                     
G23  20437177.594   109048736.301         312.820          45.000    20437184.727    83934897.086         243.785          30.000                                                                  
G27  20539820.984   109046316.457         325.273          45.000    20539831.367    83928986.258         253.496          32.000    20539832.062    84366831.238         253.691          45.000  
G 8  21099445.445   108765219.242        2333.113          44.000    21099457.484    83695562.805        1818.078          28.000    21099458.297    84177437.773        1818.250          43.000  
G16  21389317.094   109428521.004       -2348.789          44.000    21389325.914    84232468.711       -1830.203          27.000                                                                  
G 9  21575978.492   117188185.758        2091.145          44.000    21575989.578    92111976.086        1629.527          29.000    21575990.570    84200553.070        1629.328          43.000  
G26  23487911.531   126265632.578       -2758.648          40.000    23487924.859    92669721.742       -2149.445          23.000    23487925.977    93052264.730       -2149.516          42.000  
G 7  23931968.305   125548443.273        2410.070          44.000    23931977.414   100453023.227        1877.996          22.000    23931978.547   100950992.203        1878.105          38.000  
G 3  24455428.469   126239088.855       -2564.852          37.000    24455444.711   101036909.266       -1998.734          21.000    24455444.773   101423034.281       -1999.000          42.000  
R 6  20925744.953   109497142.723       -2972.168          37.000                                                                  
R18  21466743.141   117515570.613        -262.309          40.000    21466750.109    92342797.422        -203.891          40.000  
R 9  21334682.672   117348550.441         987.320          41.000    21334686.398    92213486.090         768.453          41.000  
R16  21286406.891   117643621.852       -1134.094          35.000    21286412.375    92440858.578        -882.074          34.000  
R19  21451106.953   117174830.438        3060.184          35.000    21451111.352    92083927.289        2380.285          37.000  
R 7  21104382.094   109009861.562         596.480          43.000    21104384.312    83867057.688         463.949          42.000  
S31                                                        43.000  
S25                                                        39.000  
S38                                                        42.000  
S33                                                        39.000  
> 2019  3 11 18 51 16.0000000  0 18                     
G23  20437118.430   109048422.863         312.137          45.000    20437125.109    83934652.852         243.215          29.000                                                                  
G27  20539758.523   109045990.609         324.277          45.000    20539769.359    83928732.355         252.688          31.000    20539769.883    84366577.332         252.621          45.000  
G 8  21099000.648   108762885.328        2332.508          44.000    21099013.336    83693744.160        1817.547          27.000    21099014.586    84175619.152        1817.500          43.000  
G16  21389764.109   109430868.785       -2349.004          43.000    21389772.727    84234298.168       -1830.367          26.000                                                                  
G 9  21575580.445   117186094.156        2090.332          44.000    21575591.500    92110346.281        1628.805          29.000    21575592.273    84198923.250        1628.938          43.000  
G26  23488436.766   126268390.094       -2758.590          40.000    23488449.555    92671870.445       -2149.434          22.000    23488450.750    93054413.430       -2149.559          42.000  
G 7  23931509.883   125546031.980        2410.164          44.000    23931518.586   100451144.277        1878.066          22.000    23931519.938   100949113.277        1877.824          38.000  
G 3  24455916.773   126241653.129       -2564.883          36.000    24455933.133   101038907.441       -1998.719          20.000    24455933.414   101425032.410       -1998.895          41.000  
R 6  20926301.883   109500114.938       -2973.035          37.000                                                                  
R18  21466792.219   117515832.500        -262.402          40.000    21466798.922    92343001.117        -204.051          40.000  
R 9  21334497.484   117347561.820         987.547          41.000    21334501.172    92212717.164         768.246          40.000  
R16  21286619.445   117644755.316       -1134.785          35.000    21286624.102    92441740.180        -882.645          34.000  
R19  21450534.773   117171769.738        3058.855          35.000    21450539.141    92081546.754        2379.137          37.000  
R 7  21104270.367   109009264.719         595.203          43.000    21104272.375    83866593.477         462.945          41.000  
S31                                                        43.000  
S25                                                        39.000  
S38                                                        43.000  
S33                                                        40.000  
> 2019  3 11 18 51 17.0000000  0 18                     
G23  20437059.422   109048111.094         311.930          45.000    20437065.773    83934409.914         243.082          29.000                                                                  
G27  20539696.969   109045666.477         324.047          46.000    20539707.602    83928479.793         252.465          31.000    20539708.250    84366324.758         252.793          45.000  
G 8  21098557.586   108760552.926        2332.676          43.000    21098569.469    83691926.715        1817.738          27.000    21098570.664    84173801.691        1817.793          43.000  
G16  21390211.234   109433217.773       -2348.641          44.000    21390219.734    84236128.535       -1830.074          27.000                                                                  
G 9  21575182.914   117184004.082        2089.969          44.000    21575193.859    92108717.645        1628.562          29.000    21575194.625    84197294.625        1628.746          44.000  
G26  23488962.000   126271148.590       -2757.887          41.000    23488974.367    92674019.926       -2148.945          22.000    23488974.719    93056562.902       -2148.820          41.000  
G 7  23931050.727   125543621.637        2410.707          44.000    23931059.969   100449266.121        1878.508          24.000    23931060.539   100947235.086        1878.496          38.000  
G 3  24456404.195   126244218.309       -2564.914          37.000    24456421.094   101040906.266       -1998.785          20.000    24456421.391   101427031.254       -1998.605          41.000  
R 6  20926858.570   109503088.656       -2972.676          37.000                                                                  
R18  21466841.547   117516096.273        -265.672          41.000    21466848.289    92343206.293        -206.770          40.000  
R 9  21334312.391   117346574.324         987.406          42.000    21334316.281    92211949.117         768.254          41.000  
R16  21286831.820   117645889.883       -1133.242          35.000    21286836.555    92442622.609        -881.379          34.000  
R19  21449962.961   117168710.539        3059.766          36.000    21449967.672    92079167.336        2380.273          37.000  
R 7  21104159.133   109008669.754         595.047          43.000    21104161.383    83866130.723         462.805          42.000  
S31                                                        43.000  
S25                                                        39.000  
S38                                                        43.000  
S33                                                        40.000  
> 2019  3 11 18 51 18.0000000  0 18                     
G23  20436999.992   109047797.836         310.930          45.000    20437006.180    83934165.828         242.238          29.000                                                                  
G27  20539634.938   109045340.922         323.230          45.000    20539645.609    83928226.105         251.879          32.000    20539646.516    84366071.086         251.977          44.000  
G 8  21098113.391   108758218.898        2331.578          44.000    21098125.203    83690107.988        1816.809          28.000    21098126.469    84171982.973        1816.953          43.000  
G16  21390658.219   109435564.828       -2349.152          44.000    21390666.133    84237957.402       -1830.512          26.000                                                                  
G 9  21574784.977   117181912.371        2089.527          44.000    21574795.945    92107087.746        1628.188          29.000    21574796.906    84195664.719        1628.355          44.000  
G26  23489487.094   126273904.934       -2758.254          40.000    23489498.781    92676167.727       -2149.234          23.000    23489498.898    93058710.715       -2149.238          41.000  
G 7  23930591.516   125541209.074        2410.797          43.000    23930600.781   100447386.188        1878.516          23.000    23930602.672   100945355.180        1877.648          38.000  
G 3  24456892.102   126246781.273       -2564.906          37.000    24456908.820   101042903.352       -1998.770          20.000    24456909.438   101429028.336       -1998.297          41.000  
R 6  20927415.695   109506060.812       -2974.363          37.000                                                                  
R18  21466891.102   117516358.754        -264.949          40.000    21466897.766    92343410.438        -206.082          41.000  
R 9  21334126.898   117345584.699         987.594          42.000    21334130.930    92211179.406         768.027          41.000  
R16  21287044.273   117647022.301       -1134.262          36.000    21287048.742    92443503.375        -882.254          35.000  
R19  21449390.836   117165649.738        3058.078          35.000    21449395.281    92076786.762        2378.855          38.000  
R 7  21104047.430   109008073.516         593.883          43.000    21104050.461    83865666.980         461.906          42.000  
S31                                                        43.000  
S25                                                        39.000  
S38                                                        42.000  
S33                                                        39.000  
> 2019  3 11 18 51 19.0000000  0 18                     
G23  20436940.859   109047488.172         310.363          45.000    20436947.234    83933924.527         241.855          29.000                                                                  
G27  20539573.969   109045019.027         322.574          45.000    20539584.328    83927975.277         251.363          31.000    20539585.750    84365820.258         251.406          45.000  
G 8  21097670.109   108755888.324        2330.938          44.000    21097681.711    83688291.949        1816.258          27.000    21097683.219    84170166.941        1816.625          43.000  
G16  21391105.078   109437915.016       -2349.234          44.000    21391113.391    84239788.727       -1830.535          26.000                                                                  
G 9  21574387.242   117179824.098        2089.207          44.000    21574398.555    92105460.523        1627.953          29.000    21574399.375    84194037.504        1627.652          44.000  
G26  23490011.688   126276664.199       -2758.281          40.000    23490023.695    92678317.793       -2149.336          24.000    23490024.742    93060860.793       -2149.324          41.000  
G 7  23930133.242   125538799.414        2410.629          44.000    23930142.141   100445508.555        1878.574          23.000    23930143.086   100943477.500        1878.980          38.000  
G 3  24457380.461   126249347.074       -2564.656          37.000    24457397.188   101044902.672       -1998.387          20.000    24457397.875   101431027.660       -1998.523          41.000  
R 6  20927973.117   109509036.402       -2974.266          37.000                                                                  
R18  21466940.930   117516625.117        -265.867          40.000    21466947.766    92343617.605        -206.781          40.000  
R 9  21333942.062   117344598.145         987.523          41.000    21333945.953    92210412.066         768.387          41.000  
R16  21287257.016   117648157.742       -1134.039          36.000    21287261.188    92444386.500        -881.953          34.000  
R19  21448819.055   117162592.465        3058.406          35.000    21448823.555    92074408.836        2378.812          37.000  
R 7  21103936.711   109007481.156         592.906          43.000    21103939.484    83865206.266         461.148          43.000  
S31                                                        42.000  
S25                                                        39.000  
S38                                                        42.000  
S33                                                        40.000  
> 2019  3 11 18 51 20.0000000  0 18                     
G23  20436882.008   109047178.340         309.789          45.000    20436888.211    83933683.098         241.434          29.000                                                                  
G27  20539512.578   109044697.023         321.711          45.000    20539523.062    83927724.363         250.699          31.000    20539523.953    84365569.344         250.887          45.000  
G 8  21097226.695   108753557.430        2330.922          44.000    21097238.133    83686475.680        1816.312          28.000    21097239.305    84168350.668        1816.211          43.000  
G16  21391552.156   109440264.562       -2349.168          44.000    21391560.422    84241619.555       -1830.516          27.000                                                                  
G 9  21573990.203   117177735.496        2088.602          44.000    21574001.031    92103833.051        1627.512          30.000    21574001.820    84192410.035        1627.398          44.000  
G26  23490536.055   126279422.629       -2758.363          40.000    23490548.672    92680467.219       -2149.484          22.000    23490551.008    93063010.203       -2149.172          41.000  
G 7  23929674.016   125536388.836        2410.719          44.000    23929683.461   100443630.172        1878.473          24.000    23929685.055   100941599.141        1878.320          39.000  
G 3  24457868.734   126251911.961       -2564.734          37.000    24457885.203   101046901.305       -1998.590          21.000    24457886.320   101433026.266       -1998.449          41.000  
R 6  20928530.945   109512011.797       -2978.176          36.000                                                                  
R18  21466990.547   117516891.477        -266.613          41.000    21466997.578    92343824.785        -207.422          40.000  
R 9  21333757.289   117343610.824         987.141          41.000    21333761.086    92209644.133         768.355          41.000  
R16  21287469.312   117649292.375       -1135.434          36.000    21287473.398    92445268.984        -883.129          34.000  
R19  21448247.555   117159534.879        3057.184          36.000    21448251.953    92072030.758        2377.395          37.000  
R 7  21103826.180   109006888.789         591.871          43.000    21103829.117    83864745.531         460.332          42.000  
S31                                                        43.000  
S25                                                        39.000  
S38                                                        43.000  
S33                                                        39.000  
> 2019  3 11 18 51 21.0000000  0 18                     
G23  20436823.555   109046869.871         309.375          45.000    20436829.641    83933442.730         241.035          29.000                                                                  
G27  20539451.555   109044376.438         321.480          45.000    20539462.062    83927474.555         250.492          31.000    20539462.930    84365319.539         250.570          45.000  
G 8  21096784.062   108751227.809        2330.180          44.000    21096794.828    83684660.391        1815.754          28.000    21096796.398    84166535.352        1816.184          43.000  
G16  21391999.234   109442615.031       -2349.395          44.000    21392007.602    84243451.059       -1830.660          27.000                                                                  
G 9  21573593.219   117175648.125        2088.703          44.000    21573603.742    92102206.520        1627.512          30.000    21573604.555    84190783.492        1627.422          44.000  
G26  23491060.914   126282181.727       -2758.094          40.000    23491073.789    92682617.180       -2149.117          23.000    23491074.469    93065160.168       -2149.164          41.000  
G 7  23929215.891   125533978.895        2411.336          44.000    23929225.094   100441752.277        1879.121          23.000    23929225.758   100939721.270        1879.016          38.000  
G 3  24458356.820   126254477.453       -2564.559          37.000    24458373.266   101048900.348       -1998.453          20.000    24458373.711   101435025.336       -1997.977          41.000  
R 6  20929088.648   109514988.281       -2975.352          38.000                                                                  
R18  21467040.875   117517159.434        -267.539          40.000    21467047.844    92344033.184        -208.023          40.000  
R 9  21333572.867   117342624.266         987.473          42.000    21333576.484    92208876.820         767.805          41.000  
R16  21287681.828   117650427.715       -1134.000          35.000    21287685.977    92446152.027        -882.059          34.000  
R19  21447675.977   117156478.512        3057.410          35.000    21447680.969    92069653.574        2377.512          37.000  
R 7  21103715.719   109006297.977         591.551          43.000    21103718.672    83864286.008         460.078          42.000  
S31                                                        43.000  
S25                                                        39.000  
S38                                                        43.000  
S33                                                        40.000  
> 2019  3 11 18 51 22.0000000  0 18                     
G23  20436764.469   109046560.539         307.949          45.000    20436770.734    83933201.707         239.953          30.000                                                                  
G27  20539390.484   109044055.066         319.848          45.000    20539400.984    83927224.141         249.223          31.000    20539402.242    84365069.125         249.402          45.000  
G 8  21096340.320   108748897.160        2329.680          44.000    21096351.414    83682844.301        1815.363          28.000    21096353.094    84164719.293        1815.168          43.000  
G16  21392446.422   109444964.172       -2350.250          44.000    21392454.633    84245281.566       -1831.383          27.000                                                                  
G 9  21573195.703   117173559.750        2087.047          44.000    21573206.297    92100579.219        1626.352          30.000    21573207.125    84189156.191        1626.277          44.000  
G26  23491585.977   126284939.297       -2758.574          41.000    23491598.469    92684765.945       -2149.504          23.000    23491600.047    93067308.914       -2149.410          41.000  
G 7  23928756.945   125531567.375        2410.617          44.000    23928766.305   100439873.164        1878.383          23.000    23928767.984   100937842.172        1877.789          38.000  
G 3  24458844.938   126257041.316       -2564.316          38.000    24458861.219   101050898.211       -1998.059          21.000    24458862.180   101437023.168       -1998.312          41.000  
R 6  20929646.289   109517963.863       -2977.512          38.000                                                                  
R18  21467091.070   117517426.734        -269.129          41.000    21467098.070    92344241.078        -209.297          41.000  
R 9  21333387.711   117341636.203         986.762          43.000    21333391.219    92208108.363         767.371          41.000  
R16  21287893.609   117651561.641       -1135.484          35.000    21287898.352    92447033.969        -883.145          35.000  
R19  21447103.969   117153421.027        3056.605          35.000    21447109.719    92067275.535        2376.473          38.000  
R 7  21103604.938   109005706.512         590.082          43.000    21103608.336    83863825.980         458.965          42.000  
S31                                                        43.000  
S25                                                        38.000  
S38                                                        42.000  
S33                                                        40.000  
> 2019  3 11 18 51 23.0000000  0 17                     
G23  20436705.875   109046252.766         307.754          45.000    20436712.125    83932961.863         239.812          30.000                                                                  
G27  20539329.609   109043735.312         319.645          45.000    20539340.195    83926974.977         249.059          31.000    20539341.328    84364819.957         249.113          45.000  
G 8  21095896.828   108746567.965        2329.453          44.000    21095908.211    83681029.344        1815.117          28.000    21095909.906    84162904.332        1815.145          43.000  
G16  21392893.750   109447314.406       -2350.062          44.000    21392901.781    84247112.922       -1831.277          27.000                                                                  
G 9  21572798.281   117171472.773        2087.188          44.000    21572809.086    92098952.988        1626.320          29.000    21572809.875    84187529.969        1626.477          44.000  
G26  23492110.508   126287697.770       -2757.980          40.000    23492123.500    92686915.379       -2149.094          23.000    23492123.875    93069458.363       -2149.113          41.000  
G 7  23928297.961   125529156.691        2411.086          44.000    23928307.648   100437994.719        1878.648          23.000    23928309.023   100935963.703        1878.824          38.000  
G 3  24459333.312   126259606.020       -2564.496          37.000    24459349.070   101052896.680       -1998.191          20.000    24459349.180   101439021.633       -1998.152          41.000  
R18  21467141.570   117517695.773        -269.512          41.000    21467148.305    92344450.332        -209.633          41.000  
R 9  21333203.039   117340649.160         986.969          42.000    21333206.375    92207340.656         767.898          41.000  
R16  21288106.406   117652696.477       -1134.422          35.000    21288110.188    92447916.617        -882.344          35.000  
R19  21446532.625   117150364.887        3056.672          35.000    21446538.273    92064898.559        2376.746          38.000  
R 7  21103494.680   109005116.836         589.676          42.000    21103497.977    83863367.344         458.590          42.000  
S31                                                        43.000  
S25                                                        39.000  
S38                                                        43.000  
S33                                                        40.000  
> 2019  3 11 18 51 24.0000000  0 17                     
G23  20436647.289   109045945.820         306.879          45.000    20436653.672    83932722.695         239.117          29.000                                                                  
G27  20539268.969   109043416.434         318.727          45.000    20539279.500    83926726.492         248.336          31.000    20539280.703    84364571.488         248.332          45.000  
G 8  21095453.797   108744239.469        2328.512          43.000    21095465.094    83679214.930        1814.484          28.000    21095466.195    84161089.934        1814.227          43.000  
G16  21393340.812   109449665.023       -2350.516          44.000    21393349.039    84248944.570       -1831.539          27.000                                                                  
G 9  21572401.375   117169386.465        2086.367          44.000    21572412.109    92097327.297        1625.703          29.000    21572413.445    84185904.285        1625.680          43.000  
G26  23492635.797   126290456.387       -2758.484          40.000    23492648.570    92689064.957       -2149.562          23.000    23492649.844    93071607.930       -2149.219          41.000  
G 7  23927838.562   125526746.113        2410.770          44.000    23927849.047   100436116.367        1878.480          23.000    23927849.742   100934085.320        1878.707          38.000  
G 3  24459820.656   126262170.746       -2563.934          36.000    24459837.109   101054895.145       -1997.879          20.000    24459838.398   101441020.164       -1998.645          41.000  
R18  21467192.562   117517965.871        -269.969          41.000    21467198.836    92344660.391        -209.953          40.000  
R 9  21333018.328   117339662.352         986.938          41.000    21333021.750    92206573.141         767.570          41.000  
R16  21288318.852   117653831.551       -1135.359          35.000    21288322.977    92448799.457        -883.000          35.000  
R19  21445960.820   117147309.410        3055.207          34.000    21445966.891    92062522.023        2377.629          37.000  
R 7  21103384.953   109004528.188         588.625          42.000    21103388.078    83862909.508         457.809          43.000  
S31                                                        43.000  
S25                                                        38.000  
S38                                                        42.000  
S33                                                        39.000  
> 2019  3 11 18 51 25.0000000  0 17                     
G23  20436588.992   109045639.648         306.520          45.000    20436595.406    83932484.109         238.902          29.000                                                                  
G27  20539208.555   109043098.398         318.383          45.000    20539219.023    83926478.699         248.086          32.000    20539219.883    84364323.672         247.883          45.000  
G 8  21095010.820   108741911.609        2328.508          44.000    21095022.133    83677401.027        1814.484          28.000    21095023.398    84159276.016        1814.195          43.000  
G16  21393788.312   109452015.938       -2350.250          44.000    21393796.492    84250776.457       -1831.328          27.000                                                                  
G 9  21572004.008   117167300.797        2086.082          44.000    21572015.180    92095702.109        1625.523          29.000    21572015.555    84184279.078        1625.441          43.000  
G26  23493160.688   126293215.086       -2758.023          40.000    23493173.398    92691214.574       -2149.137          23.000    23493174.586    93073757.570       -2149.137          41.000  
G 7  23927380.477   125524335.574        2411.352          44.000    23927390.062   100434238.008        1878.961          23.000    23927391.586   100932206.984        1878.949          38.000  
G 3  24460308.047   126264735.547       -2564.125          37.000    24460325.039   101056893.688       -1998.035          20.000    24460326.805   101443018.684       -1998.191          41.000  
R18  21467243.477   117518237.000        -271.238          41.000    21467249.844    92344871.277        -210.949          41.000  
R 9  21332833.227   117338675.738         987.352          42.000    21332836.969    92205805.758         768.477          42.000  
R16  21288530.789   117654966.684       -1133.727          35.000    21288535.562    92449682.340        -881.832          35.000  
R19  21445390.195   117144254.418        3056.875          35.000    21445395.852    92060145.961        2376.555          38.000  
R 7  21103275.227   109003940.543         588.027          43.000    21103278.594    83862452.449         457.352          42.000  
S31                                                        43.000  
S25                                                        39.000  
S38                                                        43.000  
S33                                                        39.000  
> 2019  3 11 18 51 26.0000000  0 17                     
G23  20436531.195   109045334.801         305.316          46.000    20436537.430    83932246.562         237.883          29.000                                                                  
G27  20539148.250   109042781.754         317.078          45.000    20539158.812    83926231.961         247.098          31.000    20539159.320    84364076.934         246.965          45.000  
G 8  21094568.305   108739584.961        2327.145          44.000    21094579.266    83675588.016        1813.379          28.000    21094580.195    84157463.035        1813.348          43.000  
G16  21394235.734   109454367.734       -2351.000          44.000    21394244.078    84252609.023       -1831.852          27.000                                                                  
G 9  21571607.516   117165216.301        2085.281          45.000    21571618.391    92094077.812        1624.867          29.000    21571619.352    84182654.809        1624.613          43.000  
G26  23493685.773   126295974.449       -2758.285          40.000    23493698.594    92693364.746       -2149.320          23.000    23493698.852    93075907.723       -2149.512          41.000  
G 7  23926921.961   125521925.641        2410.734          44.000    23926931.422   100432360.133        1878.508          23.000    23926932.844   100930329.105        1878.629          38.000  
G 3  24460795.367   126267300.906       -2563.848          36.000    24460812.984   101058892.637       -1997.746          20.000    24460815.109   101445017.660       -1998.199          41.000  
R18  21467294.398   117518509.629        -272.590          41.000    21467301.188    92345083.332        -211.949          41.000  
R 9  21332648.914   117337689.879         986.609          42.000    21332652.445    92205039.000         767.270          41.000  
R16  21288743.508   117656102.652       -1135.117          35.000    21288748.234    92450565.867        -882.801          35.000  
R19  21444819.070   117141200.664        3054.898          35.000    21444825.047    92057770.801        2376.414          37.000  
R 7  21103165.664   109003354.477         586.430          43.000    21103169.094    83861996.625         456.129          43.000  
S31                                                        43.000  
S25                                                        39.000  
S38                                                        42.000  
S33                                                        40.000  
> 2019  3 11 18 51 27.0000000  0 17                     
G23  20436473.320   109045029.230         304.523          45.000    20436479.375    83932008.457         237.344          29.000                                                                  
G27  20539087.711   109042464.453         316.488          45.000    20539098.484    83925984.707         246.598          31.000    20539099.539    84363829.680         246.652          45.000  
G 8  21094125.359   108737257.449        2326.504          44.000    21094136.359    83673774.395        1812.836          28.000    21094137.844    84155649.383        1813.145          43.000  
G16  21394683.289   109456718.344       -2351.262          44.000    21394691.453    84254440.672       -1832.246          27.000                                                                  
G 9  21571210.398   117163130.938        2084.441          44.000    21571221.578    92092452.852        1624.168          29.000    21571222.555    84181029.852        1624.227          44.000  
G26  23494210.836   126298732.410       -2758.359          40.000    23494223.398    92695513.809       -2149.273          23.000    23494224.625    93078056.785       -2149.312          41.000  
G 7  23926463.188   125519514.250        2410.629          44.000    23926472.672   100430481.152        1878.348          23.000    23926474.094   100928450.094        1878.770          39.000  
G 3  24461284.188   126269864.812       -2563.688          37.000    24461301.062   101060890.520       -1997.680          20.000    24461301.750   101447015.516       -1998.461          40.000  
R18  21467345.242   117518781.676        -272.832          40.000    21467351.875    92345294.930        -212.277          40.000  
R 9  21332464.078   117336702.719         986.941          42.000    21332467.414    92204271.199         767.156          41.000  
R16  21288955.719   117657237.223       -1135.832          36.000    21288960.727    92451448.312        -883.422          34.000  
R19  21444248.586   117138145.988        3053.984          34.000    21444253.898    92055394.965        2375.145          37.000  
R 7  21103056.109   109002767.891         585.504          42.000    21103059.328    83861540.383         455.383          43.000  
S31                                                        43.000  
S25                                                        40.000  
S38                                                        42.000  
S33                                                        40.000  
> 2019  3 11 18 51 28.0000000  0 17                     
G23  20436415.195   109044723.586         304.547          45.000    20436421.234    83931770.293         237.324          29.000                                                                  
G27  20539027.422   109042147.160         316.301          45.000    20539038.188    83925737.453         246.484          31.000    20539038.992    84363582.445         246.293          45.000  
G 8  21093681.445   108734929.730        2326.684          44.000    21093693.414    83671960.602        1812.945          28.000    21093694.141    84153835.582        1813.051          43.000  
G16  21395130.977   109459068.438       -2351.031          44.000    21395138.703    84256271.914       -1831.957          27.000                                                                  
G 9  21570817.141   117161045.367        2084.504          45.000    21570824.852    92090827.754        1624.254          29.000    21570826.062    84179404.727        1624.430          44.000  
G26  23494735.273   126301489.637       -2757.574          40.000    23494747.992    92697662.293       -2148.805          22.000    23494749.188    93080205.262       -2148.547          41.000  
G 7  23926004.219   125517102.086        2411.398          45.000    23926013.539   100428601.520        1878.922          23.000    23926015.867   100926570.512        1878.789          38.000  
G 3  24461772.508   126272427.934       -2564.047          37.000    24461788.617   101062887.750       -1998.109          20.000    24461789.008   101449012.715       -1997.645          41.000  
R18  21467395.977   117519053.918        -273.934          39.000    21467403.039    92345506.680        -213.082          41.000  
R 9  21332278.750   117335714.891         987.008          42.000    21332282.430    92203502.863         767.875          41.000  
R16  21289168.102   117658371.094       -1133.555          35.000    21289173.242    92452330.215        -881.719          34.000  
R19  21443677.656   117135091.070        3053.480          34.000    21443682.859    92053018.930        2375.652          37.000  
R 7  21102946.812   109002181.441         585.148          43.000    21102949.961    83861084.270         455.082          43.000  
S31                                                        43.000  
S25                                                        39.000  
S38                                                        43.000  
S33                                                        40.000  
