     2.11           OBSERVATION DATA    M (MIXED)           RINEX VERSION / TYPE
teqc  2018Jun8      root                20191212 04:36:59UTCPGM / RUN BY / DATE
Linux 2.4.21-27.ELsmp|Opteron|gcc|Linux 64|=+               COMMENT
teqc  2019Feb25     CORS-ADM Account    20190427 18:41:59UTCCOMMENT
teqc  2018Jan11     NOAA/NOS/NGS/CORS   20190327 00:27:14UTCCOMMENT
Linux 2.4.21-27.ELsmp|Opteron|gcc -static|Linux 64|=+       COMMENT
  0.0000      (antenna height)                              COMMENT
 +39.99143103 (latitude)                                    COMMENT
-105.26103266 (longitude)                                   COMMENT
1656.307      (elevation)                                   COMMENT
BIT 2 OF LLI FLAGS DATA COLLECTED UNDER A/S CONDITION       COMMENT
DSRC (COGO code)                                            COMMENT
 SNR is mapped to RINEX snr flag value [0-9]                COMMENT
  L1 & L2: min(max(int(snr_dBHz/6), 0), 9)                  COMMENT
teqc.e edited: all SBAS satellites excluded                 COMMENT
teqc.e edited: all QZSS satellites excluded                 COMMENT
Forced Modulo Decimation to 30 seconds                      COMMENT
DSRC                                                        MARKER NAME
DSRC                                                        MARKER NUMBER
Don Haw             NGS                                     OBSERVER / AGENCY
5101K72953          TRIMBLE NETR9       5.37                REC # / TYPE / VERS
1441107284          TRM57971.00     NONE                    ANT # / TYPE
 -1288338.0320 -4721989.8640  4078321.1770                  APPROX POSITION XYZ
        0.0000        0.0000        0.0000                  ANTENNA: DELTA H/E/N
     1     1                                                WAVELENGTH FACT L1/2
    11    L1    L2    L5    C1    P1    C2    P2    C5    S1# / TYPES OF OBSERV
          S2    S5                                          # / TYPES OF OBSERV
    30.0000                                                 INTERVAL
teqc.w windowed: start @ 2019 Mar 26 19:00:00.000           COMMENT
teqc.w windowed:  end  @ 2019 Mar 26 22:00:00.000           COMMENT
  2019     3    26    19     0    0.0000000     GPS         TIME OF FIRST OBS
    18                                                      LEAP SECONDS
                                                            END OF HEADER
 19  3 26 19  0  0.0000000  4  5
DSRC (COGO code)                                            COMMENT
  0.0000      (antenna height)                              COMMENT
 +39.99143103 (latitude)                                    COMMENT
-105.26103266 (longitude)                                   COMMENT
1656.307      (elevation)                                   COMMENT
 19  3 26 19  0  0.0000000  0 10G16G08G30G09G11G23G28G05G07G27
 127178821.044 6  99100411.50143                  24201326.602
                  24201331.699                          39.600          19.000

 111189920.880 8  86641439.100 7  83031395.854 8  21158711.773
  21158719.305    21158719.332    21158718.676          49.300          47.300
        52.600
 116319464.487 7  90638566.043 7  86861962.238 8  22134855.773
  22134864.137    22134864.000    22134864.309          45.300          45.000
        50.500
 107926017.152 8  84098213.196 8  80594122.257 8  20537638.156
  20537645.777    20537646.098    20537646.469          49.200          50.100
        53.900
 131187152.560 6 102223763.26143                  24964082.773
                  24964087.969                          39.900          20.900

 116971999.698 7  91147037.97245                  22259035.305
                  22259039.301                          46.400          31.500

 121791076.746 7  94902162.51443                  23176065.508
                  23176068.855                          43.000          23.200

 129346438.757 6 100789542.600 5                  24613804.422
  24613809.273    24613810.004                          38.900          34.400

 108778171.938 8  84762274.899 7                  20699802.969
  20699807.813    20699808.039                          48.900          47.000

 116104164.950 7  90470804.677 7  86701199.482 8  22093864.852
  22093872.938    22093873.258    22093872.031          47.600          45.200
        48.400
 19  3 26 19  0 30.0000000  0 10G16G08G30G09G11G23G28G05G07G27
 127284595.558 6  99182833.20342                  24221454.102
                  24221460.051                          39.600          17.800

 111171028.617 8  86626717.875 7  83017288.011 8  21155116.508
  21155124.227    21155124.355    21155123.844          49.500          47.500
        52.500
 116249606.196 7  90584131.042 7  86809795.365 8  22121561.953
  22121569.980    22121570.445    22121570.477          45.300          45.000
        50.200
 107974912.196 8  84136313.223 8  80630634.764 8  20546942.719
  20546950.023    20546950.594    20546951.008          49.700          50.000
        53.600
 131093395.318 6 102150705.74943                  24946240.313
                  24946246.641                          40.200          21.300

 117066531.193 7  91220698.85245                  22277023.695
                  22277028.215                          46.800          31.400

 121710965.447 6  94839738.16343                  23160818.055
                  23160823.457                          41.200          23.000

 129343406.403 6 100787179.712 5                  24613224.891
  24613230.141    24613232.125                          37.100          33.900

 108748955.333 8  84739508.740 7                  20694243.227
  20694248.262    20694248.430                          49.900          47.700

 116150299.788 7  90506753.898 7  86735650.821 8  22102644.727
  22102651.875    22102652.480    22102651.527          47.600          45.800
        48.400
 19  3 26 19  1  0.0000000  0 10G16G08G30G09G11G23G28G05G07G27
 127390381.021 6  99265263.41343                  24241586.063
                  24241590.363                          40.200          19.000

 111152749.675 8  86612474.556 7  83003638.168 8  21151638.602
  21151646.457    21151646.063    21151645.758          48.500          47.900
        52.500
 116179875.006 7  90529795.084 7  86757723.392 8  22108293.016
  22108300.621    22108300.824    22108300.754          45.400          44.600
        50.000
 108024334.944 8  84174824.430 8  80667541.353 8  20556347.742
  20556354.906    20556355.324    20556355.781          49.800          49.800
        53.800
 130999593.976 6 102077613.86943                  24928390.227
                  24928397.422                          39.800          19.900

 117161380.639 7  91294607.47845                  22295072.461
                  22295077.316                          46.400          31.400

 121631104.879 7  94777509.19844                  23145623.430
                  23145627.246                          43.200          24.700

 129340898.133 6 100785225.186 5                  24612749.234
  24612754.660    24612755.266                          38.100          35.700

 108719974.103 8  84716925.958 7                  20688728.586
  20688733.039    20688733.645                          49.200          47.100

 116197016.612 7  90543156.606 7  86770536.758 8  22111534.242
  22111542.387    22111542.551    22111541.406          47.300          45.500
        49.000
 19  3 26 19  1 30.0000000  0 10G16G08G30G09G11G23G28G05G07G27
 127496175.718 6  99347700.78243                  24261718.156
                  24261722.465                          39.700          18.300

 111135084.469 8  86598709.475 8  82990446.631 8  21148276.352
  21148284.543    21148284.613    21148284.289          48.600          48.000
        53.000
 116110271.941 7  90475558.946 7  86705747.101 8  22095046.992
  22095055.125    22095055.484    22095055.395          45.700          44.700
        49.900
 108074284.224 7  84213745.938 8  80704841.118 8  20565853.375
  20565859.789    20565860.195    20565860.848          47.600          50.100
        53.600
 130905751.608 6 102004490.03443                  24910531.047
                  24910539.676                          39.000          19.900

 117256545.727 7  91368762.04945                  22313182.805
                  22313186.867                          47.100          30.400

 121551495.222 6  94715475.78143                  23130470.977
                  23130478.035                          41.000          22.900

 129338913.397 6 100783678.607 5                  24612373.250
  24612376.754    24612377.164                          40.100          34.400

 108691229.622 8  84694527.682 7                  20683259.094
  20683263.207    20683263.922                          50.800          47.300

 116244313.775 7  90580011.530 7  86805856.063 8  22120535.188
  22120542.473    22120542.910    22120541.836          45.000          45.700
        49.100
 19  3 26 19  2  0.0000000  0 10G16G08G30G09G11G23G28G05G07G27
 127601978.560 6  99430144.52743                  24281851.383
                  24281856.551                          37.900          19.600

 111118034.357 8  86585423.685 7  82977714.425 8  21145032.148
  21145039.719    21145039.508    21145039.535          49.400          47.100
        53.000
 116040798.435 7  90421423.761 7  86653867.532 8  22081827.539
  22081834.359    22081835.266    22081834.941          45.100          44.600
        49.200
 108124759.275 8  84253077.134 8  80742533.511 8  20575457.602
  20575465.004    20575465.367    20575466.023          49.300          50.100
        53.900
 130811871.513 6 101931336.81043                  24892667.156
                  24892674.793                          40.300          19.900

 117352024.828 7  91443161.30945                  22331352.727
                  22331356.051                          47.300          31.300

 121472137.549 6  94653638.67744                  23115370.547
                  23115377.527                          41.400          25.500

 129337452.041 6 100782539.876 5                  24612093.758
  24612098.035    24612099.188                          39.200          33.800

 108662723.007 8  84672314.735 7                  20677834.531
  20677838.594    20677839.215                          49.700          47.900

 116292189.981 7  90617317.687 7  86841607.786 8  22129645.109
  22129652.805    22129653.277    22129652.754          45.500          45.300
        48.900
 19  3 26 19  2 30.0000000  0 10G16G08G30G09G11G23G28G05G07G27
 127707787.075 6  99512592.67243                  24301985.008
                  24301991.465                          37.800          19.600

 111101599.311 8  86572617.160 7  82965441.497 8  21141903.828
  21141912.535    21141912.164    21141911.664          48.200          47.700
        52.500
 115971454.538 7  90367389.603 7  86602084.788 8  22068631.719
  22068639.367    22068639.699    22068639.297          45.000          44.400
        50.100
 108175757.932 7  84292816.335 8  80780616.918 8  20585162.742
  20585169.625    20585170.273    20585170.758          47.900          50.100
        53.500
 130717955.681 6 101858155.68643                  24874795.891
                  24874803.250                          39.600          20.900

 117447814.631 7  91517802.66845                  22349581.148
                  22349584.270                          47.600          30.400

 121393032.204 6  94591998.19844                  23100317.172
                  23100324.215                          40.900          24.700

 129336512.880 6 100781808.144 5                  24611912.984
  24611919.523    24611920.633                          37.600          33.700

 108634455.008 8  84650287.729 8                  20672454.852
  20672459.387    20672459.855                          49.900          48.000

 116340642.633 7  90655073.006 7  86877789.946 8  22138865.398
  22138872.961    22138873.641    22138873.355          44.400          44.900
        49.300
 19  3 26 19  3  0.0000000  0 10G16G08G30G09G11G23G28G05G07G27
 127813600.038 6  99595044.30543                  24322121.789
                  24322126.195                          38.700          19.900

 111085780.344 8  86560290.710 8  82953628.648 8  21138894.273
  21138902.125    21138902.063    21138901.250          49.100          48.000
        52.500
 115902241.665 7  90313457.493 7  86550399.861 8  22055461.055
  22055468.754    22055469.285    22055468.832          46.300          45.300
        50.300
 108227279.341 8  84332962.872 8  80819090.688 8  20594967.031
  20594973.906    20594974.281    20594974.738          49.100          49.500
        53.300
 130624006.823 6 101784948.88243                  24856917.641
                  24856925.629                          39.800          20.900

 117543913.271 7  91592684.67945                  22367867.320
                  22367871.453                          46.900          30.400

 121314179.765 7  94530554.81444                  23085314.320
                  23085319.070                          43.700          24.400

 129336095.963 6 100781483.170 6                  24611834.594
  24611841.949    24611841.395                          37.900          36.300

 108606426.459 8  84628447.290 7                  20667121.359
  20667125.648    20667126.035                          49.500          47.300

 116389670.264 7  90693276.354 7  86914401.507 8  22148195.320
  22148203.344    22148203.273    22148202.738          46.500          45.200
        49.300
 19  3 26 19  3 30.0000000  0 10G16G08G30G09G11G23G28G05G07G27
 127919416.218 6  99677498.41343                  24342256.875
                  24342262.301                          38.600          19.900

 111070578.479 8  86548445.110 8  82942276.619 8  21136001.594
  21136009.336    21136009.055    21136008.578          49.000          48.200
        52.900
 115833161.136 7  90259628.547 7  86498813.781 8  22042315.984
  22042323.527    22042323.723    22042323.410          46.000          45.500
        50.700
 108279322.494 8  84373515.954 8  80857954.058 8  20604870.867
  20604877.293    20604877.496    20604878.180          49.200          49.500
        53.200
 130530028.146 6 101711718.80643                  24839034.359
                  24839041.480                          39.300          21.100

 117640318.669 7  91667805.72544                  22386212.781
                  22386216.941                          46.100          29.700

 121235581.452 6  94469309.38944                  23070354.969
                  23070361.957                          41.100          25.100

 129336200.758 6 100781564.795 5                  24611852.258
  24611862.141    24611861.371                          37.400          35.900

 108578639.552 8  84606795.156 7                  20661833.680
  20661837.836    20661838.375                          50.400          47.300

 116439271.433 7  90731926.644 7  86951441.354 8  22157634.086
  22157641.156    22157641.758    22157641.621          47.500          45.100
        49.300
 19  3 26 19  4  0.0000000  0 10G16G08G30G09G11G23G28G05G07G27
 128025233.250 6  99759953.21343                  24362394.375
                  24362398.879                          40.100          20.100

 111055993.635 8  86537080.303 7  82931385.360 8  21133225.914
  21133233.395    21133233.586    21133233.199          49.100          47.300
        52.200
 115764213.285 7  90205902.967 7  86447326.784 8  22029195.227
  22029203.316    22029203.578    22029203.047          46.000          45.400
        50.800
 108331885.419 8  84414474.075 8  80897205.591 8  20614872.383
  20614879.961    20614880.457    20614880.625          49.400          50.000
        53.300
 130436022.017 6 101638467.35843                  24821144.922
                  24821152.512                          38.800          20.400

 117737028.207 7  91743163.76844                  22404615.406
                  22404619.883                          46.200          29.600

 121157237.718 7  94408262.35944                  23055449.086
                  23055452.828                          43.200          25.200

 129336826.213 6 100782052.121 6                  24611972.180
  24611981.012    24611980.703                          37.400          36.100

 108551094.272 8  84585331.308 8                  20656591.805
  20656596.023    20656596.699                          49.500          48.000

 116489443.716 7  90771021.926 7  86988907.671 8  22167181.555
  22167189.094    22167189.164    22167189.074          47.200          44.600
        49.800
 19  3 26 19  4 30.0000000  0 10G16G08G30G09G11G23G28G05G07G27
 128131050.261 6  99842407.94143                  24382530.703
                  24382535.152                          39.900          19.000

 111042027.295 8  86526197.437 7  82920955.944 8  21130568.234
  21130576.055    21130575.809    21130575.445          49.500          47.800
        52.100
 115695400.010 7  90152282.260 7  86395940.275 8  22016099.828
  22016107.930    22016108.594    22016108.309          45.500          45.000
        50.500
 108384967.720 8  84455836.892 8  80936844.940 8  20624973.766
  20624980.891    20624981.574    20624981.852          49.500          49.900
        53.200
 130341992.011 6 101565197.28543                  24803251.445
                  24803258.867                          39.000          20.400

 117834040.315 7  91818757.56145                  22423076.609
                  22423080.793                          45.800          30.600

 121079149.825 7  94347414.69144                  23040586.742
                  23040593.324                          42.100          24.300

 129337972.376 6 100782945.233 6                  24612191.461
  24612199.984    24612198.918                          39.900          37.000

 108523792.904 8  84564057.513 7                  20651396.602
  20651400.719    20651401.480                          50.500          47.600

 116540186.127 7  90810561.448 7  87026799.729 8  22176838.461
  22176845.164    22176845.336    22176844.566          47.500          45.700
        48.800
 19  3 26 19  5  0.0000000  0 10G16G08G30G09G11G23G28G05G07G27
 128236863.932 6  99924860.13843                  24402666.594
                  24402670.598                          39.900          19.900

 111028678.293 8  86515795.631 7  82910987.553 8  21128028.359
  21128035.965    21128035.984    21128035.145          48.200          47.600
        52.200
 115626720.849 7  90098766.045 7  86344653.908 8  22003030.617
  22003039.160    22003039.070    22003039.273          45.900          44.900
        50.700
 108438566.485 8  84497602.158 8  80976869.986 8  20635172.922
  20635180.613    20635181.285    20635181.449          49.200          49.800
        53.200
 130247939.565 6 101491909.74743                  24785354.125
                  24785361.066                          37.600          20.600

 117931351.204 7  91894584.17944                  22441594.469
                  22441597.906                          46.300          29.700

 121001317.141 7  94286765.90544                  23025778.352
                  23025783.469                          44.300          25.700

 129339637.405 6 100784242.624 6                  24612509.719
  24612517.816    24612516.047                          38.900          36.500

 108496734.998 8  84542973.439 8                  20646247.523
  20646251.766    20646252.379                          49.800          48.100

 116591495.287 7  90850542.590 7  87065114.997 8  22186600.852
  22186608.477    22186609.074    22186607.773          47.200          44.400
        48.400
 19  3 26 19  5 30.0000000  0 10G16G08G30G09G11G23G28G05G07G27
 128342673.458 6 100007309.08143                  24422800.141
                  24422805.977                          38.700          19.900

 111015947.734 8  86505875.742 7  82901480.994 8  21125605.875
  21125613.090    21125613.133    21125612.719          49.800          47.400
        52.500
 115558177.167 7  90045355.384 7  86293468.721 8  21989987.688
  21989995.551    21989995.633    21989996.059          46.500          45.100
        51.000
 108492680.724 8  84539769.089 8  81017279.950 8  20645470.680
  20645478.508    20645478.637    20645479.504          48.900          49.600
        53.400
 130153867.482 6 101418606.89743                  24767451.688
                  24767460.047                          37.800          19.600

 118028958.775 7  91970641.97545                  22460168.195
                  22460172.148                          46.000          30.000

 120923740.804 7  94226316.86444                  23011014.906
                  23011021.168                          43.900          24.500

 129341820.998 6 100785944.142 5                  24612925.109
  24612931.313    24612932.023                          38.600          34.900

 108469921.896 8  84522080.104 7                  20641145.453
  20641149.496    20641149.980                          50.300          47.300

 116643369.679 7  90890964.193 7  87103852.353 8  22196473.250
  22196479.797    22196479.887    22196479.297          47.300          43.400
        48.800
 19  3 26 19  6  0.0000000  0 10G16G08G30G09G11G23G28G05G07G27
 128448477.699 6 100089753.89743                  24442933.461
                  24442940.230                          38.700          19.900

 111003837.150 8  86496438.944 7  82892437.382 8  21123301.039
  21123308.266    21123308.055    21123308.586          48.300          47.900
        52.700
 115489770.757 7  89992051.686 7  86242386.014 8  21976969.750
  21976978.191    21976978.410    21976978.652          45.400          45.700
        51.000
 108547309.824 8  84582337.191 8  81058074.392 8  20655866.313
  20655873.883    20655874.250    20655875.145          48.900          49.600
        53.300
 130059779.962 6 101345292.07343                  24749548.297
                  24749555.730                          38.700          19.300

 118126861.493 7  92046929.75445                  22478798.805
                  22478802.723                          45.800          30.500

 120846422.092 7  94166068.55244                  22996301.047
                  22996307.164                          44.400          25.800

 129344523.174 6 100788049.700 5                  24613442.063
  24613442.492    24613444.891                          40.700          32.900

 108443355.768 8  84501379.250 8                  20636089.391
  20636094.195    20636094.797                          49.800          48.000

 116695808.192 7  90931825.364 7  87143010.976 8  22206451.258
  22206457.617    22206458.543    22206458.672          46.800          44.000
        48.800
 19  3 26 19  6 30.0000000  0 10G16G08G30G09G11G23G28G05G07G27
 128554274.988 6 100172193.29143                  24463066.797
                  24463072.391                          37.600          18.600

 110992346.420 8  86487485.143 7  82883856.651 8  21121113.945
  21121121.898    21121121.742    21121121.516          48.100          47.600
        52.600
 115421502.003 7  89938855.292 7  86191406.127 8  21963979.078
  21963986.988    21963987.449    21963987.539          45.700          45.800
        51.400
 108602451.729 8  84625304.889 8  81099251.770 8  20666359.633
  20666366.625    20666367.043    20666368.027          48.800          49.100
        53.100
 129965678.568 6 101271966.37143                  24731642.281
                  24731648.723                          37.600          18.600

 118225056.718 7  92123445.45045                  22497484.266
                  22497488.598                          46.100          30.000

 120769360.986 7  94106020.99944                  22981638.914
                  22981643.250                          45.200          27.300

 129347742.604 6 100790558.356 5                  24614053.070
  24614056.465    24614057.281                          41.600          33.900

 108417036.811 8  84480870.985 7                  20631081.555
  20631085.945    20631086.484                          49.500          47.800

 116748808.255 7  90973124.123 7  87182588.922 8  22216537.344
  22216544.156    22216544.387    22216543.980          46.700          44.300
        48.700
 19  3 26 19  7  0.0000000  0 10G16G08G30G09G11G23G28G05G07G27
 128660062.983 6 100254625.47043                  24483198.703
                  24483203.777                          39.700          19.300

 110981475.734 8  86479014.482 7  82875738.949 8  21119046.156
  21119053.297    21119053.262    21119052.426          48.600          47.900
        52.700
 115353371.685 7  89885766.754 7  86140529.618 8  21951014.352
  21951021.840    21951022.410    21951022.691          45.000          45.000
        51.000
 108658104.720 8  84668670.841 8  81140810.809 8  20676950.836
  20676957.105    20676957.500    20676958.090          48.800          49.600
        53.000
 129871566.124 6 101198632.08143                  24713732.438
                  24713739.773                          37.100          19.000

 118323541.321 7  92200186.65445                  22516225.008
                  22516230.020                          46.500          31.100

 120692557.846 7  94046174.44144                  22967021.742
                  22967028.160                          43.700          25.300

 129351478.262 6 100793469.218 5                  24614761.430
  24614768.715    24614768.535                          40.000          34.100

 108390966.053 8  84460556.093 7                  20626120.773
  20626124.984    20626125.559                          50.000          47.900

 116802367.697 7  91014858.745 7  87222584.608 8  22226729.203
  22226736.645    22226736.855    22226735.402          46.400          44.100
        48.100
 19  3 26 19  7 30.0000000  0 10G16G08G30G09G11G23G28G05G07G27
 128765840.322 6 100337049.29243                  24503327.867
                  24503332.691                          39.400          18.600

 110971225.647 7  86471027.410 7  82868084.682 8  21117094.914
  21117102.891    21117102.656    21117102.160          47.600          47.600
        52.600
 115285381.238 7  89832787.207 7  86089757.552 8  21938076.805
  21938083.625    21938084.152    21938084.410          46.000          45.200
        50.900
 108714267.743 8  84712434.208 8  81182750.715 8  20687637.344
  20687644.469    20687645.164    20687645.586          49.200          49.300
        53.000
 129777445.673 6 101125291.54642                  24695820.484
                  24695829.398                          36.900          17.800

 118422313.804 7  92277152.16645                  22535020.953
                  22535025.773                          46.400          30.200

 120616013.856 7  93986529.85744                  22952456.398
                  22952462.891                          44.400          25.300

 129355729.946 6 100796782.183 5                  24615572.359
  24615578.863    24615577.438                          41.700          35.600

 108365145.050 8  84440435.839 8                  20621206.695
  20621211.395    20621211.664                          51.000          48.100

 116856484.885 7  91057027.999 7  87262996.805 8  22237027.898
  22237034.484    22237034.906    22237033.574          46.600          44.300
        48.300
 19  3 26 19  8  0.0000000  0 10G16G08G30G09G11G23G28G05G07G27
 128871605.408 6 100419463.64543                  24523453.914
                  24523458.195                          38.800          18.300

 110961595.808 8  86463523.640 7  82860893.567 8  21115262.758
  21115270.086    21115270.313    21115269.879          48.200          47.900
        52.300
 115217531.004 7  89779916.909 7  86039090.191 8  21925164.297
  21925172.078    21925172.176    21925173.012          45.300          45.000
        51.100
 108770938.625 7  84756593.346 8  81225069.862 8  20698421.633
  20698429.313    20698429.879    20698429.957          47.800          49.700
        53.200
 129683319.685 6 101051946.65043                  24677909.320
                  24677917.953                          37.200          19.600

 118521370.947 7  92354339.50345                  22553871.563
                  22553875.809                          47.100          30.700

 120539728.951 7  93927087.10844                  22937938.984
                  22937945.641                          43.600          25.800

 129360496.097 6 100800496.030 5                  24616478.625
  24616485.012    24616484.543                          41.300          34.000

 108339574.334 8  84420510.601 7                  20616340.594
  20616345.133    20616345.836                          50.400          47.800

 116911157.195 7  91099629.772 7  87303823.506 8  22247430.609
  22247438.102    22247438.477    22247437.785          46.600          44.500
        48.400
 19  3 26 19  8 30.0000000  0 10G16G08G30G09G11G23G28G05G07G27
 128977356.817 6 100501867.25842                  24543576.969
                  24543582.531                          37.900          16.900

 110952587.399 7  86456504.121 7  82854166.523 8  21113547.898
  21113556.031    21113556.191    21113555.797          47.900          47.300
        52.400
 115149822.675 7  89727157.194 7  85988528.796 8  21912279.523
  21912287.648    21912287.750    21912288.633          45.100          45.100
        51.600
 108828116.543 8  84801147.552 8  81267767.639 8  20709302.773
  20709310.113    20709310.375    20709310.551          48.000          49.900
        53.200
 129589191.418 6 100978600.03043                  24659995.969
                  24660005.453                          36.700          18.300

 118620710.843 7  92431747.15444                  22572776.563
                  22572779.418                          47.100          28.800

 120463704.540 7  93867847.34844                  22923473.273
                  22923478.602                          43.900          24.100

 129365776.739 6 100804610.846 5                  24617482.180
  24617487.508    24617489.078                          39.000          32.900

 108314255.471 8  84400781.629 8                  20611522.328
  20611527.375    20611527.805                          50.500          48.500

 116966383.266 7  91142663.066 7  87345063.730 8  22257940.398
  22257947.566    22257947.957    22257947.238          45.900          44.100
        49.400
 19  3 26 19  9  0.0000000  0 10G16G08G30G09G11G23G28G05G07G27
 129083093.092 6 100584259.10842                  24563698.047
                  24563703.805                          37.900          16.300

 110944201.006 8  86449969.295 8  82847903.979 8  21111952.016
  21111960.453    21111960.543    21111959.805          48.500          48.400
        52.700
 115082257.326 7  89674508.895 7  85938074.176 8  21899422.844
  21899430.348    21899430.559    21899431.680          46.100          44.900
        51.200
 108885799.993 7  84846095.665 8  81310842.906 8  20720278.539
  20720286.438    20720286.965    20720287.156          47.500          49.100
        53.000
 129495063.968 6 100905254.02843                  24642085.336
                  24642093.156                          38.300          19.600

 118720331.148 7  92509373.33145                  22591732.703
                  22591736.754                          47.000          30.000

 120387941.023 7  93808810.92744                  22909055.797
                  22909061.348                          44.200          25.700

 129371571.057 6 100809125.891 5                  24618584.188
  24618590.477    24618591.137                          39.400          32.000

 108289189.715 8  84381249.884 7                  20606752.844
  20606757.188    20606757.801                          50.800          47.900

 117022161.071 7  91186126.290 7  87386716.000 8  22268553.875
  22268562.012    22268562.586    22268561.137          45.700          45.600
        48.600
 19  3 26 19  9 30.0000000  0 10G16G08G30G09G11G23G28G05G07G27
 129188813.113 6 100666638.21742                  24583815.180
                  24583821.074                          36.300          16.300

 110936436.568 8  86443919.086 8  82842105.873 8  21110475.023
  21110482.434    21110482.730    21110482.273          48.600          48.000
        53.000
 115014835.956 7  89621972.799 7  85887727.091 8  21886592.875
  21886600.188    21886600.680    21886601.750          46.300          43.600
        51.400
 108943987.283 8  84891436.418 8  81354294.463 8  20731351.578
  20731359.047    20731359.469    20731359.734          48.700          49.000
        53.200
 129400939.866 6 100831910.61343                  24624174.883
                  24624181.699                          38.400          21.100

 118820229.794 7  92587216.39444                  22610743.242
                  22610746.602                          47.400          29.700

 120312439.256 7  93749978.42944                  22894684.102
                  22894694.031                          42.000          25.600

 129377878.029 6 100814040.351 5                  24619788.117
  24619790.391    24619791.156                          41.100          33.100

 108264378.064 8  84361916.117 7                  20602032.078
  20602035.617    20602036.523                          51.100          47.900

 117078488.461 7  91230017.763 7  87428778.655 8  22279273.242
  22279281.023    22279281.512    22279280.039          45.700          44.700
        48.400
 19  3 26 19 10  0.0000000  0 10G16G08G30G09G11G23G28G05G07G27
 129294514.899 6 100749003.16442                  24603931.461
                  24603935.609                          37.000          15.600

 110929294.728 8  86438354.029 7  82836772.696 8  21109115.766
  21109123.313    21109123.172    21109123.457          48.600          47.900
        52.500
 114947559.675 7  89569549.730 7  85837488.334 8  21873791.008
  21873797.887    21873797.973    21873799.117          46.700          44.900
        51.600
 109002677.054 8  84937168.666 8  81398121.205 8  20742520.234
  20742526.965    20742527.625    20742528.203          48.600          49.100
        52.900
 129306822.035 6 100758572.10643                  24606264.914
                  24606271.613                          39.200          20.400

 118920404.367 7  92665274.46344                  22629805.539
                  22629809.359                          46.600          28.900

 120237199.509 7  93691350.07944                  22880369.469
                  22880375.820                          43.900          25.600

 129384697.012 6 100819353.732 5                  24621084.633
  24621086.980    24621088.859                          39.400          31.200

 108239821.908 8  84342781.452 8                  20597358.898
  20597362.973    20597363.625                          51.000          48.300

 117135363.445 7  91274335.932 7  87471250.244 8  22290096.320
  22290103.188    22290104.063    22290103.316          45.800          44.700
        49.200
 19  3 26 19 10 30.0000000  0 10G16G08G30G09G11G23G28G05G07G27
 129400196.209 6 100831352.16352                  24624041.914
                  24624045.316                          38.100          16.300

 110922774.693 7  86433273.505 7  82831903.854 8  21107874.766
  21107882.684    21107882.684    21107882.328          47.700          47.600
        52.500
 114880428.741 7  89517239.920 7  85787358.107 8  21861016.070
  21861023.621    21861023.641    21861024.047          46.600          44.600
        51.000
 109061866.790 8  84983290.536 8  81442321.327 8  20753782.680
  20753790.531    20753790.930    20753791.895          49.100          49.000
        53.000
 129212712.756 6 100685240.26543                  24588355.070
                  24588363.035                          39.400          21.700

 119020851.382 7  92743544.82244                  22648919.852
                  22648923.508                          46.100          28.600

 120162221.737 7  93632925.89944                  22866103.406
                  22866109.051                          45.500          27.100

 129392026.388 6 100825064.983 5                  24622478.750
  24622483.910    24622483.723                          39.600          34.200

 108215521.450 8  84323846.038 8                  20592734.328
  20592738.594    20592739.422                          50.900          48.500

 117192783.180 7  91319078.561 7  87514128.603 8  22301022.797
  22301030.301    22301030.414    22301030.320          47.500          44.100
        49.300
 19  3 26 19 11  0.0000000  0 10G16G08G30G09G11G23G28G05G07G27
 129505855.727 6 100913684.34642                  24644147.688
                  24644151.125                          37.600          13.900

 110916877.174 7  86428678.051 7  82827499.870 8  21106753.234
  21106760.406    21106760.441    21106759.828          47.600          47.700
        52.400
 114813444.530 7  89465044.451 7  85737337.443 8  21848269.414
  21848276.414    21848276.762    21848277.172          46.000          45.400
        51.200
 109121555.277 8  85029801.034 8  81486893.880 8  20765141.992
  20765148.723    20765149.051    20765150.098          50.000          48.900
        52.800
 129118615.322 6 100611917.67643                  24570449.680
                  24570456.770                          38.700          21.100

 119121568.726 7  92822025.81544                  22668085.344
                  22668089.590                          45.900          28.900

 120087506.865 7  93574706.56544                  22851884.289
                  22851890.734                          44.700          26.200

 129399865.481 6 100831173.289 5                  24623971.141
  24623976.355    24623976.051                          39.100          34.200

 108191478.256 8  84305111.088 8                  20588159.156
  20588163.434    20588164.156                          51.500          48.000

 117250745.850 7  91364244.272 7  87557412.388 8  22312053.336
  22312059.918    22312060.672    22312059.941          47.000          44.400
        48.800
 19  3 26 19 11 30.0000000  0 10G16G08G30G09G11G23G28G05G07G27
 129611492.793 6 100995998.87642                  24664248.914
                  24664254.777                          39.400          16.300

 110911602.404 7  86424567.851 8  82823560.933 8  21105749.023
  21105757.086    21105756.898    21105756.438          47.900          48.300
        52.400
 114746608.547 7  89412964.494 7  85687427.462 8  21835551.227
  21835558.148    21835558.617    21835558.863          46.800          45.300
        50.900
 109181741.291 8  85076699.213 8  81531837.967 8  20776594.633
  20776601.617    20776602.398    20776603.004          49.300          48.100
        52.900
 129024532.761 6 100538606.62443                  24552546.977
                  24552553.043                          39.500          22.300

 119222554.417 7  92900715.91444                  22687301.875
                  22687306.719                          46.200          28.200

 120013055.666 7  93516692.67644                  22837714.422
                  22837722.680                          43.900          27.300

 129408213.965 6 100837678.624 5                  24625559.531
  24625564.594    24625564.719                          39.900          35.600

 108167693.880 8  84286577.816 8                  20583633.203
  20583637.543    20583637.891                          50.900          48.100

 117309249.698 7  91409831.683 7  87601100.329 8  22323185.836
  22323192.840    22323193.582    22323192.559          47.000          44.200
        49.200
 19  3 26 19 12  0.0000000  0 10G16G08G30G09G11G23G28G05G07G27
 129717105.285 6 101078294.24842                  24684347.742
                  24684351.652                          40.800          17.400

 110906950.964 8  86420943.361 7  82820087.469 8  21104864.305
  21104871.691    21104871.617    21104871.313          48.300          47.700
        52.600
 114679921.611 7  89361000.680 7  85637628.814 8  21822860.711
  21822868.539    21822868.418    21822868.895          46.300          45.700
        51.100
 109242422.947 8  85123983.598 8  81577152.177 8  20788142.422
  20788149.539    20788149.961    20788150.219          48.600          49.400
        52.700
 128930467.587 6 100465309.15343                  24534647.023
                  24534653.820                          39.900          21.800

 119323805.852 7  92979613.08844                  22706570.422
                  22706574.773                          46.100          28.900

 119938868.686 7  93458884.69044                  22823600.750
                  22823605.582                          45.500          27.500

 129417070.102 6 100844579.500 5                  24627243.578
  24627250.184    24627250.582                          39.400          35.300

 108144169.157 8  84268246.877 7                  20579156.648
  20579160.680    20579161.188                          50.700          47.800

 117368292.400 7  91455838.947 7  87645190.613 8  22334421.141
  22334428.566    22334428.887    22334427.930          45.300          44.400
        49.200
 19  3 26 19 12 30.0000000  0 10G16G08G30G09G11G23G28G05G07G27
 129822691.188 6 101160569.00543                  24704440.266
                  24704443.824                          41.100          19.000

 110902922.006 7  86417803.929 7  82817078.841 8  21104096.750
  21104104.652    21104105.016    21104104.355          47.300          47.900
        52.500
 114613384.138 7  89309153.313 7  85587941.746 8  21810199.539
  21810206.949    21810207.098    21810207.363          46.500          45.800
        51.100
 109303597.846 7  85171652.348 8  81622834.720 8  20799783.563
  20799791.281    20799791.160    20799791.695          47.100          49.600
        52.600
 128836421.924 6 100392026.89243                  24516750.945
                  24516757.105                          40.000          22.600

 119425319.896 7  93058714.89844                  22725888.195
                  22725892.504                          45.900          29.400

 119864945.492 7  93401282.25644                  22809532.094
                  22809538.469                          44.100          27.200

 129426432.625 6 100851874.957 5                  24629024.711
  24629033.125    24629032.523                          39.100          35.700

 108120904.544 8  84250118.607 8                  20574729.203
  20574733.434    20574733.988                          50.500          48.000

 117427870.987 7  91502263.853 7  87689681.122 8  22345758.656
  22345766.238    22345766.438    22345765.883          45.700          44.800
        49.600
 19  3 26 19 13  0.0000000  0 10G16G08G30G09G11G23G28G05G07G27
 129928249.509 6 101242822.18643                  24724527.297
                  24724531.391                          41.400          21.100

 110899515.906 7  86415149.854 8  82814535.353 8  21103449.258
  21103456.934    21103456.660    21103456.316          47.200          48.200
        52.400
 114546997.490 7  89257423.470 7  85538367.323 8  21797566.719
  21797573.969    21797574.105    21797574.316          46.400          45.600
        51.200
 109365264.704 7  85219704.432 8  81668884.622 8  20811517.859
  20811525.590    20811525.680    20811526.277          47.500          49.100
        52.800
 128742399.014 6 100318762.33943                  24498860.883
                  24498865.484                          39.800          22.300

 119527094.351 7  93138019.59045                  22745255.648
                  22745259.738                          46.100          30.200

 119791286.988 7  93343886.07744                  22795515.531
                  22795521.250                          44.300          27.700

 129436300.877 6 100859564.473 5                  24630900.500
  24630910.797    24630910.516                          38.600          35.600

 108097901.473 8  84232194.135 8                  20570351.680
  20570356.328    20570356.727                          50.700          48.200

 117487983.696 7  91549104.904 7  87734570.458 8  22357197.203
  22357204.957    22357205.496    22357205.590          46.500          44.900
        49.500
 19  3 26 19 13 30.0000000  0 10G16G08G30G09G11G23G28G05G07G27
 130033778.977 6 101325052.91243                  24744607.055
                  24744614.125                          41.400          20.400

 110896732.857 8  86412981.218 8  82812457.107 8  21102919.594
  21102927.340    21102927.340    21102927.012          48.300          48.300
        53.000
 114480763.134 7  89205812.304 7  85488906.632 8  21784962.102
  21784970.191    21784969.973    21784969.992          46.000          46.100
        51.000
 109427422.132 8  85268138.779 8  81715300.866 8  20823346.227
  20823353.723    20823353.875    20823354.434          48.300          48.700
        52.500
 128648402.475 6 100245518.34043                  24480971.102
                  24480978.395                          38.300          21.800

 119629127.227 7  93217525.65445                  22764672.930
                  22764675.980                          46.800          30.700

 119717894.256 7  93286696.96844                  22781548.750
                  22781554.465                          44.300          25.300

 129446674.231 6 100867647.510 6                  24632876.563
  24632884.605    24632884.719                          40.000          36.500

 108075161.408 8  84214474.596 8                  20566024.539
  20566029.332    20566029.707                          50.800          48.000

 117548628.630 7  91596360.686 7  87779857.244 8  22368737.461
  22368745.063    22368745.508    22368746.031          45.000          44.400
        49.600
 19  3 26 19 14  0.0000000  0 10G16G08G30G09G11G23G28G05G07G27
 130139278.787 6 101407260.51743                  24764682.672
                  24764689.879                          40.800          21.500

 110894573.972 7  86411298.981 8  82810844.959 8  21102508.219
  21102516.723    21102516.430    21102516.309          47.900          48.000
        52.500
 114414682.938 7  89154321.230 7  85439561.044 8  21772388.133
  21772395.188    21772395.109    21772395.180          46.600          45.800
        51.200
 109490069.168 7  85316954.614 8  81762082.729 8  20835268.156
  20835274.887    20835275.219    20835276.023          47.900          49.300
        52.700
 128554435.781 6 100172297.61343                  24463089.273
                  24463096.965                          37.100          20.600

 119731416.837 7  93297231.77245                  22784137.367
                  22784141.016                          47.200          31.300

 119644768.538 7  93229715.90744                  22767634.172
                  22767638.426                          44.800          25.900

 129457552.664 6 100876124.204 6                  24634947.273
  24634956.602    24634955.590                          40.900          37.700

 108052686.578 8  84196961.746 8                  20561748.195
  20561752.598    20561753.199                          50.800          48.400

 117609804.285 7  91644030.058 7  87825540.371 8  22380379.055
  22380386.082    22380387.145    22380387.090          45.100          44.300
        49.200
 19  3 26 19 14 30.0000000  0 10G16G08G30G09G11G23G28G05G07G27
 130244747.657 6 101489443.98543                  24784754.031
                  24784760.066                          39.300          20.900

 110893038.983 8  86410102.899 8  82809698.716 8  21102217.133
  21102224.133    21102224.242    21102223.988          48.700          48.200
        52.900
 114348757.884 7  89102951.096 7  85390331.317 8  21759842.969
  21759850.191    21759850.262    21759850.258          47.100          45.800
        51.200
 109553203.999 8  85366150.566 8  81809228.835 8  20847282.461
  20847289.195    20847289.434    20847290.207          49.000          48.100
        52.400
 128460501.748 6 100099102.39043                  24445213.969
                  24445221.996                          37.900          21.100

 119833960.488 7  93377135.86145                  22803650.422
                  22803653.945                          46.400          30.800

 119571910.078 7  93172943.10544                  22753768.453
                  22753773.801                          44.100          24.900

 129468934.357 7 100884993.019 6                  24637114.086
  24637121.621    24637121.457                          42.400          36.600

 108030477.838 8  84179656.250 8                  20557521.414
  20557526.125    20557526.617                          50.500          48.000

 117671508.413 7  91692111.202 7  87871618.126 8  22392121.773
  22392128.500    22392128.883    22392128.617          45.900          44.600
        48.700
 19  3 26 19 15  0.0000000  0 10G16G08G30G09G11G23G28G05G07G27
 130350183.067 6 101571601.43343                  24804816.688
                  24804823.961                          38.700          20.600

 110892127.277 7  86409392.499 7  82809017.904 8  21102043.227
  21102050.598    21102050.766    21102049.984          47.000          47.600
        52.600
 114282988.336 7  89051702.090 7  85341217.714 8  21747327.039
  21747334.852    21747334.695    21747334.902          47.500          45.300
        51.500
 109616824.059 8  85415724.627 8  81856737.313 8  20859388.727
  20859395.738    20859395.938    20859396.520          48.300          48.600
        52.600
 128366602.197 6 100025933.94543                  24427347.000
                  24427353.375                          38.600          20.100

 119936755.192 7  93457235.57945                  22823211.063
                  22823215.238                          46.000          30.200

 119499318.483 7  93116378.28744                  22739955.461
                  22739960.102                          44.500          24.700

 129480817.620 6 100894252.713 6                  24639376.945
  24639382.535    24639382.957                          41.900          36.100

 108008535.368 8  84162558.216 8                  20553345.945
  20553350.527    20553351.145                          50.800          48.500

 117733737.939 7  91740601.701 7  87918088.210 8  22403963.641
  22403970.121    22403970.820    22403970.156          46.100          44.000
        48.000
 19  3 26 19 15 30.0000000  0 10G16G08G30G09G11G23G28G05G07G27
 130455583.732 6 101653731.76043                  24824873.352
                  24824881.203                          37.100          19.600

 110891838.908 7  86409167.784 7  82808802.569 8  21101987.344
  21101995.934    21101995.930    21101995.188          47.200          47.800
        53.000
 114217375.414 7  89000575.144 7  85292221.064 8  21734841.016
  21734848.988    21734849.074    21734849.473          46.400          45.800
        51.200
 109680927.625 7  85465675.462 8  81904606.855 8  20871587.586
  20871594.348    20871594.648    20871595.152          47.100          49.100
        53.000
 128272740.422 6  99952794.97643                  24409484.906
                  24409491.824                          38.100          20.900

 120039798.105 7  93537528.72544                  22842819.172
                  22842823.297                          45.300          28.000

 119426994.464 7  93060021.93344                  22726193.430
                  22726197.629                          45.200          26.200

 129493201.486 6 100903902.419 6                  24641730.430
  24641739.563    24641739.199                          40.800          37.000

 107986860.495 8  84145668.706 8                  20549221.219
  20549225.902    20549226.457                          50.000          48.500

 117796490.623 7  91789499.873 7  87964948.969 8  22415905.219
  22415911.734    22415912.383    22415911.578          45.100          44.100
        48.300
 19  3 26 19 16  0.0000000  0 10G16G08G30G09G11G23G28G05G07G27
 130560949.004 6 101735834.51843                  24844923.688
                  24844930.820                          36.000          19.600

 110892174.053 8  86409428.954 7  82809052.855 8  21102052.109
  21102060.027    21102059.621    21102059.625          48.200          47.900
        52.700
 114151920.525 7  88949571.342 7  85243342.421 8  21722385.125
  21722393.336    21722393.574    21722393.844          46.700          46.100
        51.900
 109745513.209 7  85516001.868 8  81952836.325 8  20883876.422
  20883884.879    20883885.164    20883885.613          46.800          49.000
        52.500
 128178919.444 6  99879687.77243                  24391629.070
                  24391638.449                          36.600          20.400

 120143087.375 7  93618013.82944                  22862473.742
                  22862478.805                          45.300          27.100

 119354938.626 7  93003874.53644                  22712478.969
                  22712486.449                          43.800          25.300

 129506085.152 6 100913941.621 6                  24644183.688
  24644190.023    24644190.426                          41.900          36.000

 107965454.704 8  84128988.881 8                  20545147.797
  20545152.461    20545153.035                          50.300          48.000

 117859764.450 7  91838804.147 7  88012198.898 8  22427946.031
  22427952.391    22427953.035    22427952.668          45.200          44.500
        48.100
 19  3 26 19 16 30.0000000  0 10G16G08G30G09G11G23G28G05G07G27
 130666276.707 5 101817907.91842                  24864967.555
                  24864974.039                          34.300          17.400

 110893131.850 8  86410175.296 7  82809768.085 8  21102233.625
  21102241.605    21102241.641    21102241.648          48.300          47.800
        53.100
 114086624.407 7  88898691.284 7  85194582.364 8  21709959.836
  21709968.188    21709968.051    21709968.395          46.700          46.600
        51.600
 109810578.652 8  85566702.190 8  82001424.148 8  20896259.055
  20896266.262    20896266.660    20896267.000          48.700          48.900
        52.400
 128085142.124 6  99806614.60243                  24373784.828
                  24373792.816                          37.200          18.300

 120246619.963 7  93698688.51344                  22882176.148
                  22882180.773                          44.900          28.200

 119283151.118 7  92947936.27544                  22698820.109
                  22698825.004                          44.900          25.500

 129519467.206 6 100924369.196 6                  24646730.406
  24646736.875    24646737.160                          41.600          36.100

 107944318.568 8  84112519.180 8                  20541125.766
  20541130.730    20541131.195                          50.300          48.300

 117923556.759 7  91888512.441 7  88059836.011 8  22440085.641
  22440091.836    22440092.023    22440092.125          46.600          44.500
        48.400
 19  3 26 19 17  0.0000000  0 10G16G08G30G09G11G23G28G05G07G27
 130771565.276 5 101899950.85842                  24885004.539
                  24885009.820                          35.000          16.300

 110894712.636 8  86411407.091 7  82810948.561 8  21102534.547
  21102542.566    21102542.504    21102541.953          48.200          47.500
        52.600
 114021488.193 7  88847935.817 7  85145941.716 8  21697565.336
  21697573.016    21697573.117    21697573.367          47.600          46.400
        51.400
 109876122.083 7  85617774.980 8  82050368.904 8  20908731.828
  20908738.680    20908739.219    20908739.336          47.900          49.100
        52.300
 127991410.882 6  99733577.26443                  24355946.773
                  24355956.281                          37.200          18.600

 120350393.475 7  93779550.92944                  22901923.891
                  22901928.121                          45.300          27.700

 119211632.371 7  92892207.40044                  22685209.391
                  22685216.637                          45.100          27.100

 129533346.153 6 100935183.882 6                  24649368.859
  24649377.664    24649377.609                          41.400          36.500

 107923453.409 8  84096260.597 8                  20537155.672
  20537160.141    20537160.691                          50.500          48.300

 117987865.207 7  91938622.900 7  88107858.530 8  22452321.805
  22452328.727    22452329.590    22452329.719          44.400          44.600
        48.700
 19  3 26 19 17 30.0000000  0 10G16G08G30G09G11G23G28G05G07G27
 130876812.680 5 101981961.79642                  24905033.695
                  24905037.855                          34.500          16.900

 110896915.325 8  86413123.462 7  82812593.420 8  21102953.602
  21102961.652    21102961.570    21102961.344          48.700          47.300
        52.300
 113956512.224 7  88797305.213 7  85097420.712 8  21685200.750
  21685208.180    21685208.492    21685208.715          47.300          46.100
        51.900
 109942140.893 7  85669218.185 8  82099668.627 8  20921294.484
  20921301.594    20921301.953    20921302.406          47.000          49.000
        52.700
 127897728.230 6  99660577.87943                  24338121.563
                  24338129.129                          37.200          19.300

 120454404.244 7  93860598.23744                  22921717.281
                  22921720.844                          45.200          27.300

 119140381.866 7  92836687.58544                  22671651.859
                  22671657.656                          45.800          27.100

 129547720.409 7 100946384.552 5                  24652106.383
  24652113.055    24652112.680                          42.100          35.600

 107902859.771 8  84080213.599 8                  20533236.719
  20533241.480    20533241.746                          50.800          48.200

 118052686.640 7  91989133.102 7  88156264.135 8  22464657.305
  22464664.535    22464665.168    22464665.066          44.600          44.300
        48.800
 19  3 26 19 18  0.0000000  0 10G16G08G30G09G11G23G28G05G07G27
 130982018.343 5 102063940.12242                  24925052.672
                  24925058.219                          34.500          16.900

 110899740.618 7  86415325.001 7  82814703.231 8  21103491.938
  21103499.586    21103499.488    21103499.594          46.900          47.000
        52.500
 113891698.326 7  88746800.901 7  85049020.749 8  21672867.094
  21672874.449    21672875.000    21672875.043          47.900          46.900
        51.900
 110008633.876 7  85721030.882 8  82149322.447 8  20933946.758
  20933954.941    20933954.988    20933955.926          46.300          48.900
        53.000
 127804097.485 6  99587618.89443                  24320303.719
                  24320312.113                          38.500          18.300

 120558650.911 7  93941829.33744                  22941554.789
                  22941558.219                          44.200          26.100

 119069400.889 7  92781377.75944                  22658143.242
                  22658150.332                          44.700          27.600

 129562589.252 7 100957970.655 5                  24654935.844
  24654941.508    24654942.742                          42.100          35.800

 107882539.249 8  84064379.452 8                  20529370.250
  20529374.633    20529374.930                          50.200          48.600

 118118019.413 7  92040041.768 7  88205051.589 8  22477090.453
  22477096.453    22477097.539    22477097.762          45.200          44.400
        49.100
 19  3 26 19 18 30.0000000  0 10G16G08G30G09G11G23G28G05G07G27
 131087180.556 6 102145884.62742                  24945063.945
                  24945069.957                          36.100          14.800

 110903188.041 7  86418011.321 8  82817277.620 8  21104147.391
  21104155.305    21104155.344    21104155.242          46.800          48.100
        52.900
 113827047.395 7  88696423.554 7  85000742.466 8  21660564.422
  21660571.648    21660572.066    21660572.418          47.300          46.400
        52.300
 110075598.887 7  85773211.400 8  82199328.786 8  20946690.313
  20946697.313    20946698.008    20946699.000          47.200          48.400
        52.700
 127710521.660 6  99514702.73143                  24302497.141
                  24302505.020                          37.900          19.300

 120663130.753 7  94023242.14344                  22961436.891
                  22961439.945                          44.600          26.900

 118998689.593 7  92726278.07544                  22644687.703
                  22644694.797                          44.600          27.300

 129577951.324 7 100969941.076 5                  24657858.289
  24657864.434    24657865.309                          42.500          35.000

 107862492.807 8  84048758.832 8                  20525555.477
  20525559.762    20525560.227                          50.100          48.500

 118183860.901 7  92091346.803 7  88254218.919 8  22489619.969
  22489625.688    22489626.559    22489626.723          47.100          44.300
        48.900
 19  3 26 19 19  0.0000000  0 10G16G08G30G09G11G23G28G05G07G27
 131192298.788 6 102227794.92942                  24965068.648
                  24965073.508                          38.900          15.600

 110907258.361 7  86421183.009 7  82820317.134 8  21104921.844
  21104929.418    21104929.688    21104929.191          47.400          47.000
        52.700
 113762561.579 8  88646174.883 7  84952587.497 8  21648292.375
  21648300.262    21648300.395    21648301.168          48.100          46.400
        51.400
 110143035.089 7  85825759.052 8  82249686.949 8  20959522.852
  20959530.363    20959530.578    20959531.723          47.700          48.300
        53.000
 127617004.467 6  99441832.21643                  24284700.000
                  24284708.535                          37.200          20.400

 120767842.040 7  94104835.29344                  22981362.336
                  22981366.172                          45.300          27.500

 118928249.391 7  92671389.66944                  22631286.797
                  22631289.684                          46.600          27.800

 129593806.044 6 100982295.319 5                  24660874.078
  24660882.477    24660882.551                          41.100          35.300

 107842722.625 8  84033353.504 8                  20521793.086
  20521797.176    20521797.813                          50.700          48.300

 118250209.721 7  92143047.168 7  88303765.105 8  22502245.352
  22502251.555    22502252.113    22502251.949          47.500          43.900
        48.300
 19  3 26 19 19 30.0000000  0 10G16G08G30G09G11G23G28G05G07G27
 131297371.443 6 102309669.76042                  24985062.367
                  24985068.031                          38.800          15.600

 110911950.822 7  86424839.466 7  82823821.250 8  21105814.602
  21105822.789    21105822.992    21105822.402          47.000          47.600
        52.300
 113698241.627 7  88596055.463 7  84904556.393 8  21636053.445
  21636060.359    21636060.738    21636061.418          47.500          45.700
        51.400
 110210940.097 7  85878672.026 8  82300395.208 8  20972445.023
  20972452.621    20972452.875    20972453.633          47.200          48.800
        52.700
 127523548.490 6  99369009.42643                  24266916.586
                  24266924.082                          39.200          21.100

 120872781.702 7  94186606.39944                  23001330.969
                  23001335.133                          44.500          27.600

 118858080.298 7  92616712.51644                  22617932.188
                  22617937.207                          46.300          28.100

 129610151.930 7 100995032.334 5                  24663987.125
  24663992.941    24663992.957                          42.000          35.100

 107823229.267 8  84018163.876 8                  20518083.328
  20518087.891    20518088.434                          49.300          48.500

 118317063.055 7  92195140.689 7  88353688.049 7  22514966.484
  22514973.480    22514973.730    22514973.277          46.500          43.600
        47.800
 19  3 26 19 20  0.0000000  0 10G16G08G30G09G11G23G28G05G07G27
 131402396.686 6                                  25005046.813
                                                        39.300

 110917264.405 7  86428979.920 8  82827789.187 8  21106826.516
  21106834.332    21106834.250    21106833.746          47.300          48.200
        52.700
 113634088.208 7  88546065.810 7  84856649.618 8  21623844.664
  21623852.172    21623852.555    21623853.527          46.800          45.800
        51.600
 110279311.551 7  85931948.474 8  82351451.799 8  20985455.891
  20985463.273    20985463.793    20985464.223          46.800          49.100
        52.400
 127430156.278 6  99296236.32443                  24249146.563
                  24249151.828                          41.100          21.800

 120977946.815 7  94268553.21344                  23021343.289
                  23021347.426                          45.200          28.400

 118788182.251 7  92562246.52644                  22604627.914
                  22604636.559                          43.900          26.900

 129626987.246 6 101008150.670 5                  24667190.414
  24667195.195    24667196.734                          41.300          33.500

 107804013.527 8  84003190.567 8                  20514426.875
  20514431.211    20514431.898                          50.000          48.400

 118384417.992 7  92247625.051 7  88403985.570 7  22527784.539
  22527790.492    22527791.004    22527790.586          45.300          44.300
        47.800
 19  3 26 19 20 30.0000000  0 11G16G08G30G09G18G11G23G28G05G07G27
 131507372.290 6                                  25025022.211
                                                        39.000

 110923197.614 7  86433603.219 8  82832219.848 8  21107955.641
  21107963.125    21107962.984    21107962.414          47.200          48.100
        52.600
 113570101.175 7  88496205.805 7  84808867.108 8  21611668.438
  21611676.293    21611676.543    21611677.359          47.500          45.800
        51.900
 110348146.178 7  85985585.816 8  82402854.248 8  20998554.625
  20998561.895    20998562.496    20998562.832          47.600          48.400
        52.400
 133274383.43815                                  25361262.570
                                                        31.800

 127336829.175 7  99223513.94643                  24231387.047
                  24231392.230                          42.000          22.900

 121083333.688 7  94350672.79144                  23041397.695
                  23041402.457                          45.800          28.000

 118718553.907 7  92507990.71444                  22591382.109
                  22591385.656                          45.600          29.200

 129644309.030 6 101021648.184 5                  24670484.891
  24670491.387    24670492.063                          40.500          33.700

 107785075.554 8  83988433.703 8                  20510823.180
  20510827.742    20510828.332                          49.500          49.100

 118452270.785 7  92300497.343 7  88454654.870 8  22540696.188
  22540702.656    22540703.211    22540702.918          45.100          43.700
        48.000
 19  3 26 19 21  0.0000000  0 11G16G08G30G09G18G11G23G28G05G07G27
 131612296.541 6                                  25044989.461
                                                        38.100

 110929750.663 7  86438709.500 7  82837113.355 8  21109202.672
  21109210.125    21109210.145    21109209.473          47.500          47.700
        52.400
 113506281.946 7  88446476.551 7  84761209.918 8  21599524.594
  21599532.172    21599532.281    21599533.070          47.200          46.500
        51.900
 110417442.252 7  86039582.739 8  82454601.292 8  21011740.930
  21011748.719    21011748.945    21011749.344          46.900          48.000
        52.000
 133186562.022 4                                  25344555.219
                                                        29.100

 127243570.602 6  99150844.98843                  24213639.797
                  24213646.008                          41.700          22.600

 121188939.837 7  94432963.24544                  23061494.102
                  23061498.406                          45.800          28.400

 118649195.946 7  92453945.61544                  22578182.453
                  22578187.469                          45.200          28.100

 129662116.412 6 101035523.951 5                  24673874.313
  24673881.320    24673880.453                          40.900          33.700

 107766416.235 8  83973893.997 8                  20507272.406
  20507276.965    20507277.559                          49.600          48.500

 118520619.288 7  92353755.893 7  88505694.314 8  22553702.180
  22553709.387    22553709.715    22553709.074          44.600          44.000
        48.600
 19  3 26 19 21 30.0000000  0 10G16G08G30G09G11G23G28G05G07G27
 131717174.544 6 102636781.06552                  25064948.758
                  25064951.145                          37.700          16.300

 110936929.015 7  86444303.033 8  82842473.832 8  21110567.844
  21110576.500    21110576.492    21110576.004          47.100          48.600
        52.800
 113442637.828 8  88396883.744 7  84713683.477 8  21587413.141
  21587421.207    21587421.352    21587421.867          48.000          46.000
        51.800
 110487203.916 7  86093942.461 8  82506696.035 8  21025016.422
  21025023.742    21025024.250    21025024.691          47.500          48.300
        52.100
 127150389.744 7  99078236.55843                  24195908.609
                  24195914.770                          42.400          22.900

 121294768.812 7  94515427.32144                  23081633.445
                  23081637.195                          45.400          28.100

 118580114.972 7  92400116.33944                  22565035.836
                  22565042.547                          44.900          27.900

 129680414.421 7 101049782.217 5                  24677358.945
  24677360.508    24677362.098                          42.100          32.200

 107748042.991 8  83959577.173 8                  20503776.141
  20503780.398    20503780.992                          49.200          48.300

 118589467.112 7  92407403.543 7  88557106.631 8  22566803.305
  22566810.188    22566810.805    22566810.461          44.700          43.800
        48.300
 19  3 26 19 22  0.0000000  0 10G16G08G30G09G11G23G28G05G07G27
 131821999.714 6 102718463.02642                  25084895.625
                  25084900.938                          38.700          16.900

 110944727.125 7  86450379.472 7  82848297.090 8  21112052.297
  21112060.238    21112060.184    21112059.844          47.000          47.500
        52.900
 113379164.771 7  88347424.220 7  84666284.780 8  21575334.750
  21575342.316    21575342.691    21575343.215          47.300          46.700
        51.500
 110557423.975 8  86148659.386 8  82559133.073 8  21038379.453
  21038386.418    21038386.766    21038387.383          48.200          49.000
        52.300
 127057284.232 7  99005686.82643                  24178190.586
                  24178198.066                          42.900          22.000

 121400813.008 7  94598059.10144                  23101812.516
                  23101816.789                          44.500          27.300

 118511306.166 7  92346499.12244                  22551943.078
                  22551948.340                          44.500          26.400

 129699196.081 6 101064417.208 5                  24680930.023
  24680936.191    24680937.230                          40.100          34.100

 107729951.946 8  83945480.250 8                  20500333.117
  20500337.594    20500338.184                          49.300          48.100

 118658806.568 7  92461434.271 7  88608886.068 8  22579997.688
  22580004.887    22580005.742    22580005.172          44.500          43.200
        48.800
 19  3 26 19 22 30.0000000  0 11G16G08G30G09G18G11G23G28G05G07G27
 131926770.401 6 102800102.43842                  25104831.953
                  25104839.223                          38.100          16.900

 110953143.814 7  86456937.951 8  82854582.299 8  21113654.148
  21113661.746    21113661.402    21113660.762          47.500          48.000
        52.100
 113315863.297 7  88298098.434 7  84619014.218 8  21563289.008
  21563296.527    21563296.613    21563297.277          47.000          46.600
        51.900
 110628099.755 8  86203731.412 8  82611910.419 8  21051828.383
  21051835.637    21051836.121    21051836.570          48.100          48.700
        52.300
 132922744.76815                                  25294381.211
                                                        32.500

 126964256.277 7  98933197.54443                  24160488.906
                  24160495.020                          42.500          22.600

 121507069.301 7  94680856.14344                  23122032.406
                  23122036.762                          43.900          26.500

 118442769.087 7  92293093.64644                  22538900.906
                  22538906.289                          45.200          27.800

 129718459.517 6 101079427.650 5                  24684594.258
  24684602.801    24684602.633                          39.200          34.900

 107712143.415 8  83931603.476 8                  20496944.672
  20496948.746    20496949.434                          48.800          48.200

 118728634.484 7  92515845.629 7  88661030.288 8  22593286.227
  22593293.543    22593293.621    22593293.301          44.900          43.800
        48.200
 19  3 26 19 23  0.0000000  0 11G16G08G30G09G18G11G23G28G05G07G27
 132031485.788 6 102881698.86242                  25124758.852
                  25124766.371                          36.900          17.400

 110962179.367 7  86463978.667 7  82861329.635 8  21115372.953
  21115380.637    21115380.836    21115380.090          46.500          47.500
        52.700
 113252735.247 7  88248907.757 7  84571873.165 8  21551275.477
  21551283.805    21551283.910    21551284.492          46.500          46.300
        51.800
 110699229.855 8  86259157.438 8  82665027.026 8  21065364.414
  21065371.141    21065371.598    21065372.219          48.400          48.500
        52.100
 132834873.262 5                                  25277654.617
                                                        33.300

 126871309.580 6  98860771.59343                  24142801.766
                  24142808.020                          41.300          22.800

 121613535.528 7  94763816.74944                  23142292.250
                  23142296.848                          44.200          26.700

 118374504.758 7  92239900.73744                  22525910.039
                  22525916.004                          45.700          28.900

 129738203.795 6 101094812.739 6                  24688355.000
  24688362.840    24688360.496                          41.700          36.100

 107694619.201 8  83917948.242 8                  20493609.945
  20493614.355    20493614.949                          49.900          48.500

 118798949.016 7  92570636.184 7  88713537.883 8  22606666.789
  22606673.527    22606674.246    22606674.047          45.600          44.300
        48.400
 19  3 26 19 23 30.0000000  0 11G16G08G30G09G18G11G23G28G05G07G27
 132136144.845 5 102963251.32642                  25144674.727
                  25144681.848                          35.800          16.900

 110971833.806 7  86471501.596 8  82868539.116 8  21117210.211
  21117218.551    21117218.434    21117217.605          47.000          48.700
        52.600
 113189782.250 7  88199853.488 7  84524862.827 8  21539296.711
  21539304.234    21539304.418    21539304.875          47.300          46.400
        52.300
 110770812.698 7  86314936.260 8  82718481.732 8  21078985.586
  21078992.664    21078993.176    21078993.859          47.100          48.400
        52.100
 132746996.234 5                                  25260930.086
                                                        31.500

 126778447.532 6  98788411.58943                  24125130.688
                  24125137.109                          41.400          21.700

 121720209.603 7  94846939.33744                  23162592.570
                  23162596.160                          44.300          27.900

 118306514.027 7  92186920.98744                  22512971.195
                  22512976.848                          45.600          28.100

 129758427.930 6 101110571.803 5                  24692204.258
  24692209.336    24692209.469                          41.800          34.800

 107677381.209 8  83904516.034 8                  20490329.914
  20490334.258    20490334.777                          49.900          48.900

 118869748.093 7  92625804.278 7  88766407.315 8  22620139.484
  22620146.230    22620146.547    22620146.785          44.500          43.700
        48.600
 19  3 26 19 24  0.0000000  0 11G16G08G30G09G18G11G23G28G05G07G27
 132240747.137 5 103044759.58542                  25164581.484
                  25164586.340                          34.300          17.400

 110982107.213 7  86479506.851 8  82876210.825 8  21119165.813
  21119173.652    21119173.477    21119172.879          47.200          48.300
        52.500
 113127006.030 7  88150936.968 7  84477984.505 8  21527350.258
  21527358.457    21527358.527    21527358.797          47.500          46.800
        52.500
 110842846.707 7  86371066.639 8  82772273.341 8  21092693.133
  21092700.227    21092700.723    21092701.410          47.400          48.200
        52.000
 132659117.272 5                                  25244208.406
                                                        33.700

 126685673.665 6  98716120.33743                  24107477.680
                  24107482.234                          41.100          22.500

 121827089.794 7  94930222.55044                  23182930.508
                  23182934.859                          43.200          25.200

 118238797.614 7  92134155.01244                  22500085.164
                  22500090.770                          44.300          28.100

 129779131.048 6 101126704.088 5                  24696144.406
  24696148.273    24696149.227                          41.900          35.600

 107660430.846 8  83891307.961 8                  20487103.852
  20487108.762    20487109.109                          48.900          49.000

 118941029.706 7  92681348.381 7  88819637.078 8  22633703.531
  22633710.309    22633711.035    22633710.867          44.400          43.600
        48.700
 19  3 26 19 24 30.0000000  0 11G16G08G30G09G18G11G23G28G05G07G27
 132345290.292 5 103126221.70342                  25184474.258
                  25184480.551                          33.700          16.300

 110992997.635 7  86487992.910 7  82884343.312 8  21121238.281
  21121245.570    21121245.656    21121245.137          47.200          47.800
        52.400
 113064406.780 7  88102158.367 7  84431238.336 8  21515438.820
  21515445.941    21515446.355    21515446.453          47.200          46.700
        52.300
 110915328.804 8  86427546.167 8  82826399.574 8  21106486.445
  21106493.016    21106493.711    21106494.438          48.500          48.000
        51.800
 132571238.228 5                                  25227486.891
                                                        34.400

 126592990.451 6  98643899.72043                  24089839.453
                  24089844.941                          39.900          22.000

 121934172.212 7  95013663.32144                  23203307.938
                  23203312.273                          44.000          26.500

 118171354.664 7  92081602.08544                  22487249.898
                  22487256.984                          45.100          27.000

 129800310.833 6 101143207.818 6                  24700174.063
  24700178.953    24700180.055                          41.300          36.100

 107643768.292 8  83878324.169 8                  20483932.977
  20483937.746    20483938.359                          49.100          48.800

 119012790.326 7  92737265.727 7  88873224.520 8  22647358.906
  22647365.566    22647366.516    22647366.043          44.900          43.500
        48.800
 19  3 26 19 25  0.0000000  0 11G16G08G30G09G18G11G23G28G05G07G27
 132449773.69015 103207637.35352                  25204355.727
                  25204363.715                          31.500          14.800

 111004505.933 7  86496960.426 7  82892937.185 8  21123426.938
  21123435.355    21123435.129    21123434.930          46.700          47.300
        52.300
 113001986.700 7  88053519.342 7  84384625.962 8  21503560.484
  21503568.379    21503568.289    21503568.254          47.600          46.700
        52.000
 110988257.942 8  86484374.058 8  82880859.628 8  21120364.109
  21120371.484    21120371.449    21120372.609          48.500          48.100
        51.700
 132483363.251 5                                  25210762.141
                                                        34.300

 126500400.608 6  98571751.86943                  24072219.820
                  24072225.230                          39.600          22.600

 122041455.140 7  95097260.32044                  23223723.555
                  23223727.238                          43.600          26.400

 118104186.380 7  92029263.19944                  22474470.414
                  22474475.656                          46.300          28.000

 129821966.484 6 101160082.294 6                  24704294.891
  24704300.547    24704301.520                          41.800          37.100

 107627395.512 8  83865566.166 8                  20480817.648
  20480822.352    20480822.715                          49.900          49.200

 119085028.315 7  92793555.037 7  88927168.459 7  22661105.180
  22661112.395    22661112.762    22661112.398          44.600          43.100
        47.900
 19  3 26 19 25 30.0000000  0 11G16G08G30G09G18G11G23G28G05G07G27
 132554196.73114                                  25224225.352
                                                        29.400

 111016631.382 7  86506408.845 7  82901991.908 8  21125735.188
  21125743.172    21125742.855    21125742.426          46.900          47.700
        52.500
 112939747.029 7  88005020.911 7  84338148.297 8  21491716.383
  21491723.883    21491724.500    21491724.492          47.500          46.400
        52.100
 111061631.996 7  86541548.624 8  82935651.901 8  21134326.461
  21134334.160    21134334.703    21134334.965          47.900          48.200
        52.000
 132395495.47015                                  25194038.773
                                                        32.300

 126407908.023 6  98499679.77943                  24054618.289
                  24054624.063                          40.500          22.800

 122148936.084 7  95181011.61944                  23244176.078
                  23244179.965                          43.900          27.800

 118037293.488 7  91977138.94144                  22461741.734
                  22461746.043                          45.200          29.100

 129844096.424 6 101177326.342 6                  24708506.492
  24708512.414    24708512.234                          41.400          37.500

 107611314.113 8  83853035.202 8                  20477757.305
  20477762.043    20477762.414                          49.400          48.700

 119157741.149 7  92850214.408 7  88981467.000 7  22674942.273
  22674949.035    22674949.789    22674949.047          44.300          43.000
        47.600
 19  3 26 19 26  0.0000000  0 11G16G08G30G09G18G11G23G28G05G07G27
 132658565.91514                                  25244086.531
                                                        29.100

 111029373.292 7  86516337.612 7  82911506.972 8  21128159.484
  21128167.727    21128167.645    21128167.375          47.300          47.600
        52.500
 112877689.073 8  87956664.075 7  84291806.331 8  21479907.297
  21479914.523    21479915.094    21479915.113          48.500          46.700
        52.300
 111135448.903 7  86599068.271 8  82990774.889 8  21148372.906
  21148381.227    21148381.637    21148381.445          47.300          48.600
        52.000
 132307638.23515                                  25177319.172
                                                        33.200

 126315515.990 6  98427686.06443                  24037037.070
                  24037042.598                          40.700          21.800

 122256612.753 7  95264915.44544                  23264665.297
                  23264670.094                          42.900          25.500

 117970676.152 7  91925229.36544                  22449063.063
                  22449069.309                          44.600          28.900

 129866699.151 6 101194938.838 6                  24712807.594
  24712812.738    24712813.773                          41.400          36.900

 107595525.013 8  83840732.006 8                  20474752.883
  20474757.352    20474757.832                          49.600          48.700

 119230926.378 7  92907241.824 7  89036118.301 7  22688868.984
  22688876.910    22688876.602    22688876.012          44.500          43.500
        47.600
 19  3 26 19 26 30.0000000  0 11G16G08G30G09G18G11G23G28G05G07G27
 132762868.39415                                  25263933.234
                                                        31.900

 111042731.005 8  86526746.218 7  82921481.890 8  21130701.492
  21130709.605    21130709.266    21130709.242          48.000          47.500
        52.800
 112815813.916 7  87908449.674 7  84245600.875 8  21468132.859
  21468140.445    21468140.762    21468140.816          47.200          46.700
        52.300
 111209706.445 7  86656931.264 8  83046226.927 8  21162503.430
  21162512.219    21162512.477    21162512.379          47.600          48.600
        52.500
 132219794.072 5 103028506.04652                  25160607.953
                  25160614.270                          35.500          16.900

 126223227.192 6  98355772.78843                  24019475.430
                  24019479.738                          40.900          23.800

 122364482.386 7  95348969.65444                  23285193.297
                  23285197.293                          43.600          26.300

 117904334.206 7  91873534.36544                  22436439.227
                  22436444.465                          45.700          27.400

 129889773.176 6 101212918.604 6                  24717198.133
  24717204.777    24717204.379                          40.900          38.400

 107580029.268 8  83828657.394 8                  20471804.133
  20471808.836    20471809.270                          50.000          49.200

 119304581.251 7  92964635.225 7  89091120.295 7  22702885.297
  22702892.738    22702892.926    22702891.969          45.500          44.200
        47.400
 19  3 26 19 27  0.0000000  0 11G16G08G30G09G18G11G23G28G05G07G27
 132867100.52715 103532839.46952                  25283768.922
                  25283775.813                          33.900          15.600

 111056702.542 8  86537633.152 7  82931915.186 8  21133360.039
  21133368.129    21133368.023    21133367.762          48.200          47.800
        52.700
 112754121.100 7  87860377.356 7  84199531.579 8  21456392.086
  21456400.973    21456400.918    21456401.066          47.200          47.400
        52.500
 111284400.782 8  86715134.606 7  83102005.140 8  21176718.141
  21176725.500    21176725.766    21176726.840          48.000          47.400
        52.000
 132131964.642 6 102960067.66342                  25143896.023
                  25143901.648                          37.000          16.900

 126131042.425 6  98283940.55543                  24001932.500
                  24001937.680                          40.900          23.400

 122472540.501 7  95433170.73744                  23305756.656
                  23305759.660                          42.900          26.200

 117838266.067 7  91822052.76144                  22423868.398
                  22423871.977                          46.100          28.600

 129913315.056 6 101231262.889 6                  24721675.188
  24721684.004    24721684.160                          39.800          37.100

 107564826.249 8  83816810.880 8                  20468910.750
  20468915.598    20468916.016                          50.800          48.700

 119378701.460 7  93022391.211 7  89146469.782 7  22716988.758
  22716997.160    22716997.387    22716996.602          45.300          44.000
        47.100
 19  3 26 19 27 30.0000000  0 11G16G08G30G09G18G11G23G28G05G07G27
 132971267.21515 103614008.22152                  25303593.969
                  25303597.980                          33.700          14.800

 111071288.189 8  86548998.589 8  82942807.069 8  21136136.328
  21136143.988    21136143.918    21136143.297          48.600          48.000
        52.400
 112692613.350 7  87812449.256 7  84153600.491 8  21444687.930
  21444695.621    21444696.395    21444696.395          47.900          47.400
        52.300
 111359531.175 8  86773677.758 7  83158108.976 8  21191015.109
  21191021.781    21191022.141    21191023.934          49.000          47.300
        52.300
 132044154.580 6 102891644.33442                  25127184.672
                  25127193.203                          37.200          17.400

 126038966.447 6  98212193.10843                  23984412.414
                  23984416.035                          41.300          22.500

 122580786.280 7  95517518.02644                  23326354.344
                  23326358.441                          42.400          24.900

 117772473.712 7  91770786.02644                  22411346.984
                  22411352.395                          46.000          28.900

 129937324.769 6 101249971.744 5                  24726246.320
  24726250.906    24726252.199                          40.700          35.200

 107549918.829 8  83805194.729 8                  20466074.109
  20466078.758    20466079.238                          50.500          48.100

 119453285.874 7  93080508.939 7  89202165.919 7  22731181.711
  22731189.824    22731190.582    22731189.789          44.600          43.700
        47.700
 19  3 26 19 28  0.0000000  0 11G16G08G30G09G18G11G23G28G05G07G27
 133075366.62915 103695124.72652                  25323400.594
                  25323407.504                          31.300          16.300

 111086487.239 8  86560842.016 8  82954157.026 8  21139029.352
  21139036.391    21139036.133    21139035.348          48.800          48.700
        52.200
 112631291.868 7  87764666.299 7  84107808.497 8  21433018.414
  21433027.215    21433027.262    21433027.125          46.800          46.800
        52.000
 111435095.506 8  86832558.994 7  83214536.858 8  21205394.695
  21205401.254    21205401.844    21205403.531          48.400          46.900
        52.300
 131956366.972 6 102823238.49443                  25110480.266
                  25110487.699                          38.600          18.600

 125947002.310 6  98140532.81743                  23966910.844
                  23966916.504                          41.300          22.600

 122689216.796 7  95602009.26544                  23346988.945
                  23346992.977                          42.900          25.300

 117706957.487 7  91719734.45744                  22398879.844
                  22398884.988                          44.900          29.200

 129961800.648 6 101269043.836 6                  24730905.375
  24730909.734    24730909.914                          41.300          36.900

 107535307.713 8  83793809.433 8                  20463293.844
  20463298.160    20463298.746                          50.800          48.600

 119528331.836 7  93138986.287 7  89258206.706 8  22745463.195
  22745470.082    22745470.809    22745470.996          45.300          43.000
        48.400
 19  3 26 19 28 30.0000000  0 11G16G08G30G09G18G11G23G28G05G07G27
 133179398.03515 103776187.97852                  25343198.586
                  25343204.785                          33.500          14.800

 111102298.851 8  86573162.742 8  82965964.401 8  21142036.875
  21142044.863    21142045.066    21142044.164          48.700          48.200
        52.600
 112570157.747 7  87717029.350 7  84062156.408 8  21421385.867
  21421393.348    21421393.656    21421393.539          47.300          47.000
        52.100
 111511091.325 8  86891776.503 7  83271286.960 8  21219856.484
  21219863.184    21219863.324    21219865.141          48.000          47.000
        52.800
 131868604.748 6 102754852.46043                  25093779.992
                  25093786.465                          40.200          18.600

 125855152.782 7  98068961.77443                  23949432.203
                  23949438.859                          42.000          22.300

 122797829.519 7  95686642.49544                  23367657.281
                  23367661.375                          42.000          25.000

 117641717.072 7  91668897.80344                  22386463.156
                  22386470.000                          44.100          27.900

 129986740.887 6 101288477.736 6                  24735647.578
  24735656.391    24735656.230                          39.600          37.100

 107520994.069 8  83782655.952 8                  20460570.156
  20460574.500    20460574.973                          50.600          48.300

 119603836.540 7  93197821.108 7  89314590.077 8  22759830.906
  22759837.758    22759838.441    22759839.230          44.700          42.000
        48.800
 19  3 26 19 29  0.0000000  0 11G16G08G30G09G18G11G23G28G05G07G27
 133283360.591 5 103857197.79942                  25362980.961
                  25362987.094                          33.700          14.800

 111118722.832 8  86585960.665 7  82978229.070 8  21145162.734
  21145170.371    21145170.484    21145170.270          48.000          47.800
        52.800
 112509212.800 8  87669539.771 7  84016645.581 8  21409788.422
  21409796.063    21409796.199    21409796.105          48.000          47.300
        51.900
 111587517.053 7  86951328.993 7  83328358.062 8  21234398.820
  21234406.355    21234406.844    21234408.102          47.600          47.300
        52.400
 131780871.474 6 102686488.93742                  25077082.492
                  25077090.043                          38.300          17.400

 125763421.571 6  97997482.96743                  23931978.242
                  23931983.707                          41.900          22.800

 122906622.134 6  95771415.89344                  23388358.633
                  23388363.793                          41.400          25.100

 117576753.378 7  91618276.78144                  22374101.570
                  22374107.746                          45.600          28.900

 130012144.442 6 101308272.731 6                  24740482.586
  24740489.293    24740490.379                          39.900          36.000

 107506980.041 8  83771735.926 8                  20457903.414
  20457907.633    20457908.391                          50.400          48.500

 119679797.881 7  93257011.754 7  89371314.434 8  22774286.250
  22774292.922    22774293.180    22774294.230          44.100          42.400
        48.500
 19  3 26 19 29 30.0000000  0 11G16G08G30G09G18G11G23G28G05G07G27
 133387253.064 5 103938152.93142                  25382752.742
                  25382757.180                          35.000          14.800

 111135758.389 7  86599235.154 7  82990950.428 8  21148403.992
  21148411.984    21148411.988    21148412.387          47.300          47.900
        53.000
 112448458.203 7  87622198.552 7  83971276.917 8  21398227.102
  21398234.883    21398234.938    21398235.055          47.800          47.500
        52.100
 111664370.319 7  87011214.647 7  83385748.484 8  21249023.383
  21249031.176    21249031.594    21249032.586          47.500          46.800
        52.000
 131693170.488 6 102618150.61643                  25060394.133
                  25060400.121                          38.300          18.600

 125671811.410 6  97926098.46743                  23914543.523
                  23914551.332                          41.600          22.800

 123015592.227 6  95856327.57744                  23409095.539
                  23409100.582                          41.500          25.300

 117512066.535 7  91567871.50144                  22361791.875
                  22361797.918                          44.200          29.100

 130038009.733 6 101328427.483 5                  24745403.805
  24745412.074    24745412.746                          38.100          35.600

 107493266.302 8  83761049.910 8                  20455293.914
  20455298.141    20455298.742                          49.400          49.100

 119756213.153 7  93316556.119 6  89428377.755 8  22788827.492
  22788833.512    22788834.445    22788835.176          44.800          41.800
        48.400
 19  3 26 19 30  0.0000000  0 11G16G08G30G09G18G11G23G28G05G07G27
 133491074.192 5 104019052.48942                  25402507.609
                  25402513.676                          33.800          15.600

 111153404.092 7  86612985.025 8  83004127.399 8  21151761.547
  21151770.109    21151770.066    21151769.531          47.200          48.300
        52.500
 112387894.896 8  87575006.385 7  83926051.085 8  21386702.289
  21386709.871    21386710.355    21386710.227          48.400          46.900
        52.100
 111741648.688 7  87071431.541 7  83443456.335 8  21263729.063
  21263736.414    21263737.152    21263738.004          47.800          46.800
        51.900
 131605504.403 6 102549839.48842                  25043710.867
                  25043718.227                          39.000          17.800

 125580324.975 6  97854810.35643                  23897133.867
                  23897142.336                          40.900          22.800

 123124736.956 7  95941375.34044                  23429865.945
                  23429869.789                          42.300          26.000

 117447656.361 7  91517681.78244                  22349535.672
                  22349541.352                          45.800          29.300

 130064334.403 6 101348940.104 5                  24750414.625
  24750422.016    24750421.578                          40.100          35.500

 107479853.637 8  83750598.479 8                  20452741.727
  20452745.855    20452746.418                          49.900          48.500

 119833079.385 7  93376451.846 7  89485777.836 7  22803455.211
  22803461.223    22803461.773    22803462.176          45.300          42.600
        47.800
 19  3 26 19 30 30.0000000  0 11G16G08G30G09G18G11G23G28G05G07G27
 133594822.505 6 104099895.33742                  25422252.891
                  25422256.348                          37.300          14.800

 111171659.647 8  86627210.141 7  83017759.807 8  21155236.305
  21155243.930    21155243.801    21155242.926          48.200          47.900
        52.400
 112327524.158 7  87527964.261 7  83880969.053 8  21375214.336
  21375221.828    21375222.145    21375222.047          47.600          47.500
        52.400
 111819349.840 7  87131977.875 7  83501479.902 8  21278516.016
  21278522.473    21278523.094    21278524.227          47.600          47.100
        52.000
 131517876.523 6 102481558.11643                  25027036.258
                  25027043.660                          38.900          19.000

 125488965.512 7  97783621.20243                  23879748.930
                  23879756.871                          42.000          23.600

 123234053.332 6  96026556.84344                  23450668.039
                  23450672.031                          41.600          25.900

 117383523.022 7  91467707.77644                  22337330.094
                  22337337.211                          44.900          28.600

 130091116.604 6 101369809.365 5                  24755511.727
  24755516.785    24755518.270                          39.700          34.000

 107466743.265 8  83740382.603 8                  20450246.789
  20450250.914    20450251.527                          49.700          49.200

 119910393.870 7  93436696.870 7  89543512.649 7  22818167.352
  22818173.656    22818174.219    22818174.555          45.100          42.900
        47.200
 19  3 26 19 31  0.0000000  0 11G16G08G30G09G18G11G23G28G05G07G27
 133698496.807 6 104180680.45042                  25441981.148
                  25441985.086                          36.900          15.600

 111190523.091 8  86641908.935 7  83031846.156 8  21158825.914
  21158833.320    21158833.547    21158832.539          48.200          47.900
        52.600
 112267346.855 8  87481072.863 7  83836031.473 8  21363762.945
  21363770.363    21363770.738    21363770.703          48.100          47.300
        52.300
 111897471.125 7  87192851.579 7  83559817.198 8  21293381.938
  21293388.441    21293388.746    21293390.113          47.800          47.000
        51.900
 131430289.210 6 102413308.37043                  25010369.648
                  25010377.543                          38.900          19.600

 125397735.780 6  97712533.13344                  23862388.000
                  23862395.703                          41.300          24.400

 123343538.754 6  96111870.06144                  23471501.977
                  23471506.504                          41.600          25.400

 117319666.264 7  91417949.31444                  22325180.570
                  22325185.719                          45.900          29.400

 130118354.469 6 101391033.659 5                  24760695.273
  24760700.359    24760700.488                          39.600          33.700

 107453935.788 8  83730402.741 8                  20447809.320
  20447813.523    20447814.129                          49.700          48.900

 119988153.477 7  93497288.767 7  89601579.872 7  22832964.695
  22832971.887    22832971.895    22832971.832          45.000          43.400
        46.900
 19  3 26 19 31 30.0000000  0 11G16G08G30G09G18G11G23G28G05G07G27
 133802096.312 6 104261407.24042                  25461695.430
                  25461699.191                          36.000          14.800

 111209994.174 7  86657081.205 8  83046386.249 8  21162530.469
  21162538.867    21162538.879    21162538.254          46.200          48.100
        52.300
 112207364.458 7  87434333.354 7  83791239.444 8  21352348.969
  21352356.199    21352356.535    21352356.391          46.300          47.700
        52.300
 111976010.284 7  87254050.910 7  83618466.547 8  21308326.516
  21308334.313    21308334.262    21308335.539          46.900          46.700
        51.900
 131342746.216 6 102345093.13343                  24993710.453
                  24993718.844                          37.900          19.000

 125306638.651 6  97641548.41543                  23845052.438
                  23845059.977                          39.800          22.200

 123453190.303 6  96197312.74244                  23492367.461
                  23492372.633                          41.100          25.300

 117256086.229 7  91368406.48045                  22313082.375
                  22313086.973                          44.900          30.400

 130146046.434 6 101412611.699 5                  24765965.297
  24765969.957    24765970.668                          40.200          32.900

 107441432.856 8  83720660.208 8                  20445429.922
  20445434.543    20445435.012                          48.300          48.800

 120066355.740 7  93558225.576 7  89659977.643 7  22847845.633
  22847853.535    22847853.637    22847853.547          45.600          43.700
        47.300
 19  3 26 19 32  0.0000000  0 11G16G08G30G09G18G11G23G28G05G07G27
 133905619.724 6 104342074.91742                  25481395.914
                  25481398.238                          38.100          14.800

 111230071.896 7  86672726.205 7  83061379.353 8  21166351.320
  21166359.383    21166359.109    21166359.063          47.900          47.800
        52.600
 112147578.473 7  87387746.889 7  83746594.081 8  21340971.789
  21340979.523    21340979.730    21340979.359          47.800          47.300
        52.200
 112054965.622 7  87315574.509 7  83677426.670 8  21323352.117
  21323358.559    21323358.875    21323360.520          47.200          47.000
        52.200
 131255250.804 6 102276914.98743                  24977058.523
                  24977068.523                          37.200          18.600

 125215677.489 6  97570669.63443                  23827743.328
                  23827749.535                          40.400          22.300

 123563006.014 7  96282883.33744                  23513265.172
                  23513270.250                          42.000          25.100

 117192783.604 7  91319079.78745                  22301035.234
                  22301040.660                          44.900          30.000

 130174190.737 6 101434542.248 5                  24771321.742
  24771325.688    24771326.297                          41.800          33.300

 107429235.650 8  83711155.910 8                  20443108.633
  20443113.320    20443113.980                          49.600          49.100

 120144998.211 7  93619505.379 7  89718704.144 7  22862811.203
  22862818.844    22862818.969    22862818.578          45.000          44.000
        47.100
 19  3 26 19 32 30.0000000  0 11G16G08G30G09G18G11G23G28G05G07G27
 134009065.899 5 104422682.28542                  25501079.359
                  25501083.609                          34.600          13.900

 111250755.554 7  86688843.315 7  83076824.934 8  21170287.438
  21170295.090    21170294.797    21170294.699          47.700          47.900
        52.400
 112087990.152 7  87341314.441 8  83702096.318 8  21329632.016
  21329640.379    21329640.480    21329640.277          47.600          48.000
        52.100
 112134334.602 7  87377420.453 7  83736695.691 8  21338454.539
  21338462.414    21338462.527    21338463.984          46.100          47.000
        51.900
 131167806.105 5 102208776.31142                  24960419.375
                  24960427.160                          35.000          15.600

 125124855.262 6  97499899.10943                  23810461.039
                  23810466.211                          39.900          21.800

 123672983.025 7  96368579.61844                  23534194.680
                  23534197.918                          42.900          25.500

 117129758.450 7  91269969.32344                  22289041.258
                  22289046.984                          44.500          29.100

 130202785.520 6 101456823.910 5                  24776762.703
  24776766.805    24776767.082                          41.500          34.400

 107417345.107 8  83701890.549 8                  20440846.531
  20440850.594    20440851.336                          49.600          49.000

 120224078.045 7  93681126.035 7  89777757.253 7  22877859.930
  22877866.414    22877867.023    22877867.098          44.200          43.400
        47.100
 19  3 26 19 33  0.0000000  0 11G16G08G30G09G18G11G23G28G05G07G27
 134112434.080 6 104503228.84642                  25520750.867
                  25520753.719                          37.500          15.600

 111272044.184 7  86705431.860 7  83092722.294 8  21174338.227
  21174346.414    21174346.344    21174345.984          46.800          47.800
        52.500
 112028600.807 7  87295037.063 7  83657747.160 8  21318330.414
  21318338.777    21318338.957    21318338.855          47.300          47.900
        52.100
 112214114.958 7  87439586.959 7  83796271.909 8  21353637.055
  21353644.199    21353644.535    21353645.805          45.900          47.300
        51.900
 131080415.141 5 102140679.52742                  24943786.875
                  24943797.480                          33.800          15.600

 125034174.996 6  97429239.23643                  23793205.922
                  23793209.648                          40.500          22.300

 123783119.036 7  96454399.83544                  23555152.109
                  23555156.273                          43.000          25.600

 117067010.692 7  91221074.98644                  22277100.266
                  22277106.465                          44.500          29.100

 130231829.120 6 101479455.246 5                  24782291.211
  24782293.457    24782294.281                          40.400          32.900

 107405762.687 8  83692865.282 8                  20438642.773
  20438646.520    20438647.184                          49.900          49.100

 120303592.633 7  93743085.449 7  89837135.007 7  22892991.734
  22892997.207    22892997.859    22892998.328          43.100          42.900
        46.800
 19  3 26 19 33 30.0000000  0 11G16G08G30G09G18G11G23G28G05G07G27
 134215723.169 5 104583713.69142                  25540404.109
                  25540410.664                          35.100          14.800

 111293936.509 7  86722490.838 7  83109070.463 8  21178505.211
  21178512.379    21178512.328    21178512.109          47.700          47.900
        52.800
 111969411.672 7  87248915.672 7  83613547.489 8  21307067.891
  21307075.242    21307075.254    21307075.340          47.700          47.600
        51.800
 112294304.333 7  87502072.159 8  83856153.554 8  21368897.109
  21368903.949    21368904.434    21368905.508          46.400          48.500
        51.700
 130993081.107 5 102072627.14752                  24927169.797
                  24927177.914                          34.600          15.600

 124943639.372 6  97358692.06143                  23775977.961
                  23775981.633                          40.700          22.800

 123893410.877 7  96540341.45944                  23576139.188
                  23576144.387                          42.900          24.900

 117004540.139 7  91172396.68044                  22265213.688
                  22265219.059                          43.900          29.700

 130261319.626 7 101502434.750 5                  24787905.508
  24787904.977    24787905.984                          42.400          30.500

 107394489.099 8  83684080.667 8                  20436497.289
  20436501.551    20436501.875                          49.500          48.900

 120383539.104 7  93805381.370 7  89896835.264 7  22908204.219
  22908211.059    22908211.793    22908211.609          43.400          43.400
        46.400
 19  3 26 19 34  0.0000000  0 11G16G08G30G09G18G11G23G28G05G07G27
 134318931.996 5 104664136.19942                  25560043.430
                  25560050.828                          35.900          15.600

 111316431.185 7  86740019.155 7  83125868.433 8  21182784.641
  21182793.031    21182792.914    21182792.750          47.900          47.900
        52.500
 111910423.831 7  87202951.120 7  83569498.129 8  21295842.188
  21295850.125    21295850.148    21295850.262          47.000          47.000
        51.900
 112374900.082 7  87564874.018 7  83916338.677 8  21384233.219
  21384240.953    21384241.582    21384242.078          46.400          47.900
        51.300
 130905807.035 6 102004621.28342                  24910563.297
                  24910570.551                          36.000          14.800

 124853252.190 6  97288260.51343                  23758777.055
                  23758782.141                          41.000          23.300

 124003855.980 7  96626402.50144                  23597157.031
                  23597161.277                          42.000          26.700

 116942347.266 7  91123934.75244                  22253377.867
                  22253384.223                          43.900          28.900

 130291254.639 6 101525760.718 4                  24793597.055
  24793601.215    24793603.621                          38.100          28.800

 107383525.947 8  83675537.955 8                  20434410.750
  20434415.188    20434415.844                          50.300          48.700

 120463914.485 7  93868011.528 7  89956855.822 7  22923499.414
  22923506.684    22923507.531    22923506.477          43.200          44.100
        46.700
 19  3 26 19 34 30.0000000  0 11G16G08G30G09G18G11G23G28G05G07G27
 134422059.811 5                                  25579667.336
                                                        32.600

 111339528.342 8  86758016.939 7  83143116.308 8  21187180.750
  21187188.070    21187187.891    21187187.652          48.000          47.800
        52.100
 111851639.425 8  87157145.101 7  83525600.686 8  21284655.703
  21284663.676    21284664.051    21284664.270          48.200          47.500
        52.700
 112455900.791 7  87627991.419 7  83976826.184 8  21399646.805
  21399654.828    21399655.434    21399655.664          46.000          47.200
        51.400
 130818597.126 6 101936665.63742                  24893967.422
                  24893975.492                          36.900          15.600

 124763016.688 6  97217947.19144                  23741605.547
                  23741611.805                          41.200          25.600

 124114452.607 6  96712581.61244                  23618203.555
                  23618207.285                          41.900          25.100

 116880432.877 7  91075689.83744                  22241596.797
                  22241602.363                          44.000          29.600

 130321633.877 6 101549432.731 4                  24799380.617
  24799381.352    24799384.227                          40.900          29.600

 107372874.818 8  83667238.378 8                  20432384.109
  20432388.688    20432388.805                          50.200          49.100

 120544716.908 7  93930974.421 7  90017195.278 7  22938875.039
  22938883.000    22938883.512    22938882.027          43.400          43.500
        46.100
 19  3 26 19 35  0.0000000  0 11G16G08G30G09G18G11G23G28G05G07G27
 134525105.864 5                                  25599277.188
                                                        35.800

 111363226.518 8  86776483.055 7  83160812.993 8  21191689.750
  21191697.398    21191697.574    21191697.000          48.400          47.600
        52.200
 111793059.692 7  87111498.546 7  83481856.088 8  21273508.648
  21273516.230    21273516.547    21273517.230          47.000          47.600
        52.700
 112537303.934 7  87691422.431 8  84037614.226 8  21415137.742
  21415145.625    21415146.070    21415145.902          46.500          48.200
        50.900
 130731454.176 6 101868762.11042                  24877383.875
                  24877392.219                          38.400          17.400

 124672935.510 7  97147754.11144                  23724462.875
                  23724471.082                          42.200          24.100

 124225197.907 6  96798876.56343                  23639277.258
                  23639281.438                          41.500          23.800

 116818796.744 7  91027661.71844                  22229867.492
                  22229873.063                          44.200          29.200

 130352454.792 6 101573449.046 5                  24805242.117
  24805247.035    24805249.234                          39.500          30.500

 107362536.518 8  83659182.552 8                  20430416.797
  20430421.047    20430421.691                          50.800          48.800

 120625943.514 7  93994267.874 7  90077851.496 7  22954332.781
  22954339.324    22954339.652    22954339.293          44.100          42.300
        46.500
 19  3 26 19 35 30.0000000  0 11G16G08G30G09G18G11G23G28G05G07G27
 134628069.123 5                                  25618869.148
                                                        30.800

 111387524.778 7  86795416.758 7  83178957.808 8  21196313.828
  21196321.438    21196321.430    21196320.867          47.900          47.100
        52.100
 111734686.003 7  87066012.587 7  83438265.375 8  21262400.766
  21262407.801    21262408.234    21262408.879          47.800          47.300
        52.800
 112619107.291 7  87755165.289 7  84098701.113 8  21430704.188
  21430712.504    21430712.832    21430712.480          45.100          47.900
        50.800
 130644381.677 6 101800913.48242                  24860814.211
                  24860821.883                          38.500          16.300

 124583012.135 6  97077683.97944                  23707350.938
                  23707359.703                          41.600          26.700

 124336089.231 6  96885285.31843                  23660378.438
                  23660383.621                          41.300          23.500

 116757439.098 7  90979850.62145                  22218192.375
                  22218197.125                          45.400          30.700

 130383715.875 6 101597808.291 5                  24811190.906
  24811199.559    24811199.488                          38.600          34.900

 107352512.706 8  83651371.781 8                  20428509.195
  20428513.516    20428514.207                          49.900          49.300

 120707591.618 7  94057889.715 6  90138822.449 7  22969869.922
  22969875.609    22969875.691    22969876.906          44.700          40.500
        46.500
 19  3 26 19 36  0.0000000  0 11G16G08G30G09G18G11G23G28G05G07G27
 134730950.051 5                                  25638449.039
                                                        34.700

 111412422.753 7  86814817.774 8  83197550.443 8  21201051.711
  21201059.520    21201059.559    21201058.754          47.900          48.000
        52.000
 111676520.456 7  87020688.777 7  83394830.070 8  21251331.563
  21251339.492    21251339.813    21251340.301          47.800          47.100
        52.800
 112701309.168 7  87819218.673 8  84160085.593 8  21446348.250
  21446355.094    21446355.570    21446355.305          46.200          48.400
        51.100
 130557383.564 6 101733122.77942                  24844259.836
                  24844266.441                          37.600          16.300

 124493250.239 7  97007739.67544                  23690270.344
                  23690279.051                          42.100          26.800

 124447124.951 6  96971806.55843                  23681507.711
                  23681512.902                          39.900          22.800

 116696360.689 7  90932257.07045                  22206567.773
                  22206574.195                          44.500          30.000

 130415415.448 7 101622509.195 5                  24817224.547
  24817229.781    24817231.004                          42.000          33.300

 107342804.887 8  83643807.254 8                  20426661.258
  20426666.508    20426666.996                          49.900          49.100

 120789659.145 7  94121838.444 6  90200106.616 7  22985486.672
  22985492.285    22985492.641    22985494.141          43.200          40.900
        47.000
 19  3 26 19 36 30.0000000  0 11G16G08G30G09G18G11G23G28G05G07G27
 134833745.668 5                                  25658012.367
                                                        34.000

 111437917.872 7  86834684.102 7  83216589.011 8  21205903.977
  21205911.059    21205911.012    21205910.402          47.300          47.800
        52.200
 111618563.066 7  86975527.204 7  83351550.220 8  21240302.586
  21240310.484    21240310.898    21240311.094          46.400          47.500
        52.600
 112783905.911 7  87883579.727 8  84221764.951 8  21462064.883
  21462073.039    21462073.070    21462072.953          45.800          48.600
        50.900
 130470461.711 6 101665391.46642                  24827716.930
                  24827725.977                          36.800          15.600

 124403651.687 7  96937922.65344                  23673220.844
                  23673228.141                          43.800          26.400

 124558301.089 6  97058437.17543                  23702663.125
                  23702668.957                          38.400          21.300

 116635560.433 7  90884880.28944                  22194997.906
                  22195003.559                          43.700          28.800

 130447550.968 6 101647549.773 6                  24823337.758
  24823348.203    24823347.945                          38.900          36.500

 107333412.946 8  83636488.872 8                  20424874.414
  20424879.637    20424879.922                          50.300          49.500

 120872142.102 7  94186110.843 6  90261700.986 7  23001181.750
  23001188.660    23001188.855    23001189.840          42.600          40.500
        46.700
 19  3 26 19 37  0.0000000  0 11G16G08G30G09G18G11G23G28G05G07G27
 134936455.144 5                                  25677555.023
                                                        35.900

 111464009.425 8  86855015.181 7  83236072.965 8  21210868.164
  21210876.074    21210875.953    21210875.613          48.700          47.500
        52.000
 111560815.545 7  86930529.146 7  83308427.084 8  21229314.188
  21229321.559    21229321.820    21229322.047          47.700          47.700
        52.700
 112866895.481 7  87948246.886 7  84283737.643 8  21477857.344
  21477864.531    21477865.063    21477865.508          46.000          47.200
        50.400
 130383619.741 6 101597722.43542                  24811192.813
                  24811200.738                          36.700          17.400

 124314219.736 7  96868235.47244                  23656202.070
                  23656208.645                          42.900          26.200

 124669615.355 6  97145175.46243                  23723846.781
                  23723851.297                          40.100          21.700

 116575038.610 7  90837720.47345                  22183481.703
                  22183486.906                          44.900          30.200

 130480120.436 6 101672928.565 5                  24829538.055
  24829543.637    24829544.664                          37.600          33.700

 107324338.468 8  83629417.849 8                  20423148.031
  20423152.238    20423153.117                          50.600          48.900

 120955037.938 7  94250704.992 6  90323603.700 7  23016956.867
  23016962.938    23016963.777    23016963.855          43.500          41.400
        46.500
 19  3 26 19 37 30.0000000  0 12G16G08G30G13G09G18G11G23G28G05G07G27
 135039077.307 5                                  25697081.680
                                                        32.900

 111490696.242 7  86875810.107 8  83256001.433 8  21215946.734
  21215954.438    21215954.465    21215954.195          47.500          48.200
        52.200
 111503278.818 8  86885695.355 7  83265461.363 8  21218366.086
  21218372.777    21218372.629    21218373.172          48.900          47.400
        52.500
 132746164.48415                                  25260754.805
                                                        33.200

 112950275.028 7  88013217.952 7  84346001.584 8  21493723.109
  21493731.281    21493731.328    21493732.313          45.100          47.200
        50.600
 130296860.368 6 101530117.85143                  24794684.102
                  24794691.414                          36.900          18.600

 124224957.101 6  96798680.22244                  23639215.508
                  23639221.832                          41.900          25.100

 124781064.435 6  97232018.81043                  23745053.094
                  23745059.223                          39.500          21.500

 116514794.791 7  90790777.28344                  22172018.938
                  22172023.191                          45.200          29.700

 130513121.650 6 101698643.754 5                  24835818.031
  24835823.590    24835823.969                          38.000          34.100

 107315581.934 8  83622594.582 8                  20421481.281
  20421485.863    20421486.293                          50.200          49.400

 121038343.565 7  94315618.439 7  90385812.417 7  23032809.203
  23032816.512    23032816.969    23032815.957          43.300          42.300
        46.200
 19  3 26 19 38  0.0000000  0 12G16G08G30G13G09G18G11G23G28G05G07G27
 135141611.571 6                                  25716594.258
                                                        36.800

 111517976.523 7  86897067.474 8  83276373.061 8  21221138.344
  21221146.453    21221145.949    21221145.422          47.600          48.600
        52.500
 111445954.255 8  86841026.884 7  83222654.079 8  21207456.898
  21207463.895    21207463.961    21207464.883          48.300          47.200
        52.600
 132638839.899 5                                  25240327.875
                                                        35.900

 113034042.202 7  88078491.055 7  84408554.972 8  21509664.258
  21509671.688    21509671.949    21509672.715          45.600          47.200
        50.700
 130210186.841 6 101462580.07242                  24778192.406
                  24778198.152                          38.700          17.400

 124135867.080 6  96729259.45044                  23622263.414
                  23622267.551                          41.900          26.300

 124892646.010 6  97318965.40343                  23766287.195
                  23766292.789                          40.800          22.200

 116454828.794 7  90744050.58444                  22160606.609
                  22160611.918                          43.900          29.300

 130546552.142 6 101724693.511 6                  24842179.813
  24842185.840    24842186.758                          40.400          37.100

 107307144.739 8  83616020.134 8                  20419875.609
  20419880.102    20419880.848                          49.900          48.600

 121122056.172 7  94380849.019 7  90448325.069 7  23048739.188
  23048747.227    23048747.320    23048746.324          43.000          42.400
        46.500
 19  3 26 19 38 30.0000000  0 12G16G08G30G13G09G18G11G23G28G05G07G27
 135244056.530 6                                  25736089.969
                                                        36.400

 111545848.948 7  86918786.244 8  83297186.893 8  21226441.773
  21226450.199    21226449.957    21226448.773          47.800          48.500
        51.900
 111388843.221 7  86796524.781 7  83180006.240 8  21196588.734
  21196595.719    21196596.113    21196597.129          47.000          46.900
        53.000
 132531640.789 6                                  25219927.477
                                                        37.100

 113118194.512 7  88144064.241 7  84471395.951 8  21525677.805
  21525685.180    21525685.770    21525686.211          45.600          47.900
        50.300
 130123602.540 6 101395111.89343                  24761712.945
                  24761721.066                          36.300          18.600

 124046952.536 6  96659975.43943                  23605343.680
                  23605347.180                          41.600          22.300

 125004357.544 6  97406013.28043                  23787544.461
                  23787550.449                          41.100          21.300

 116395141.058 7  90697540.69344                  22149247.164
                  22149253.805                          43.500          29.700

 130580410.419 6 101751076.516 6                  24848619.469
  24848629.949    24848629.512                          38.100          36.800

 107299027.982 8  83609695.394 8                  20418331.156
  20418335.520    20418336.254                          49.400          48.800

 121206172.943 7  94446394.533 7  90511139.497 7  23064745.820
  23064754.160    23064754.238    23064753.961          42.200          42.600
        47.000
 19  3 26 19 39  0.0000000  0 12G16G08G30G13G09G18G11G23G28G05G07G27
 135346413.013 6                                  25755568.047
                                                        37.100

 111574313.872 7  86940966.699 8  83318443.168 8  21231857.945
  21231866.789    21231866.355    21231865.109          47.000          48.600
        51.700
 111331948.228 8  86752191.033 7  83137519.726 8  21185762.594
  21185769.480    21185769.563    21185770.383          48.300          47.100
        53.100
 132424570.991 6                                  25199550.008
                                                        36.900

 113202730.739 7  88209936.598 7  84534523.622 8  21541765.023
  21541772.180    21541772.727    21541772.914          46.800          47.800
        50.300
 130037112.018 6 101327716.71042                  24745253.602
                  24745262.668                          37.100          16.300

 123958217.640 6  96590831.41843                  23588457.625
                  23588461.277                          41.300          23.000

 125116197.456 6  97493161.19743                  23808826.664
                  23808832.859                          39.100          21.700

 116335732.767 7  90651248.55745                  22137943.359
                  22137948.398                          45.800          30.500

 130614695.547 6 101777792.180 6                  24855144.891
  24855154.590    24855154.098                          37.300          36.600

 107291233.987 8  83603622.139 8                  20416848.320
  20416852.977    20416853.234                          50.200          49.300

 121290692.258 7  94512253.692 7  90574254.550 7  23080829.594
  23080837.008    23080837.816    23080838.004          42.700          42.700
        47.800
 19  3 26 19 39 30.0000000  0 12G16G08G30G13G09G18G11G23G28G05G07G27
 135448678.973 6 105544450.29342                  25775029.008
                  25775033.012                          37.500          14.800

 111603368.657 7  86963606.783 8  83340139.915 8  21237387.250
  21237395.352    21237395.266    21237394.484          47.600          48.400
        51.500
 111275269.528 7  86708025.816 7  83095194.737 8  21174976.688
  21174983.809    21174984.023    21174984.559          46.800          47.200
        53.100
 132317631.794 5                                  25179202.008
                                                        35.200

 113287647.277 7  88276105.314 7  84597935.298 8  21557923.758
  21557931.223    21557931.922    21557931.449          46.000          47.000
        50.200
 129950716.981 6 101260396.01043                  24728816.938
                  24728822.379                          37.300          19.300

 123869664.275 6  96521828.84643                  23571605.492
                  23571610.582                          41.100          22.800

 125228161.901 6  97580406.11543                  23830133.945
                  23830139.121                          41.100          22.300

 116276602.753 7  90605173.26545                  22126690.922
                  22126696.582                          44.400          31.000

 130649404.219 5 101804837.863 6                  24861749.313
  24861758.242    24861758.605                          33.700          36.600

 107283762.610 8  83597800.283 8                  20415427.016
  20415430.957    20415431.488                          49.000          49.000

 121375610.179 7  94578423.470 7  90637667.214 7  23096989.805
  23096996.207    23096997.039    23096997.520          43.000          42.400
        47.500
 19  3 26 19 40  0.0000000  0 12G16G08G30G13G09G18G11G23G28G05G07G27
 135550853.892 6 105624067.18742                  25794469.992
                  25794477.461                          36.200          16.300

 111633012.414 7  86986705.818 8  83362276.498 8  21243028.844
  21243036.410    21243036.492    21243035.734          47.100          48.400
        51.900
 111218808.856 7  86664030.494 7  83053032.572 8  21164231.969
  21164239.906    21164240.188    21164240.348          46.400          47.300
        53.200
 132210825.875 5                                  25158887.477
                                                        32.000

 113372942.059 7  88342568.763 7  84661629.432 8  21574155.219
  21574162.203    21574162.688    21574162.801          46.300          47.300
        50.700
 129864421.301 6 101193152.73842                  24712395.219
                  24712402.254                          38.000          17.800

 123781295.957 6  96452970.47143                  23554789.664
                  23554795.043                          41.100          22.800

 125340248.794 6  97667746.48243                  23851463.359
                  23851468.879                          40.700          22.300

 116217751.266 7  90559315.00345                  22115492.172
                  22115497.500                          44.500          30.400

 130684535.100 5 101832212.470 6                  24868434.563
  24868442.816    24868444.340                          31.600          36.200

 107276615.415 8  83592231.041 8                  20414066.453
  20414070.777    20414071.418                          48.500          48.800

 121460924.175 7  94644901.926 7  90701375.713 7  23113224.555
  23113230.828    23113231.633    23113231.961          43.200          42.000
        47.500
 19  3 26 19 40 30.0000000  0 12G16G08G30G13G09G18G11G23G28G05G07G27
 135652936.021 6 105703611.76142                  25813895.867
                  25813902.617                          36.100          15.600

 111663243.426 7  87010262.463 8  83384851.595 8  21248781.500
  21248789.332    21248789.406    21248788.324          46.800          48.600
        52.000
 111162567.105 7  86620205.766 7  83011033.874 8  21153529.906
  21153537.133    21153537.531    21153538.094          46.900          47.500
        53.400
 132104155.641 4                                  25138605.469
                                                        27.600

 113458612.119 7  88409324.649 7  84725603.806 8  21590457.523
  21590464.344    21590465.152    21590465.891          46.300          46.400
        50.500
 129778227.497 5 101125988.83542                  24695989.523
                  24696000.020                          34.800          17.800

 123693115.404 6  96384258.37044                  23538009.453
                  23538015.059                          40.900          25.300

 125452455.040 6  97755179.84243                  23872814.758
                  23872820.953                          39.400          21.800

 116159177.703 7  90513673.30544                  22104344.594
                  22104351.402                          44.100          29.300

 130720085.340 6 101859913.891 5                  24875202.461
  24875208.465    24875208.875                          38.500          34.600

 107269793.112 8  83586914.960 8                  20412767.641
  20412772.367    20412772.965                          48.600          48.800

 121546631.067 7  94711686.456 7  90765377.550 7  23129532.719
  23129540.633    23129541.074    23129541.234          42.400          42.000
        47.500
 19  3 26 19 41  0.0000000  0 12G16G08G30G13G09G18G11G23G28G05G07G27
 135754925.697 6 105783084.13442                  25833305.750
                  25833311.082                          37.500          14.800

 111694061.146 7  87034276.242 8  83407864.813 8  21254645.289
  21254653.809    21254653.664    21254652.461          46.600          48.900
        51.800
 111106546.733 7  86576553.556 7  82969200.495 8  21142869.531
  21142876.277    21142877.012    21142877.551          47.000          47.000
        53.200
 131997624.704 5                                  25118324.203
                                                        31.000

 113544656.033 7  88476371.831 7  84789857.335 8  21606831.688
  21606838.492    21606838.637    21606839.840          46.500          46.800
        50.600
 129692140.347 6 101058907.97543                  24679609.227
                  24679616.793                          37.200          19.600

 123605126.686 6  96315695.79244                  23521265.547
                  23521272.016                          41.100          25.300

 125564778.761 6  97842704.70043                  23894189.727
                  23894195.977                          39.600          21.300

 116100883.257 7  90468249.10845                  22093253.734
                  22093257.988                          45.800          31.300

 130756054.000 6 101887941.434 5                  24882044.508
  24882053.320    24882054.109                          38.900          35.900

 107263297.859 8  83581853.726 8                  20411531.938
  20411536.484    20411537.086                          49.600          49.500

 121632728.974 7  94778775.706 7  90829671.433 7  23145916.758
  23145925.184    23145924.918    23145925.043          42.800          43.300
        46.800
 19  3 26 19 41 30.0000000  0 12G16G08G30G13G09G18G11G23G28G05G07G27
 135856822.143 5 105862484.07142                  25852694.875
                  25852701.164                          35.900          13.900

 111725464.239 7  87058746.199 7  83431315.196 8  21260621.320
  21260629.594    21260629.266    21260628.641          46.200          47.900
        51.900
 111050748.844 7  86533074.696 7  82927533.266 8  21132251.391
  21132258.871    21132259.125    21132259.441          46.800          47.700
        52.700
 131891235.401 5                                  25098058.992
                                                        35.300

 113631071.063 7  88543708.188 7  84854388.014 8  21623275.273
  21623282.621    21623283.016    21623283.813          46.500          46.800
        50.700
 129606162.501 6 100991912.33043                  24663248.352
                  24663253.695                          37.200          19.000

 123517332.645 6  96247284.87843                  23504558.563
                  23504564.746                          40.600          22.900

 125677217.247 6  97930318.99143                  23915585.445
                  23915591.949                          38.300          19.300

 116042867.644 7  90423042.16645                  22082213.148
                  22082217.910                          45.800          30.900

 130792438.547 6 101916293.036 6                  24888968.898
  24888978.527    24888978.406                          38.900          37.800

 107257130.492 8  83577047.991 8                  20410358.547
  20410362.938    20410363.582                          48.200          49.100

 121719214.853 6  94846167.293 7  90894255.016 7  23162373.461
  23162382.680    23162382.781    23162382.500          41.700          42.500
        46.400
 19  3 26 19 42  0.0000000  0 12G16G08G30G13G09G18G11G23G28G05G07G27
 135958624.285 5 105941810.35142                  25872065.414
                  25872073.832                          35.600          16.300

 111757450.940 7  87083670.906 8  83455201.349 8  21266707.445
  21266716.504    21266716.328    21266715.977          45.900          48.600
        52.100
 110995174.635 7  86489770.117 7  82886033.049 8  21121676.352
  21121683.766    21121683.609    21121683.801          47.000          47.300
        52.600
 131784989.927 6                                  25077829.828
                                                        37.500

 113717854.511 7  88611331.621 7  84919193.803 8  21639789.063
  21639796.457    21639797.141    21639797.984          44.800          46.100
        50.700
 129520297.113 6 100925004.33343                  24646909.125
                  24646914.422                          37.900          19.900

 123429735.808 6  96179027.66343                  23487888.898
                  23487896.023                          39.600          23.300

 125789767.583 6  98018020.45243                  23937004.320
                  23937009.445                          38.400          18.600

 115985130.642 7  90378052.32844                  22071225.219
                  22071230.898                          43.600          29.800

 130829236.964 5 101944967.077 6                  24895968.781
  24895980.836    24895981.000                          33.700          38.300

 107251291.986 8  83572498.497 8                  20409246.984
  20409252.082    20409252.613                          48.500          49.100

 121806085.664 6  94913858.806 7  90959126.035 7  23178904.773
  23178913.590    23178913.852    23178913.328          41.100          43.800
        46.700
 19  3 26 19 42 30.0000000  0 12G16G08G30G13G09G18G11G23G28G05G07G27
 136060331.709 5 106021077.84252                  25891420.867
                  25891430.094                          35.800          15.600

 111790020.106 7  87109049.473 8  83479522.472 8  21272905.734
  21272914.441    21272914.359    21272913.473          47.500          48.400
        51.800
 110939825.724 7  86446641.126 7  82844701.089 8  21111143.625
  21111151.188    21111151.457    21111151.387          47.800          47.900
        52.800
 131678891.348 6                                  25057636.305
                                                        39.200

 113805004.093 7  88679240.367 7  84984272.999 8  21656373.063
  21656380.855    21656381.215    21656382.176          45.700          46.600
        50.700
 129434547.838 6 100858186.77143                  24630589.430
                  24630598.805                          38.400          18.600

 123342339.984 6  96110927.07443                  23471259.281
                  23471264.293                          40.800          22.900

 125902427.585 6  98105807.39243                  23958443.617
                  23958447.988                          40.100          20.600

 115927672.443 7  90333279.74345                  22060291.289
                  22060297.051                          46.300          30.200

 130866447.216 5 101973961.999 5                  24903050.172
  24903059.777    24903061.625                          35.200          34.700

 107245783.421 8  83568206.119 8                  20408199.039
  20408203.711    20408204.301                          48.300          48.800

 121893338.807 6  94981848.205 7  91024282.573 7  23195508.672
  23195516.512    23195517.422    23195517.098          41.100          42.500
        46.500
 19  3 26 19 43  0.0000000  0 12G16G08G30G13G09G18G11G23G28G05G07G27
 136161937.112 6 106100250.84642                  25910755.492
                  25910763.113                          37.500          16.900

 111823164.035 8  87134875.898 8  83504272.802 8  21279213.664
  21279221.223    21279221.434    21279220.008          48.000          48.500
        51.600
 110884697.347 8  86403683.943 7  82803533.808 8  21100652.609
  21100660.465    21100660.609    21100660.711          48.000          47.800
        52.900
 131572935.849 6                                  25037440.484
                                                        38.200

 113892511.146 7  88747427.648 7  85049619.144 8  21673024.836
  21673032.969    21673033.648    21673034.402          44.600          45.900
        50.700
 129348911.522 6 100791457.22443                  24614293.547
                  24614303.938                          39.500          19.300

 123255141.683 7  96042980.40043                  23454666.641
                  23454671.043                          42.600          23.900

 126015188.458 6  98193672.88743                  23979902.008
                  23979905.766                          40.800          20.400

 115870486.668 7  90288719.43245                  22049408.523
                  22049415.121                          44.200          30.400

 130904061.188 6 102003271.577 5                  24910209.984
  24910218.020    24910217.883                          37.900          34.800

 107240599.867 8  83564166.975 8                  20407212.727
  20407217.219    20407217.801                          49.500          49.000

 121980965.189 6  95050128.500 7  91089717.850 7  23212183.047
  23212191.711    23212192.168    23212191.941          40.700          43.100
        46.000
 19  3 26 19 43 30.0000000  0 12G16G08G30G13G09G18G11G23G28G05G07G27
 136263452.111 5                                  25930076.641
                                                        34.000

 111856893.491 7  87161158.594 8  83529460.386 8  21285631.750
  21285639.500    21285639.703    21285638.723          47.000          48.000
        51.500
 110829803.248 7  86360909.333 7  82762541.464 8  21090206.922
  21090214.379    21090214.523    21090214.797          47.900          47.200
        52.800
 131467138.320 5                                  25017297.406
                                                        35.100

 113980385.432 7  88815901.089 7  85115239.520 8  21689747.266
  21689754.996    21689755.695    21689756.512          45.700          46.700
        51.000
 129263403.785 6 100724827.79843                  24598023.445
                  24598031.262                          38.700          19.000

 123168156.499 7  95975199.79644                  23438113.602
                  23438118.414                          42.100          26.100

 126128059.727 6  98281624.43143                  24001382.039
                  24001384.660                          41.400          21.800

 115813585.745 7  90244381.09145                  22038581.000
                  22038587.363                          45.300          31.000

 130942088.696 6 102032903.331 5                  24917448.352
  24917453.898    24917453.820                          40.200          34.100

 107235755.126 8  83560391.850 8                  20406290.766
  20406295.559    20406296.117                          49.400          49.400

 122068974.344 6  95118707.028 7  91155438.931 7  23228931.391
  23228939.664    23228939.941    23228940.016          41.600          43.000
        46.700
 19  3 26 19 44  0.0000000  0 12G16G08G30G13G09G18G11G23G28G05G07G27
 136364867.18815                                  25949372.492
                                                        33.700

 111891198.119 7  87187889.484 8  83555077.486 8  21292159.070
  21292167.676    21292167.848    21292167.168          47.500          48.500
        51.800
 110775135.686 8  86318311.241 7  82721718.304 8  21079804.148
  21079811.375    21079811.855    21079811.949          48.000          47.600
        53.000
 131361492.494 4                                  24997183.164
                                                        28.600

 114068615.344 7  88884651.626 7  85181125.435 8  21706537.398
  21706545.156    21706545.238    21706546.098          45.400          46.800
        50.100
 129178019.074 6 100658294.33442                  24581777.883
                  24581780.316                          40.700          17.800

 123081378.337 6  95907580.49544                  23421599.969
                  23421604.871                          41.700          25.400

 126241029.616 7  98369652.79643                  24022880.188
                  24022882.332                          42.600          21.800

 115756960.414 7  90200257.48245                  22027806.266
                  22027812.375                          45.300          31.400

 130980518.937 6 102062848.989 5                  24924758.727
  24924765.398    24924766.543                          39.900          32.600

 107231240.725 8  83556874.141 8                  20405431.609
  20405436.699    20405437.098                          49.600          49.400

 122157354.306 6  95187574.487 7  91221436.896 7  23245749.508
  23245757.625    23245758.398    23245758.242          41.600          42.900
        47.000
 19  3 26 19 44 30.0000000  0 12G16G08G30G13G09G18G11G23G28G05G07G27
 136466184.143 6                                  25968651.766
                                                        36.500

 111926078.141 7  87215068.721 8  83581124.247 8  21298796.805
  21298805.168    21298805.262    21298804.520          47.700          48.900
        52.200
 110720697.865 7  86275892.156 7  82681066.682 8  21069444.234
  21069452.359    21069452.602    21069452.754          47.200          47.800
        53.000
 131255592.461 5                                  24977119.516
                                                        32.800

 114157200.022 7  88953678.628 7  85247276.309 8  21723394.195
  21723402.086    21723402.531    21723403.117          45.700          46.500
        50.500
 129092762.325 6 100591860.54943                  24565550.055
                  24565555.523                          39.400          19.000

 122994812.084 6  95840126.33944                  23405124.828
                  23405131.723                          40.700          26.200

 126354097.410 7  98457757.48743                  24044396.820
                  24044398.504                          43.300          22.000

 115700612.400 7  90156349.97645                  22017083.156
                  22017089.371                          44.600          32.100

 131019350.962 6 102093107.644 5                  24932149.320
  24932156.105    24932156.457                          38.700          33.100

 107227059.550 8  83553616.077 8                  20404636.102
  20404640.820    20404641.340                          49.800          49.000

 122246103.911 6  95256730.004 7  91287710.921 7  23262638.313
  23262646.465    23262646.883    23262646.992          40.900          43.000
        46.400
 19  3 26 19 45  0.0000000  0 12G16G08G30G13G09G18G11G23G28G05G07G27
 136567404.63615                                  25987913.461
                                                        34.000

 111961534.171 7  87242696.777 8  83607601.141 8  21305543.914
  21305552.082    21305552.098    21305550.973          47.600          48.100
        51.500
 110666493.047 7  86233654.654 7  82640589.077 8  21059129.977
  21059137.695    21059137.816    21059137.715          47.700          47.500
        52.500
 131150262.460 6                                  24957085.344
                                                        36.300

 114246138.845 7  89022981.586 7  85313691.640 8  21740318.773
  21740326.184    21740326.895    21740327.453          45.800          46.400
        50.300
 129007638.707 6 100525530.41442                  24549349.352
                  24549357.648                          37.600          16.900

 122908462.498 6  95772841.00444                  23388694.336
                  23388700.277                          40.900          25.500

 126467262.337 7  98545937.83144                  24065931.984
                  24065932.922                          43.600          24.000

 115644543.312 7  90112659.81745                  22006413.016
                  22006419.473                          45.400          31.200

 131058584.764 6 102123679.471 6                  24939614.844
  24939625.059    24939623.422                          39.100          37.700

 107223214.519 8  83550619.948 8                  20403904.383
  20403909.027    20403909.508                          50.200          49.300

 122335222.108 7  95326172.717 7  91354260.185 7  23279597.422
  23279605.039    23279605.352    23279605.258          42.500          42.300
        46.000
 19  3 26 19 45 30.0000000  0 12G16G08G30G13G09G18G11G23G28G05G07G27
 136668515.583 4 106494974.33542                  26007156.211
                  26007161.277                          29.400          12.600

 111997553.225 8  87270763.582 8  83634498.492 8  21312398.414
  21312406.414    21312406.141    21312405.387          48.100          48.400
        51.400
 110612511.965 8  86191591.479 8  82600278.529 8  21048857.797
  21048865.332    21048865.734    21048865.500          48.100          48.600
        52.500
 131045084.415 6                                  24937085.883
                                                        37.800

 114335418.530 7  89092550.148 7  85380361.509 8  21757308.336
  21757315.031    21757315.988    21757316.836          46.000          46.200
        50.800
 128922640.842 6 100459298.30242                  24533178.453
                  24533183.793                          38.800          17.400

 122822322.188 6  95705718.74544                  23372302.258
                  23372308.395                          41.700          26.200

 126580511.096 7  98634183.53543                  24087481.758
                  24087483.945                          43.800          22.500

 115588742.562 7  90069178.74945                  21995795.141
                  21995800.938                          44.300          32.400

 131098207.379 6 102154554.146 6                  24947154.031
  24947166.109    24947164.379                          37.900          37.500

 107219696.083 8  83547878.300 8                  20403234.953
  20403239.262    20403239.941                          48.900          49.600

 122424695.509 7  95395892.228 6  91421074.705 7  23296624.195
  23296631.078    23296631.586    23296631.215          42.700          41.700
        45.800
 19  3 26 19 46  0.0000000  0 11G08G30G13G09G18G11G23G28G05G07G27
 112034157.988 7  87299286.784 8  83661833.220 8  21319364.305
  21319372.340    21319372.152    21319371.410          46.800          48.800
        51.500
 110558779.786 8  86149722.271 8  82560153.871 8  21038632.469
  21038640.332    21038640.840    21038640.785          48.900          48.400
        53.200
 130940084.943 6                                  24917114.664
                                                        38.300

 114425060.272 7  89162400.796 7  85447301.732 8  21774366.625
  21774373.281    21774374.121    21774375.281          45.000          45.700
        50.400
 128837795.538 6 100393185.16842                  24517033.945
                  24517039.133                          40.000          17.800

 122736418.057 7  95638780.51944                  23355955.773
                  23355961.418                          42.200          26.800

 126693864.570 7  98722510.78743                  24109052.383
                  24109054.250                          43.400          21.700

 115533233.998 7  90025925.35945                  21985232.141
                  21985238.117                          44.700          31.500

 131138240.469 6 102185748.726 6                  24954774.055
  24954783.645    24954782.730                          40.300          38.100

 107216529.148 8  83545410.551 8                  20402631.852
  20402636.730    20402637.434                          50.400          49.400

 122514544.900 7  95465904.723 6  91488170.015 7  23313721.320
  23313728.887    23313728.660    23313728.766          43.200          41.800
        46.000
 19  3 26 19 46 30.0000000  0 11G08G30G13G09G18G11G23G28G05G07G27
 112071330.874 7  87328252.646 8  83689592.194 8  21326436.570
  21326446.293    21326446.230    21326445.133          47.000          48.600
        51.800
 110505282.168 8  86108035.823 8  82520204.356 8  21028452.695
  21028460.309    21028460.281    21028460.559          48.500          48.000
        53.200
 130835250.907 5                                  24897177.563
                                                        35.900

 114515045.706 7  89232519.297 7  85514498.601 8  21791489.734
  21791497.379    21791497.953    21791498.762          45.400          46.000
        50.200
 128753090.417 6 100327181.22243                  24500913.898
                  24500920.191                          38.800          18.600

 122650736.759 7  95572015.92844                  23339651.516
                  23339656.754                          42.500          27.700

 126807304.527 7  98810905.47643                  24130639.344
                  24130641.590                          43.200          22.200

 115478001.418 7  89982887.02045                  21974721.734
                  21974727.633                          46.000          31.600

 131178665.813 6 102217248.877 5                  24962465.719
  24962474.789    24962475.582                          41.400          35.400

 107213699.104 8  83543205.339 8                  20402093.570
  20402098.031    20402098.871                          49.600          48.600

 122604751.616 6  95536195.645 6  91555532.136 7  23330887.320
  23330894.699    23330894.500    23330894.746          41.900          41.700
        45.800
 19  3 26 19 47  0.0000000  0 11G08G30G13G09G18G11G23G28G05G07G27
 112109071.428 7  87357660.866 8  83717775.068 8  21333619.984
  21333627.324    21333627.574    21333626.672          47.300          48.500
        51.800
 110452021.564 8  86066534.072 8  82480431.839 8  21018318.258
  21018324.457    21018325.074    21018325.316          49.100          48.500
        53.000
 130730585.813 5                                  24877211.117
                                                        32.000

 114605373.271 7  89302904.369 7  85581950.972 8  21808679.242
  21808686.801    21808687.027    21808687.250          45.700          46.400
        49.800
 128668530.048 6 100261290.08442                  24484820.523
                  24484828.270                          37.900          17.400

 122565282.937 7  95505428.58044                  23323389.633
                  23323395.734                          43.100          27.800

 126920829.606 7  98899366.44043                  24152241.648
                  24152244.633                          42.200          20.900

 115423045.789 7  89940064.47245                  21964264.492
                  21964270.219                          46.400          32.300

 131219482.276 6 102249053.912 5                  24970232.117
  24970239.605    24970241.230                          39.600          33.900

 107211208.060 8  83541264.265 8                  20401619.688
  20401623.777    20401624.586                          50.300          48.800

 122695313.832 6  95606763.557 6  91623159.699 7  23348120.422
  23348128.086    23348127.988    23348128.328          41.400          40.900
        45.600
 19  3 26 19 47 30.0000000  0 11G08G30G13G09G18G11G23G28G05G07G27
 112147381.863 7  87387513.170 8  83746383.525 8  21340909.180
  21340917.699    21340917.914    21340917.250          46.500          48.500
        52.000
 110399003.463 8  86025221.259 8  82440840.406 8  21008228.695
  21008235.641    21008236.148    21008236.188          48.300          48.000
        52.800
 130626096.36414                                  24857321.789
                                                        29.400

 114696044.410 7  89373557.196 7  85649659.931 8  21825933.234
  21825941.047    21825941.188    21825941.418          45.500          46.000
        49.600
 128584121.623 6 100195517.31543                  24468759.164
                  24468766.563                          38.100          18.300

 122480063.462 7  95439023.84344                  23307173.852
                  23307178.738                          42.500          28.200

 127034441.150 6  98987894.78043                  24173860.531
                  24173864.477                          40.700          19.900

 115368370.903 7  89897460.69145                  21953860.211
                  21953865.602                          46.200          33.300

 131260691.296 6 102281164.747 5                  24978074.688
  24978083.332    24978082.949                          40.900          35.300

 107209061.078 8  83539591.284 8                  20401210.977
  20401215.664    20401216.188                          49.400          48.800

 122786232.610 7  95677609.337 6  91691053.581 7  23365421.359
  23365428.852    23365428.984    23365429.484          42.400          41.100
        44.900
 19  3 26 19 48  0.0000000  0 11G08G30G13G09G18G11G23G28G05G07G27
 112186256.049 7  87417804.735 8  83775412.930 8  21348307.180
  21348315.531    21348315.492    21348315.129          46.200          48.900
        52.000
 110346224.333 7  85984094.671 8  82401427.427 8  20998184.617
  20998192.785    20998192.762    20998192.723          46.700          48.300
        53.000
 130521780.281 5                                  24837476.680
                                                        33.600

 114787051.589 7  89444471.858 7  85717619.804 8  21843252.672
  21843258.691    21843259.273    21843259.918          45.500          46.200
        49.900
 128499863.413 6 100129861.63843                  24452728.438
                  24452732.926                          40.000          19.300

 122395076.716 7  95372800.45144                  23291000.445
                  23291006.227                          43.400          28.100

 127148131.442 6  99076484.49643                  24195495.766
                  24195499.422                          39.300          20.400

 115313971.630 7  89855071.69145                  21943507.586
                  21943513.680                          44.900          31.600

 131302285.970 7 102313576.094 6                  24985990.820
  24985998.863    24985998.496                          43.000          36.000

 107207254.141 8  83538183.287 8                  20400866.875
  20400871.770    20400872.398                          48.400          48.900

 122877500.195 7  95748726.909 6  91759207.932 7  23382789.695
  23382796.137    23382796.844    23382797.363          42.600          40.800
        45.700
 19  3 26 19 48 30.0000000  0 11G08G30G13G09G18G11G23G28G05G07G27
 112225690.911 7  87448533.202 8  83804861.041 8  21355811.258
  21355819.461    21355819.602    21355818.867          47.700          48.100
        52.000
 110293684.603 8  85943154.640 8  82362193.237 8  20988186.516
  20988194.457    20988194.797    20988194.742          48.000          48.400
        53.000
 130417639.095 5                                  24817662.109
                                                        34.600

 114878391.173 7  89515645.524 7  85785827.903 8  21860632.563
  21860640.055    21860640.949    21860641.625          44.600          46.500
        50.300
 128415757.813 6 100064324.86643                  24436721.352
                  24436727.977                          37.700          18.300

 122310324.735 7  95306760.00444                  23274873.461
                  23274878.168                          43.000          27.900

 127261896.679 6  99165132.55443                  24217146.648
                  24217148.219                          40.200          18.600

 115259847.213 7  89812896.86545                  21933209.445
                  21933214.102                          46.400          32.500

 131344263.234 6 102346285.649 5                  24993978.328
  24993985.180    24993986.418                          41.400          32.800

 107205787.313 8  83537040.300 8                  20400588.477
  20400592.758    20400593.215                          49.500          48.900

 122969112.668 7  95820113.228 6  91827619.813 7  23400223.883
  23400229.594    23400230.105    23400230.313          43.100          40.600
        45.500
 19  3 26 19 49  0.0000000  0 11G08G30G13G09G18G11G23G28G05G07G27
 112265686.854 7  87479698.863 7  83834728.141 8  21363422.203
  21363430.395    21363430.359    21363428.969          47.500          47.700
        51.500
 110241387.829 8  85902403.920 7  82323140.452 8  20978235.469
  20978242.418    20978243.066    20978242.816          48.000          47.900
        52.800
 130313677.341 5                                  24797879.352
                                                        34.800

 114970062.617 7  89587077.795 7  85854283.811 8  21878077.055
  21878085.480    21878085.652    21878086.184          44.500          46.600
        50.200
 128331810.389 5  99998911.36742                  24420743.492
                  24420752.984                          35.300          17.400

 122225812.095 7  95240906.03644                  23258789.680
                  23258795.641                          42.000          26.400

 127375736.575 6  99253838.81143                  24238806.867
                  24238811.680                          39.500          19.900

 115205999.163 7  89770937.37245                  21922961.898
                  21922967.441                          45.700          31.900

 131386622.529 6 102379292.881 5                  25002038.414
  25002046.582    25002046.406                          40.000          35.000

 107204664.035 8  83536165.018 8                  20400374.391
  20400378.793    20400379.465                          49.900          48.600

 123061069.184 7  95891767.650 6  91896288.608 7  23417721.727
  23417728.992    23417729.379    23417728.938          43.200          41.300
        45.000
 19  3 26 19 49 30.0000000  0 11G08G30G13G09G18G11G23G28G05G07G27
 112306243.048 7  87511301.087 7  83865013.618 8  21371139.898
  21371147.953    21371147.785    21371146.980          47.300          47.800
        51.700
 110189336.252 7  85861844.259 7  82284270.772 8  20968329.906
  20968337.270    20968337.922    20968337.680          47.000          47.900
        53.000
 130209899.063 5                                  24778130.250
                                                        34.100

 115062064.131 7  89658767.241 7  85922986.186 8  21895584.063
  21895592.797    21895592.746    21895593.539          44.500          46.300
        49.900
 128248024.911 6  99933624.00742                  24404801.578
                  24404809.098                          36.000          17.400

 122141543.220 7  95175242.01244                  23242754.508
                  23242759.473                          43.000          26.600

 127489649.132 6  99342601.69043                  24260484.516
                  24260489.063                          40.700          19.000

 115152428.249 7  89729193.84245                  21912766.898
                  21912772.773                          44.300          32.600

 131429362.303 6 102412596.584 5                  25010171.469
  25010179.102    25010180.137                          40.400          34.400

 107203885.728 8  83535558.544 8                  20400226.383
  20400230.961    20400231.617                          50.800          49.200

 123153367.729 7  95963688.548 6  91965212.801 7  23435286.789
  23435293.391    23435293.543    23435292.492          43.000          41.500
        44.700
 19  3 26 19 50  0.0000000  0 11G08G30G13G09G18G11G23G28G05G07G27
 112347358.452 7  87543339.060 8  83895716.682 8  21378963.922
  21378972.223    21378972.094    21378971.664          47.900          48.100
        52.000
 110137531.983 7  85821477.296 8  82245585.783 8  20958472.039
  20958479.676    20958479.617    20958479.777          47.800          48.400
        53.000
 130106307.273 5                                  24758414.094
                                                        32.000

 115154393.680 7  89730712.301 7  85991933.534 8  21913154.297
  21913162.043    21913162.066    21913163.375          44.700          45.800
        49.800
 128164405.656 6  99868466.26943                  24388891.055
                  24388897.402                          38.300          19.300

 122057521.777 7  95109770.81544                  23226765.922
                  23226770.852                          42.400          27.800

 127603632.391 6  99431419.67243                  24282173.977
                  24282179.402                          40.600          20.100

 115099135.287 7  89687666.88345                  21902626.047
                  21902631.379                          45.800          31.800

 131472481.059 6 102446195.462 5                  25018376.883
  25018384.438    25018385.117                          36.300          34.100

 107203454.275 8  83535222.350 8                  20400144.281
  20400148.949    20400149.527                          50.700          48.900

 123246005.968 7  96035874.190 6  92034390.688 7  23452914.586
  23452921.781    23452922.227    23452920.875          42.000          41.800
        44.500
 19  3 26 19 50 30.0000000  0 11G08G30G13G09G18G11G23G28G05G07G27
 112389031.624 8  87575811.666 7  83926836.233 8  21386894.102
  21386902.574    21386902.512    21386901.820          50.500          47.800
        52.000
 110085976.836 7  85781304.456 8  82207086.810 8  20948661.602
  20948668.734    20948669.109    20948669.281          47.200          48.800
        53.100
 130002904.694 5                                  24738733.602
                                                        30.800

 115247048.989 7  89802911.222 7  86061124.161 8  21930786.867
  21930793.414    21930794.031    21930795.082          45.200          46.100
        50.000
 128080956.111 6  99803440.73442                  24373009.367
                  24373018.117                          37.500          17.400

 121973751.256 7  95044495.11544                  23210824.891
                  23210829.945                          43.000          26.400

 127717684.381 6  99520291.22543                  24303879.070
                  24303883.070                          41.700          21.100

 115046120.365 7  89646356.58045                  21892537.617
                  21892542.965                          46.300          32.300

 131515976.576 6 102480088.073 5                  25026656.273
  25026661.254    25026662.105                          41.800          32.500

 107203371.336 8  83535157.721 8                  20400128.477
  20400133.188    20400133.762                          51.100          48.800

 123338981.437 6  96108322.569 6  92103820.384 7  23470606.055
  23470614.617    23470614.906    23470613.379          41.100          41.800
        44.500
 19  3 26 19 51  0.0000000  0 11G08G30G13G09G18G11G23G28G05G07G27
 112431260.135 8  87608716.995 7  83958370.494 8  21394930.531
  21394937.746    21394937.914    21394937.191          49.500          47.900
        51.900
 110034671.695 7  85741326.425 8  82168774.544 8  20938897.953
  20938905.855    20938906.133    20938906.309          47.500          48.700
        53.400
 129899693.474 5                                  24719095.023
                                                        31.300

 115340026.885 7  89875361.483 7  86130555.671 8  21948479.172
  21948486.867    21948487.418    21948487.832          44.500          46.100
        49.500
 127997679.069 6  99738549.51242                  24357161.305
                  24357170.836                          36.500          17.400

 121890233.796 7  94979416.60544                  23194931.594
                  23194937.402                          42.200          27.300

 127831802.076 6  99609213.95243                  24325594.180
                  24325599.480                          41.600          19.300

 114993382.246 7  89605261.96745                  21882502.594
                  21882507.305                          46.800          32.800

 131559846.158 6 102514272.228 5                  25035002.984
  25035008.379    25035009.105                          38.000          32.900

 107203637.153 8  83535364.850 8                  20400179.258
  20400183.730    20400184.266                          50.500          49.400

 123432290.638 6  96181031.015 6  92173499.298 7  23488362.555
  23488371.262    23488371.414    23488369.527          41.100          41.600
        43.800
 19  3 26 19 51 30.0000000  0 11G08G30G13G09G18G11G23G28G05G07G27
 112474041.594 8  87642053.205 7  83990317.702 8  21403071.430
  21403078.953    21403078.758    21403078.031          50.400          47.400
        52.200
 109983617.507 7  85701543.965 8  82130649.683 8  20929182.422
  20929190.563    20929191.047    20929191.082          47.200          48.000
        53.400
 129796675.912 5                                  24699493.953
                                                        32.900

 115433324.166 7  89948060.613 7  86200225.667 8  21966233.492
  21966241.570    21966241.465    21966241.688          44.900          46.300
        50.100
 127914577.294 6  99673794.95242                  24341348.742
                  24341356.414                          38.000          17.800

 121806972.118 7  94914537.41044                  23179087.273
                  23179093.117                          42.500          26.400

 127945981.726 6  99698184.98443                  24347320.367
                  24347326.777                          41.400          20.400

 114940920.629 7  89564382.81845                  21872519.227
                  21872524.492                          47.000          32.100

 131604086.853 6 102548745.355 5                  25043417.891
  25043428.313    25043428.504                          36.700          35.400

 107204252.090 8  83535844.014 8                  20400296.180
  20400300.672    20400301.180                          51.000          48.800

 123525930.109 6  96253996.850 6  92243424.858 7  23506181.922
  23506189.320    23506189.969    23506188.480          41.100          41.100
        43.700
 19  3 26 19 52  0.0000000  0 11G08G30G13G09G18G11G23G28G05G07G27
 112517374.569 8  87675819.163 7  84022676.740 8  21411317.117
  21411325.574    21411325.305    21411324.473          51.000          47.400
        51.800
 109932815.658 7  85661958.108 8  82092713.239 8  20919515.719
  20919523.480    20919523.766    20919523.664          47.700          48.300
        53.200
 129693854.656 5                                  24679928.031
                                                        32.500

 115526938.053 7  90021006.482 7  86270132.098 8  21984047.547
  21984054.965    21984055.684    21984055.945          45.100          46.000
        49.900
 127831654.035 6  99609179.45343                  24325569.938
                  24325575.555                          38.800          18.300

 121723969.166 7  94849859.82644                  23163292.688
                  23163297.770                          42.700          26.300

 128060220.791 6  99787202.34543                  24369058.016
                  24369065.816                          40.800          21.100

 114888735.050 8  89523718.75045                  21862589.039
                  21862593.375                          48.200          33.000

 131648696.197 7 102583505.747 5                  25051910.875
  25051917.426    25051917.063                          43.700          32.800

 107205217.222 8  83536596.063 8                  20400479.984
  20400484.199    20400484.844                          50.500          49.300

 123619896.854 6  96327217.656 6  92313594.815 7  23524063.438
  23524070.906    23524071.387    23524069.695          41.500          41.700
        44.100
 19  3 26 19 52 30.0000000  0 11G08G30G13G09G18G11G23G28G05G07G27
 112561256.617 8  87710012.945 7  84055445.793 8  21419667.734
  21419675.402    21419675.758    21419675.367          49.700          47.700
        51.900
 109882267.051 7  85622569.593 8  82054965.924 8  20909896.586
  20909904.422    20909904.570    20909904.520          47.000          48.500
        53.600
 129591231.368 5                                  24660400.438
                                                        34.200

 115620865.340 7  90094196.551 7  86340272.575 8  22001919.836
  22001927.926    22001929.316    22001929.754          43.400          45.200
        49.600
 127748912.105 6  99544705.28842                  24309823.227
                  24309829.961                          38.000          16.900

 121641227.523 7  94785385.84644                  23147548.297
                  23147552.504                          42.600          25.800

 128174516.516 6  99876263.83143                  24390809.492
                  24390815.484                          41.700          22.000

 114836824.842 7  89483269.27945                  21852710.945
                  21852714.930                          46.000          33.400

 131693671.089 7 102618551.198 5                  25060471.039
  25060474.301    25060475.246                          42.600          32.100

 107206533.132 8  83537621.455 8                  20400729.977
  20400734.770    20400735.398                          48.800          49.300

 123714187.489 6  96400690.821 6  92384006.614 7  23542006.211
  23542013.258    23542013.887    23542012.605          41.100          40.800
        44.300
 19  3 26 19 53  0.0000000  0 11G08G30G13G09G18G11G23G28G05G07G27
 112605685.480 8  87744632.840 7  84088623.177 8  21428122.883
  21428129.934    21428129.734    21428129.375          50.900          47.000
        51.800
 109831973.292 7  85583379.674 8  82017408.905 8  20900326.219
  20900333.836    20900333.879    20900333.969          47.500          48.100
        53.500
 129488809.338 5                                  24640911.469
                                                        35.200

 115715103.503 7  90167628.842 7  86410645.181 8  22019853.133
  22019861.965    22019862.320    22019862.664          43.600          45.900
        49.900
 127666354.907 6  99480375.04943                  24294112.891
                  24294119.738                          37.300          18.600

 121558750.279 7  94721117.89544                  23131853.102
                  23131857.324                          42.800          24.500

 128288866.333 7  99965367.42843                  24412571.258
                  24412575.688                          42.300          21.300

 114785189.949 7  89443034.33945                  21842883.930
                  21842888.938                          46.100          32.200

 131739009.446 6 102653879.764 5                  25069097.891
  25069102.996    25069103.984                          40.500          32.700

 107208201.051 8  83538921.124 8                  20401047.180
  20401051.855    20401052.566                          48.700          49.100

 123808799.176 6  96474414.207 6  92454658.147 7  23560009.914
  23560017.332    23560017.711    23560016.625          40.900          40.600
        43.500
 19  3 26 19 53 30.0000000  0 11G08G30G13G09G18G11G23G28G05G07G27
 112650659.882 8  87779677.845 7  84122207.968 8  21436680.672
  21436688.137    21436687.621    21436687.129          50.900          46.800
        51.900
 109781936.103 8  85544389.669 8  81980043.487 8  20890804.305
  20890811.512    20890811.883    20890812.359          48.700          48.700
        53.600
 129386591.148 5 100820763.88752                  24621462.375
                  24621460.684                          35.700          15.600

 115809650.106 7  90241301.477 7  86481248.118 8  22037846.211
  22037853.605    22037854.063    22037854.449          45.400          45.600
        49.700
 127583986.105 6  99416191.64143                  24278440.805
                  24278446.117                          38.900          19.600

 121476540.677 7  94657058.49744                  23116207.211
                  23116213.332                          42.600          26.200

 128403267.454 6 100054511.06043                  24434339.320
                  24434345.234                          40.100          19.900

 114733830.343 7  89403013.90545                  21833110.719
                  21833115.223                          47.900          32.300

 131784709.280 6 102689489.963 5                  25077793.141
  25077800.336    25077800.328                          37.900          34.500

 107210222.237 8  83540496.058 8                  20401432.563
  20401436.555    20401437.074                          50.500          48.700

 123903729.237 6  96548385.646 6  92525547.439 7  23578074.672
  23578081.488    23578082.813    23578081.461          41.700          40.700
        43.500
 19  3 26 19 54  0.0000000  0 11G08G30G13G09G18G11G23G28G05G07G27
 112696177.388 8  87815146.015 7  84156198.300 8  21445341.820
  21445350.008    21445350.016    21445349.578          50.500          47.900
        51.900
 109732156.624 8  85505600.464 8  81942870.511 8  20881331.852
  20881338.777    20881339.207    20881339.688          48.300          48.700
        53.500
 129284579.303 5 100741274.37042                  24602045.883
                  24602048.336                          34.900          14.800

 115904502.062 7  90315212.066 7  86552079.081 8  22055896.570
  22055903.500    22055903.566    22055904.309          44.800          46.200
        49.800
 127501808.753 6  99352157.38043                  24262801.398
                  24262809.070                          39.400          21.800

 121394601.802 7  94593210.04144                  23100615.063
                  23100620.418                          42.500          25.900

 128517717.119 6 100143692.48443                  24456119.008
                  24456124.020                          40.400          18.600

 114682745.700 7  89363207.71545                  21823389.891
                  21823394.449                          47.300          32.700

 131830767.399 6 102725379.354 5                  25086555.852
  25086564.340    25086565.219                          39.500          35.100

 107212597.080 8  83542346.587 8                  20401883.984
  20401888.652    20401889.328                          48.900          49.300

 123998974.438 6  96622602.657 6  92596672.098 7  23596200.219
  23596206.254    23596206.914    23596206.359          40.500          40.600
        42.700
 19  3 26 19 54 30.0000000  0 11G08G30G13G09G18G11G23G28G05G07G27
 112742238.401 8  87851037.710 8  84190594.503 8  21454107.391
  21454115.793    21454115.770    21454115.340          50.800          48.100
        52.200
 109682638.694 8  85467015.079 8  81905892.853 8  20871908.734
  20871915.859    20871916.309    20871916.742          49.000          48.400
        53.500
 129182778.844 5 100661949.41842                  24582669.625
                  24582677.023                          32.500          16.300

 115999659.093 7  90389360.374 7  86623137.860 8  22074003.781
  22074011.012    22074011.285    22074012.125          44.500          45.000
        49.700
 127419828.414 6  99288276.62443                  24247200.180
                  24247208.801                          39.900          21.700

 121312938.801 7  94529576.56044                  23085075.328
                  23085080.691                          42.100          26.000

 128632215.189 6 100232911.63643                  24477909.195
                  24477912.289                          40.800          19.300

 114631937.961 7  89323617.29845                  21813720.563
                  21813726.105                          46.600          32.400

 131877183.741 6 102761547.891 6                  25095389.453
  25095397.207    25095397.824                          40.900          36.600

 107215328.959 8  83544475.323 8                  20402403.859
  20402408.707    20402409.195                          48.700          49.500

 124094534.244 6  96697064.787 6  92668031.645 7  23614382.313
  23614390.648    23614391.715    23614391.094          40.700          40.800
        43.700
 19  3 26 19 55  0.0000000  0 11G08G30G13G09G18G11G23G28G05G07G27
 112788841.871 8  87887352.094 8  84225395.792 8  21462975.844
  21462983.754    21462983.723    21462983.160          51.400          48.000
        51.900
 109633384.180 8  85428634.931 8  81869111.880 8  20862535.969
  20862542.941    20862543.391    20862543.844          48.200          48.000
        53.600
 129081192.720 5                                  24563339.070
                                                        32.800

 116095118.844 7  90463744.532 7  86694422.689 8  22092168.023
  22092176.531    22092176.719    22092177.676          44.300          46.300
        49.600
 127338048.809 6  99224552.30543                  24231637.898
                  24231646.770                          39.400          21.700

 121231554.897 7  94466160.57844                  23069590.211
                  23069594.367                          43.600          26.500

 128746759.301 6 100322166.59443                  24499705.859
                  24499709.023                          40.800          19.000

 114581407.139 7  89284242.65045                  21804105.484
                  21804110.547                          47.000          32.600

 131923956.437 6 102797994.136 5                  25104288.477
  25104297.855    25104299.094                          40.900          35.500

 107218419.463 8  83546883.517 8                  20402992.320
  20402996.539    20402997.078                          49.600          48.800

 124190406.080 6  96771770.057 6  92739624.216 7  23632626.773
  23632634.902    23632635.273    23632635.266          40.500          40.500
        44.100
 19  3 26 19 55 30.0000000  0 11G08G30G13G09G18G11G23G28G05G07G27
 112835982.732 8  87924085.241 7  84260598.378 8  21471947.031
  21471953.602    21471953.746    21471953.012          50.900          47.100
        51.100
 109584391.855 8  85390459.108 7  81832526.725 8  20853212.594
  20853220.156    20853220.469    20853220.832          48.800          47.900
        53.500
 128979821.133 5                                  24544049.500
                                                        33.500

 116190875.925 7  90538360.403 7  86765929.548 8  22110389.008
  22110398.789    22110398.863    22110399.574          43.000          45.700
        50.000
 127256470.400 6  99160984.79443                  24216113.977
                  24216123.355                          38.700          21.700

 121150450.602 7  94402962.43344                  23054156.070
                  23054161.047                          43.400          26.900

 128861344.316 6 100411453.51543                  24521509.961
                  24521514.445                          40.700          20.100

 114531150.440 7  89245081.62045                  21794542.164
                  21794547.168                          47.700          32.500

 131971080.214 6 102834713.938 5                  25113257.453
  25113266.504    25113266.461                          40.400          35.900

 107221866.734 8  83549569.694 8                  20403647.852
  20403652.426    20403652.879                          49.900          49.400

 124286584.352 6  96846714.135 6  92811445.620 7  23650928.734
  23650937.801    23650937.762    23650937.520          40.200          40.900
        43.800
 19  3 26 19 56  0.0000000  0 11G08G30G13G09G18G11G23G28G05G07G27
 112883660.341 8  87961236.627 7  84296201.786 8  21481018.227
  21481026.809    21481026.785    21481025.910          51.000          47.300
        51.200
 109535664.230 8  85352489.522 8  81796139.207 8  20843939.953
  20843947.734    20843948.109    20843948.031          48.100          48.300
        53.600
 128878667.691 5                                  24524801.602
                                                        35.200

 116286928.599 7  90613206.615 7  86837657.147 8  22128667.719
  22128676.719    22128677.219    22128677.914          43.000          45.800
        49.700
 127175097.912 6  99097577.71943                  24200628.781
                  24200638.371                          38.300          20.100

 121069629.775 7  94339985.20244                  23038775.414
                  23038781.398                          42.800          28.000

 128975968.701 6 100500771.10043                  24543323.719
                  24543326.449                          41.400          19.600

 114481168.054 7  89206134.32845                  21785029.961
                  21785035.895                          46.300          32.800

 132018553.752 6 102871706.211 5                  25122291.195
  25122302.219    25122300.309                          38.700          35.000

 107225672.880 8  83552535.502 8                  20404372.344
  20404376.977    20404377.336                          50.900          49.200

 124383067.126 6  96921895.493 6  92883494.401 7  23669289.344
  23669297.586    23669297.324    23669297.801          40.300          40.800
        43.900
 19  3 26 19 56 30.0000000  0 11G08G30G13G09G18G11G23G28G05G07G27
 112931872.869 8  87998804.793 8  84332204.626 8  21490193.320
  21490201.551    21490201.742    21490201.016          50.900          48.000
        51.500
 109487203.146 8  85314727.658 8  81759950.754 8  20834718.125
  20834726.070    20834726.160    20834726.125          48.600          48.500
        53.200
 128777735.53115                                  24505592.070
                                                        34.600

 116383274.582 7  90688281.377 7  86909603.785 8  22147002.625
  22147010.895    22147011.188    22147011.988          43.500          46.000
        49.200
 127093934.431 6  99034333.47243                  24185183.820
                  24185192.797                          37.600          19.300

 120989095.733 7  94277231.43444                  23023449.680
                  23023455.914                          42.700          27.900

 129090630.321 6 100590117.66043                  24565141.992
                  24565146.102                          40.000          19.600

 114431460.473 7  89167401.18345                  21775571.031
                  21775576.480                          46.800          32.300

 132066374.585 6 102908969.184 5                  25131391.523
  25131401.445    25131400.828                          36.500          34.000

 107229839.309 8  83555782.064 8                  20405165.125
  20405169.621    20405170.164                          50.300          49.200

 124479851.955 6  96997312.200 6  92955768.743 7  23687706.781
  23687714.891    23687715.063    23687715.000          40.800          40.400
        44.400
 19  3 26 19 57  0.0000000  0 11G08G30G13G09G18G11G23G28G05G07G27
 112980617.680 8  88036787.762 7  84368604.968 8  21499469.523
  21499477.211    21499477.371    21499476.590          51.000          47.400
        51.600
 109439009.796 8  85277174.390 8  81723962.212 8  20825548.078
  20825555.016    20825555.305    20825555.309          48.800          48.700
        53.400
 128677026.625 5                                  24486427.203
                                                        34.300

 116479910.704 7  90763582.242 7  86981767.101 8  22165392.570
  22165400.273    22165400.465    22165401.098          43.600          46.500
        49.600
 127012983.587 6  98971254.94043                  24169778.883
                  24169787.574                          38.100          19.000

 120908851.270 7  94214703.30144                  23008179.766
                  23008185.656                          42.300          28.000

 129205326.002 6 100679490.78042                  24586968.617
                  24586972.996                          38.500          17.800

 114382027.408 7  89128881.94145                  21766164.102
                  21766169.059                          45.500          32.600

 132114540.073 5 102946500.645 5                  25140556.758
  25140564.816                                          34.600          31.300

 107234366.492 8  83559309.758 8                  20406027.008
  20406031.215    20406031.789                          50.100          49.400

 124576935.493 6  97072961.720 6  93028266.142 7  23706181.320
  23706189.027    23706189.434    23706189.410          40.600          39.400
        44.000
 19  3 26 19 57 30.0000000  0 11G08G30G13G09G18G11G23G28G05G07G27
 113029893.072 8  88075184.174 7  84405401.522 8  21508846.539
  21508854.105    21508854.008    21508852.672          50.900          47.000
        51.100
 109391085.223 8  85239830.582 8  81688174.387 8  20816428.250
  20816435.191    20816435.590    20816435.992          49.600          48.500
        53.700
 128576543.559 5                                  24467306.617
                                                        35.900

 116576833.933 7  90839106.781 7  87054144.787 8  22183835.500
  22183844.016    22183844.438    22183845.012          43.500          45.900
        49.000
 126932248.220 6  98908344.33843                  24154415.617
                  24154424.137                          37.500          18.300

 120828899.434 7  94152403.20544                  22992966.383
                  22992971.246                          43.600          28.300

 129320052.811 6 100768888.16343                  24608798.961
                  24608804.520                          38.600          18.300

 114332867.846 7  89090575.83245                  21756810.500
                  21756814.363                          47.500          33.000

 132163047.474 5 102984298.651 4                  25149784.352
  25149796.375                                          33.800          29.700

 107239254.923 8  83563118.916 8                  20406956.398
  20406961.535    20406962.070                          49.900          49.100

 124674314.437 6  97148841.331 6  93100984.142 7  23724712.273
  23724719.301    23724720.086    23724719.613          41.100          38.700
        44.500
 19  3 26 19 58  0.0000000  0 11G08G30G13G09G18G11G23G28G05G07G27
 113079696.865 8  88113992.307 7  84442592.658 8  21518322.844
  21518331.520    21518331.531    21518330.094          50.400          47.800
        50.900
 109343431.005 8  85202697.450 8  81652588.468 8  20807359.414
  20807366.863    20807367.266    20807367.750          49.300          48.900
        53.500
 128476288.966 6 100111429.12042                  24448230.383
                  24448236.121                          37.700          16.300

 116674041.557 7  90914852.911 7  87126734.822 8  22202334.094
  22202341.680    22202342.418    22202343.195          43.600          45.900
        48.800
 126851731.399 6  98845604.00143                  24139093.789
                  24139102.281                          38.200          19.300

 120749242.816 7  94090333.15044                  22977809.047
                  22977813.441                          43.600          29.300

 129434808.251 6 100858307.82943                  24630636.008
                  24630642.426                          37.300          18.300

 114283981.434 7  89052482.54245                  21747506.555
                  21747511.887                          47.000          32.800

 132211894.170 5 103022360.833 5                  25159084.047
  25159093.238                                          33.300          31.700

 107244505.924 8  83567210.595 8                  20407956.078
  20407960.559    20407961.184                          50.600          49.500

 124771985.937 7  97224948.998 6  93173920.629 7  23743299.102
  23743305.711    23743306.621    23743305.500          42.300          39.200
        44.300
 19  3 26 19 58 30.0000000  0 12G17G08G30G13G09G18G11G23G28G05G07G27
 131670785.346 6 102600620.995 6                  25056119.039
  25056130.609    25056130.832                          36.900          37.900

 113130025.589 8  88153209.493 7  84480175.786 8  21527900.336
  21527908.973    21527908.906    21527908.105          49.900          47.600
        51.400
 109296047.533 8  85165775.257 8  81617204.725 8  20798343.586
  20798350.168    20798350.582    20798350.727          49.800          48.800
        53.400
 128376264.664 6 100033488.14142                  24429195.906
                  24429202.074                          38.800          17.400

 116771529.628 7  90990817.626 7  87199534.335 8  22220884.430
  22220894.605    22220894.301    22220894.355          43.000          46.800
        48.800
 126771435.407 6  98783035.73143                  24123815.781
                  24123822.059                          39.300          19.600

 120669883.420 7  94028494.70744                  22962706.477
                  22962711.586                          42.100          28.400

 129549588.591 6 100947746.90042                  24652480.250
                  24652484.215                          38.700          17.400

 114235367.050 7  89014601.24145                  21738255.695
                  21738261.059                          46.800          32.400

 132261076.372 5 103060684.641 4                  25168439.883
  25168451.875                                          30.300          29.200

 107250119.035 8  83571584.448 8                  20409024.445
  20409028.973    20409029.434                          50.100          48.400

 124869945.974 6  97301281.459 6  93247072.575 7  23761940.367
  23761946.852    23761947.801    23761946.730          40.700          39.600
        44.600
 19  3 26 19 59  0.0000000  0 12G17G08G30G13G09G18G11G23G28G05G07G27
 131559537.573 5 102513934.569 6                  25034950.344
  25034961.039    25034961.082                          34.400          37.200

 113180879.243 8  88192835.715 7  84518150.906 8  21537577.891
  21537585.711    21537585.664    21537585.414          50.700          47.300
        51.700
 109248938.220 8  85129066.706 8  81582025.679 8  20789378.172
  20789385.391    20789385.855    20789386.023          48.400          48.300
        53.400
 128276474.815 6  99955729.86042                  24410204.813
                  24410213.098                          37.000          16.300

 116869297.417 7  91067000.271 7  87272542.696 8  22239489.758
  22239498.547    22239498.809    22239498.926          43.000          46.700
        49.100
 126691365.558 6  98720643.71043                  24108580.438
                  24108584.703                          40.200          20.100

 120590826.011 6  93966891.60044                  22947662.000
                  22947667.840                          41.300          28.100

 129664393.189 6 101037204.88143                  24674327.633
                  24674330.816                          39.500          18.300

 114187026.407 7  88976933.23845                  21729056.930
                  21729062.066                          46.700          32.400

 132310593.69814 103099269.50214                  25177863.891
  25177874.402                                          28.600          26.600

 107256097.420 8  83576242.924 8                  20410162.070
  20410166.152    20410167.219                          49.800          49.100

 124968193.516 6  97377837.950 6  93320439.214 7  23780635.852
  23780643.027    23780644.020    23780643.121          39.700          39.500
        45.100
 19  3 26 19 59 30.0000000  0 12G17G08G30G13G09G18G11G23G28G05G07G27
 131448310.849 5 102427264.524 6                  25013784.758
  25013794.918    25013795.355                          34.100          38.000

 113232254.993 8  88232868.748 7  84556515.898 8  21547353.188
  21547362.086    21547361.988    21547361.641          49.600          46.900
        51.600
 109202103.729 8  85092572.306 8  81547051.886 8  20780465.102
  20780473.324    20780473.410    20780473.582          48.800          48.500
        53.400
 128176921.251 6  99878155.69042                  24391261.391
                  24391268.828                          36.900          16.300

 116967341.323 7  91143398.078 7  87345757.260 8  22258148.133
  22258156.145    22258156.051    22258155.984          44.100          45.900
        48.700
 126611524.425 6  98658429.84543                  24093384.094
                  24093391.207                          38.400          18.600

 120512073.111 7  93905525.75444                  22932675.961
                  22932681.707                          42.700          27.100

 129779218.444 6 101126678.95143                  24696177.625
                  24696182.305                          39.500          19.300

 114138958.082 7  88939477.43345                  21719909.859
                  21719914.809                          46.800          32.600

 132360442.55314 103138112.67514                  25187351.375
  25187360.887                                          26.800          27.400

 107262441.001 8  83581185.975 8                  20411369.141
  20411373.840    20411374.254                          50.500          48.900

 125066724.859 6  97454615.581 6  93394017.746 7  23799385.195
  23799392.801    23799393.586    23799393.352          39.600          39.900
        45.400
 19  3 26 20  0  0.0000000  4  5
DSRC (COGO code)                                            COMMENT
  0.0000      (antenna height)                              COMMENT
 +39.99143103 (latitude)                                    COMMENT
-105.26103266 (longitude)                                   COMMENT
1656.307      (elevation)                                   COMMENT
 19  3 26 20  0  0.0000000  0 12G17G08G30G13G09G18G11G23G28G05G07G27
 131337108.587 5 102340613.609 5                  24992623.359
  24992633.625    24992633.840                          34.300          35.600

 113284152.139 8  88273308.084 7  84595270.256 8  21557228.977
  21557238.113    21557238.156    21557237.000          49.100          47.600
        51.100
 109155546.894 8  85056294.259 8  81512285.420 8  20771606.500
  20771613.566    20771614.047    20771614.281          48.800          48.900
        53.500
 128077608.682 6  99800769.32342                  24372362.781
                  24372370.383                          38.200          16.900

 117065659.891 7  91220009.902 7  87419176.918 8  22276856.883
  22276865.945    22276865.449    22276865.176          44.300          46.700
        48.500
 126531916.603 6  98596397.82043                  24078237.422
                  24078242.305                          39.900          19.600

 120433628.720 7  93844400.29044                  22917748.469
                  22917754.199                          43.000          28.900

 129894063.257 6 101216168.29443                  24718031.242
                  24718036.480                          39.900          19.000

 114091163.147 7  88902234.64845                  21710815.508
                  21710819.664                          47.500          33.600

 132410621.74914                                  25196902.938
                                                        29.600

 107269152.146 8  83586415.436 8                  20412646.172
  20412650.578    20412651.105                          50.000          49.000

 125165538.345 6  97531613.104 6  93467807.029 7  23818187.961
  23818196.574    23818196.805    23818197.410          39.000          39.500
        45.700
 19  3 26 20  0 30.0000000  0 11G17G08G30G13G09G18G11G23G28G07G27
 131225931.582 6 102253982.267 5                  24971468.352
  24971476.688    24971477.004                          38.600          35.300

 113336566.897 8  88314150.736 7  84634411.128 8  21567204.406
  21567212.461    21567212.422    21567211.008          49.300          47.600
        51.200
 109109267.594 8  85020232.475 8  81477726.205 8  20762800.438
  20762807.059    20762807.484    20762807.531          50.200          49.100
        53.500
 127978537.962 6  99723571.39442                  24353509.633
                  24353518.094                          37.900          17.400

 117164248.731 7  91296832.340 7  87492798.423 8  22295617.555
  22295625.535    22295626.301    22295626.012          43.900          45.200
        48.800
 126452543.755 6  98534548.90643                  24063132.109
                  24063139.039                          39.400          20.600

 120355494.349 7  93783516.38244                  22902880.953
                  22902885.441                          43.000          28.000

 130008923.518 6 101305669.65643                  24739887.930
                  24739893.629                          41.400          19.300

 114043639.803 7  88865203.50645                  21701770.773
                  21701776.613                          47.300          32.700

 107276229.889 8  83591930.555 8                  20413992.695
  20413997.742    20413998.055                          49.500          49.100

 125264629.567 6  97608826.985 6  93541803.645 7  23837044.906
  23837052.535    23837053.543    23837053.762          39.400          39.200
        46.400
 19  3 26 20  1  0.0000000  0 11G17G08G30G13G09G18G11G23G28G07G27
 131114782.519 5 102167372.752 5                  24950316.055
  24950325.105    24950325.563                          35.800          35.400

 113389497.144 8  88355395.083 7  84673936.962 8  21577276.453
  21577284.406    21577284.191    21577283.758          49.500          47.100
        51.300
 109063267.729 8  84984388.429 8  81443375.661 8  20754046.273
  20754053.902    20754054.039    20754054.055          49.700          48.900
        53.500
 127879711.871 6  99646564.10743                  24334703.570
                  24334711.730                          36.900          19.000

 117263105.533 7  91373863.568 7  87566619.998 8  22314429.898
  22314437.082    22314438.168    22314438.074          44.900          45.000
        48.700
 126373409.554 6  98472885.92843                  24048071.445
                  24048082.605                          37.200          20.600

 120277673.396 7  93722876.73944                  22888071.500
                  22888076.855                          42.200          29.100

 130123796.947 6 101395181.33143                  24761746.938
                  24761753.922                          40.200          20.400

 113996387.939 7  88828383.89845                  21692779.766
                  21692784.742                          47.800          33.100

 107283675.758 8  83597732.529 8                  20415409.414
  20415414.207    20415415.043                          50.300          49.500

 125363995.865 6  97686255.243 6  93616005.692 7  23855954.633
  23855961.477    23855962.371    23855962.398          39.700          40.200
        45.600
 19  3 26 20  1 30.0000000  0 11G17G08G30G13G09G18G11G23G28G07G27
 131003664.835 6 102080787.650 6                  24929172.086
  24929179.758    24929180.684                          38.900          36.400

 113442942.256 8  88397040.616 7  84713847.259 8  21587446.555
  21587454.520    21587454.281    21587454.438          50.000          46.800
        51.000
 109017549.975 8  84948764.203 8  81409235.786 8  20745346.977
  20745354.281    20745354.348    20745354.168          49.800          49.100
        53.700
 127781134.406 6  99569750.52343                  24315945.797
                  24315953.273                          38.000          19.300

 117362228.588 7  91451102.254 7  87640640.392 8  22333292.578
  22333299.480    22333300.281    22333301.254          44.500          44.700
        49.200
 126294518.445 5  98411412.36743                  24033058.453
                  24033069.578                          35.500          19.600

 120200170.079 7  93662484.58144                  22873322.844
                  22873328.484                          42.100          28.500

 130238682.590 6 101484702.43443                  24783609.969
                  24783615.945                          41.800          19.600

 113949408.497 7  88791776.57545                  21683839.469
                  21683844.684                          46.600          32.900

 107291491.685 8  83603822.870 8                  20416897.430
  20416902.035    20416902.484                          50.000          48.800

 125463635.599 6  97763896.542 6  93690411.915 7  23874914.930
  23874922.609    23874923.223    23874922.832          38.400          40.100
        44.700
 19  3 26 20  2  0.0000000  0 11G17G08G30G13G09G18G11G23G28G07G27
 130892580.132 6 101994228.332 5                  24908033.453
  24908040.172    24908040.930                          36.700          35.100

 113496899.519 8  88439085.221 7  84754140.005 8  21597714.102
  21597722.398    21597722.051    21597721.770          49.600          47.300
        51.400
 108972115.089 8  84913360.414 8  81375307.147 8  20736701.031
  20736708.211    20736708.215    20736708.234          50.000          49.300
        53.400
 127682807.405 6  99493132.12943                  24297235.000
                  24297242.355                          37.400          19.900

 117461614.385 7  91528545.687 7  87714857.033 8  22352205.766
  22352212.488    22352212.461    22352214.109          44.300          44.800
        49.600
 126215873.085 6  98350130.38443                  24018095.945
                  24018102.719                          38.400          19.000

 120122986.475 7  93602341.56845                  22858636.898
                  22858640.820                          44.300          30.400

 130353576.430 6 101574229.98943                  24805472.906
                  24805479.914                          40.800          19.600

 113902700.335 7  88755380.62645                  21674950.664
                  21674955.984                          45.300          32.300

 107299677.875 8  83610201.686 8                  20418455.313
  20418459.648    20418460.063                          50.300          49.000

 125563545.010 6  97841747.979 6  93765019.542 7  23893927.922
  23893934.609    23893935.375    23893935.141          40.100          40.900
        44.600
 19  3 26 20  2 30.0000000  0 11G17G08G30G13G09G18G11G23G28G07G27
 130781529.991 6 101907695.923 5                  24886900.602
  24886907.492    24886908.875                          39.500          35.400

 113551365.541 8  88481526.275 7  84794812.673 8  21608078.625
  21608087.078    21608086.969    21608086.051          49.400          47.600
        50.700
 108926963.658 8  84878177.480 8  81341590.175 8  20728108.867
  20728115.777    20728116.047    20728116.180          48.100          49.000
        53.400
 127584732.937 6  99416710.49743                  24278570.859
                  24278579.176                          38.100          19.600

 117561259.270 7  91606191.017 7  87789267.106 8  22371166.664
  22371173.633    22371174.137    22371175.969          44.900          43.100
        49.800
 126137475.786 6  98289041.69643                  24003178.023
                  24003183.484                          38.700          19.600

 120046124.359 7  93542449.05644                  22844009.719
                  22844014.652                          44.900          29.800

 130468475.318 6 101663761.47743                  24827337.727
                  24827344.969                          40.800          20.400

 113856262.099 7  88719195.00745                  21666113.961
                  21666119.227                          45.300          33.200

 107308234.513 8  83616869.195 8                  20420083.680
  20420087.941    20420088.594                          50.800          49.300

 125663720.296 6  97919806.599 6  93839825.734 7  23912991.047
  23912997.617    23912998.477    23912997.586          40.600          40.500
        43.700
 19  3 26 20  3  0.0000000  0 11G17G08G30G13G09G18G11G23G28G07G27
 130670517.083 6 101821192.512 6                  24865775.273
  24865783.754    24865783.828                          39.800          36.700

 113606338.758 8  88524362.537 8  84835864.106 8  21618540.227
  21618548.633    21618548.480    21618547.355          49.900          48.000
        51.200
 108882097.691 8  84843216.981 8  81308086.362 8  20719570.625
  20719578.051    20719578.418    20719578.602          49.700          49.300
        53.700
 127486914.046 6  99340488.03443                  24259956.430
                  24259965.059                          38.000          20.100

 117661160.867 7  91684036.399 7  87863868.906 8  22390176.289
  22390184.488    22390184.676    22390186.344          43.000          43.600
        49.200
 126059330.516 6  98228149.28843                  23988305.203
                  23988314.191                          38.100          19.900

 119969587.499 7  93482809.97844                  22829444.516
                  22829449.961                          43.900          29.600

 130583377.176 6 101753295.21643                  24849202.609
                  24849209.484                          40.500          18.300

 113810093.883 7  88683219.80145                  21657329.148
                  21657333.805                          47.500          33.000

 107317163.071 8  83623826.514 8                  20421782.703
  20421787.191    20421787.434                          51.400          49.500

 125764159.043 6  97998070.529 6  93914828.679 7  23932104.039
  23932110.777    23932111.320    23932110.461          41.000          40.800
        43.200
 19  3 26 20  3 30.0000000  0 11G17G08G30G13G09G18G11G23G28G07G27
 130559544.537 6 101734720.567 5                  24844658.539
  24844665.906    24844666.805                          37.900          34.400

 113661818.112 8  88567593.198 8  84877293.483 8  21629097.789
  21629105.605    21629105.801    21629105.039          50.000          48.000
        51.000
 108837519.878 8  84808481.022 8  81274797.743 8  20711087.563
  20711095.563    20711095.371    20711095.793          49.600          48.900
        53.500
 127389354.741 6  99264467.85343                  24241392.414
                  24241400.125                          38.700          19.900

 117761317.669 7  91762080.605 7  87938661.262 8  22409235.352
  22409244.039    22409243.750    22409245.492          43.500          44.500
        49.600
 125981441.722 6  98167456.76343                  23973483.711
                  23973492.441                          38.700          20.100

 119893380.042 7  93423427.57444                  22814941.805
                  22814948.461                          43.000          29.300

 130698280.845 6 101842830.39143                  24871068.453
                  24871074.715                          38.900          18.600

 113764196.636 7  88647455.74445                  21648595.625
                  21648599.789                          46.700          33.200

 107326465.321 8  83631075.017 8                  20423552.625
  20423557.398    20423557.879                          50.900          49.500

 125864859.576 6  98076538.411 6  93990027.100 7  23951266.969
  23951273.426    23951274.621    23951273.516          41.600          40.200
        43.000
 19  3 26 20  4  0.0000000  0 11G17G08G30G13G09G18G11G23G28G07G27
 130448614.349 6 101648281.637 5                  24823549.219
  24823556.703    24823557.105                          40.000          35.900

 113717800.577 8  88611215.902 7  84919098.563 8  21639750.883
  21639758.625    21639758.508    21639757.969          49.900          47.500
        51.200
 108793231.121 7  84773970.320 8  81241724.976 8  20702659.414
  20702667.363    20702667.602    20702667.758          47.900          49.100
        53.800
 127292056.848 6  99188651.35443                  24222879.500
                  24222884.875                          40.100          20.600

 117861726.182 7  91840320.990 7  88013641.597 8  22428343.133
  22428351.453    22428351.500    22428352.309          43.900          44.800
        48.500
 125903811.832 6  98106965.99143                  23958711.211
                  23958718.688                          39.100          19.300

 119817504.304 7  93364303.63444                  22800503.078
                  22800510.012                          43.600          28.500

 130813182.947 6 101932364.32843                  24892935.094
                  24892940.223                          39.400          19.300

 113718569.078 7  88611901.83345                  21639912.930
                  21639917.277                          45.800          34.300

 107336141.626 8  83638614.992 8                  20425394.555
  20425398.398    20425399.063                          50.400          48.900

 125965818.323 6  98155207.508 6  94065418.307 7  23970479.273
  23970485.801    23970486.063    23970485.371          40.300          39.900
        43.700
 19  3 26 20  4 30.0000000  0 11G17G08G30G13G09G18G11G23G28G07G27
 130337728.651 6 101561877.405 5                  24802447.773
  24802456.371    24802456.563                          39.900          35.900

 113774283.893 8  88655228.855 7  84961277.655 8  21650499.320
  21650506.992    21650507.188    21650506.008          48.800          47.400
        51.400
 108749232.577 8  84739685.752 8  81208868.925 8  20694287.633
  20694294.598    20694294.953    20694295.148          49.100          48.900
        53.700
 127195022.907 6  99113040.52443                  24204412.891
                  24204419.141                          38.400          19.600

 117962383.306 7  91918755.062 7  88088807.588 8  22447497.898
  22447506.113    22447506.160    22447506.738          43.400          45.000
        48.600
 125826444.195 6  98046679.56943                  23943987.953
                  23943994.695                          39.400          19.000

 119741962.865 7  93305440.20244                  22786129.625
                  22786134.496                          44.500          28.900

 130928080.335 6 102021894.62943                  24914799.234
                  24914804.676                          39.400          18.300

 113673211.227 7  88576558.07645                  21631281.328
                  21631286.418                          46.700          33.800

 107346192.453 8  83646446.777 8                  20427306.297
  20427311.043    20427311.570                          50.500          49.200

 126067032.018 6  98234075.312 6  94140999.927 7  23989738.938
  23989746.391    23989746.777    23989745.891          40.400          39.900
        42.900
 19  3 26 20  5  0.0000000  0 12G17G01G08G30G13G09G18G11G23G28G07G27
 130226889.826 6 101475509.516 5                  24781356.406
  24781363.840    24781364.277                          38.900          35.600

 130588417.73315                  97517337.45215  24850153.820
                                  24850161.527          30.500
        33.200
 113831265.744 8  88699630.292 7  85003829.029 8  21661342.719
  21661350.422    21661350.430    21661349.570          49.700          47.100
        51.300
 108705525.980 8  84705628.695 8  81176230.913 8  20685970.313
  20685977.672    20685977.891    20685978.250          48.300          49.700
        53.900
 127098255.765 6  99037637.60143                  24185996.148
                  24186004.875                          38.800          20.100

 118063286.408 7  91997380.817 7  88164157.263 8  22466699.102
  22466706.746    22466707.262    22466708.438          43.200          44.500
        48.200
 125749342.206 6  97986600.14343                  23929318.188
                  23929322.773                          41.000          19.300

 119666758.750 7  93246839.61944                  22771818.406
                  22771823.074                          44.400          28.900

 131042970.844 6 102111419.49143                  24936663.063
                  24936667.617                          39.900          19.000

 113628122.272 7  88541423.84845                  21622700.883
                  21622706.672                          45.800          34.400

 107356618.978 8  83654571.353 8                  20429290.664
  20429295.293    20429295.820                          51.000          49.200

 126168498.009 6  98313139.694 6  94216769.965 7  24009045.961
  24009053.668    24009054.766    24009054.508          39.700          38.900
        43.600
 19  3 26 20  5 30.0000000  0 12G17G01G08G30G13G09G18G11G23G28G07G27
 130116100.080 6 101389180.117 6                  24760274.570
  24760281.828    24760282.945                          40.000          36.700

 130496067.26914                  97448374.177 5  24832577.625
                                  24832585.430          29.900
        32.700
 113888743.849 8  88744418.431 7  85046750.989 8  21672279.641
  21672288.348    21672288.285    21672287.391          49.500          47.500
        51.800
 108662112.755 8  84671800.185 8  81143811.936 9  20677708.664
  20677716.188    20677716.574    20677716.922          48.700          49.000
        54.100
 127001758.112 6  98962444.67143                  24167635.992
                  24167641.703                          39.500          20.100

 118164432.590 7  92076195.981 7  88239688.449 8  22485945.914
  22485954.914    22485955.020    22485955.875          44.300          45.600
        48.800
 125672508.725 7  97926729.92043                  23914698.055
                  23914702.996                          42.500          20.400

 119591894.839 7  93188504.12144                  22757571.539
                  22757575.965                          43.900          27.400

 131157852.087 6 102200937.22243                  24958524.859
                  24958528.395                          38.800          18.300

 113583301.713 7  88506498.76145                  21614172.227
                  21614177.273                          45.800          34.100

 107367421.808 8  83662989.133 8                  20431346.828
  20431350.938    20431351.344                          50.900          48.900

 126270213.266 6  98392398.325 6  94292726.110 7  24028402.383
  24028409.449    24028410.051    24028410.574          40.500          38.900
        43.200
 19  3 26 20  6  0.0000000  0 11G17G08G30G13G09G18G11G23G28G07G27
 130005361.924 6 101302890.665 5                  24739200.781
  24739207.844    24739209.621                          37.400          33.200

 113946715.941 8  88789591.479 7  85090041.818 8  21683311.586
  21683320.004    21683320.059    21683319.293          49.700          47.000
        51.100
 108618994.536 7  84638201.576 8  81111613.273 9  20669503.781
  20669511.125    20669511.523    20669511.965          47.600          48.800
        54.100
 126905532.763 6  98887463.93443                  24149325.555
                  24149330.324                          39.200          18.600

 118265819.189 7  92155198.481 7  88315399.172 8  22505240.531
  22505248.348    22505248.551    22505249.121          44.700          45.500
        48.200
 125595947.418 6  97867071.81543                  23900126.445
                  23900133.953                          40.000          21.500

 119517374.205 7  93130436.12144                  22743391.109
                  22743395.484                          43.900          26.900

 131272721.676 6 102290445.80542                  24980383.086
                  24980388.363                          39.100          17.400

 113538749.394 7  88471782.70045                  21605693.539
                  21605699.164                          45.400          34.500

 107378602.114 8  83671701.062 8                  20433474.594
  20433478.469    20433479.004                          51.100          48.400

 126372175.028 6  98471849.011 6  94368866.357 7  24047804.148
  24047812.445    24047812.906    24047812.770          41.000          39.000
        43.400
 19  3 26 20  6 30.0000000  0 11G17G08G30G13G09G18G11G23G28G07G27
 129894678.457 6 101216644.023 6                  24718139.453
  24718146.707    24718147.773                          40.800          38.400

 114005181.328 8  88835148.916 7  85133701.030 8  21694437.648
  21694445.363    21694445.527    21694445.039          49.700          47.000
        51.300
 108576173.966 8  84604834.914 8  81079636.884 9  20661354.672
  20661362.758    20661363.016    20661363.566          49.000          49.300
        54.300
 126809583.625 6  98812698.41942                  24131066.047
                  24131071.324                          38.600          17.400

 118367444.511 7  92234387.014 7  88391288.169 7  22524579.570
  22524587.410    22524587.453    22524587.754          43.800          45.400
        47.900
 125519662.795 6  97807629.28043                  23885610.258
                  23885617.852                          38.600          21.500

 119443201.165 7  93072638.96144                  22729276.688
                  22729281.219                          44.800          28.000

 131387577.970 6 102379943.99542                  25002238.031
                  25002245.168                          38.600          17.800

 113494466.083 7  88437276.25445                  21597266.492
                  21597272.445                          45.900          33.900

 107390161.809 8  83680708.607 8                  20435673.563
  20435678.336    20435679.027                          50.700          49.200

 126474381.552 6  98551490.422 6  94445189.381 7  24067253.453
  24067261.543    24067262.047    24067262.426          41.300          39.000
        43.200
 19  3 26 20  7  0.0000000  0 11G17G08G30G13G09G18G11G23G28G07G27
 129784051.859 5 101130441.621 5                  24697084.781
  24697094.711    24697096.129                          35.600          33.900

 114064136.738 8  88881088.200 7  85177726.178 8  21705656.625
  21705663.895    21705664.266    21705664.285          50.100          46.600
        51.200
 108533652.035 8  84571700.925 8  81047883.487 8  20653263.781
  20653271.191    20653271.359    20653271.742          49.200          48.700
        53.900
 126713912.660 6  98738149.65243                  24112861.281
                  24112866.027                          38.500          19.000

 118469305.152 7  92313758.905 7  88467352.902 8  22543963.391
  22543970.551    22543970.648    22543971.105          45.100          44.800
        48.100
 125443657.376 6  97748404.32843                  23871146.055
                  23871155.688                          38.900          22.200

 119369377.622 7  93015114.13144                  22715227.313
                  22715232.555                          44.300          27.600

 131502417.774 6 102469429.41642                  25024092.422
                  25024097.605                          38.000          15.600

 113450450.775 7  88402978.64445                  21588891.227
                  21588896.227                          47.500          34.200

 107402101.144 8  83690012.000 8                  20437945.414
  20437950.223    20437950.828                          50.900          48.900

 126576829.393 6  98631319.861 6  94521692.593 7  24086749.492
  24086756.313    24086757.078    24086757.246          40.100          39.700
        43.200
 19  3 26 20  7 30.0000000  0 11G17G08G30G13G09G18G11G23G28G07G27
 129673483.868 6 101044284.792 6                  24676047.219
  24676054.348    24676054.816                          39.500          37.900

 114123579.655 8  88927407.348 7  85222115.360 8  21716967.938
  21716975.563    21716975.711    21716975.926          50.700          47.200
        51.600
 108491429.959 8  84538800.628 8  81016354.024 9  20645229.016
  20645236.461    20645236.688    20645236.867          49.300          48.800
        54.100
 126618522.256 6  98663819.50043                  24094710.180
                  24094713.574                          40.400          19.900

 118571398.080 7  92393311.795 7  88543591.070 7  22563389.445
  22563397.895    22563398.117    22563398.727          43.600          44.700
        47.900
 125367934.328 6  97689399.41943                  23856736.094
                  23856745.867                          38.300          22.500

 119295906.329 7  92957863.78144                  22701245.570
                  22701251.145                          43.200          26.800

 131617238.824 6 102558900.14842                  25045940.539
                  25045947.516                          38.500          16.900

 113406702.665 7  88368889.22745                  21580566.742
                  21580571.074                          47.600          34.000

 107414420.466 8  83699611.447 8                  20440289.813
  20440294.699    20440295.035                          51.000          48.800

 126679515.382 6  98711334.882 6  94598373.649 7  24106290.055
  24106296.648    24106297.965    24106297.984          39.900          39.000
        42.500
 19  3 26 20  8  0.0000000  0 11G17G08G30G13G09G18G11G23G28G07G27
 129562976.895 6 100958175.586 5                  24655016.641
  24655024.121    24655025.934                          38.500          34.700

 114183508.091 8  88974104.830 7  85266867.098 8  21728370.867
  21728379.266    21728379.285    21728379.453          49.500          46.100
        51.000
 108449509.316 8  84506135.198 8  80985049.654 8  20637252.070
  20637259.117    20637259.355    20637259.512          48.500          49.100
        53.900
 126523415.255 6  98589710.18343                  24076610.602
                  24076615.871                          40.100          19.600

 118673720.503 7  92473043.516 7  88620000.636 7  22582860.094
  22582868.949    22582869.316    22582869.754          43.100          43.900
        47.800
 125292496.954 6  97630617.09744                  23842381.023
                  23842389.652                          39.200          25.300

 119222790.274 7  92900890.23844                  22687333.352
                  22687337.801                          45.000          29.100

 131732038.193 6 102648354.03742                  25067787.984
                  25067792.969                          38.800          16.300

 113363221.656 7  88335007.93745                  21572292.063
                  21572296.805                          47.000          34.600

 107427120.890 8  83709507.875 8                  20442706.609
  20442711.090    20442711.691                          51.200          48.900

 126782436.639 6  98791533.249 6  94675230.395 7  24125875.180
  24125882.000    24125883.086    24125883.352          40.100          38.400
        43.100
 19  3 26 20  8 30.0000000  0 11G17G08G30G13G09G18G11G23G28G07G27
 129452533.836 6 100872116.135 6                  24634000.242
  24634009.688    24634009.723                          37.100          39.000

 114243919.444 8  89021178.593 7  85311979.463 8  21739867.719
  21739875.352    21739875.160    21739875.230          49.300          46.400
        51.100
 108407891.553 8  84473705.769 8  80953971.459 9  20629332.641
  20629339.645    20629339.867    20629339.938          49.300          49.500
        54.000
 126428594.556 6  98515823.99043                  24058565.766
                  24058572.031                          38.800          19.000

 118776269.529 7  92552951.771 7  88696579.394 8  22602374.734
  22602383.750    22602383.980    22602384.168          42.200          43.500
        48.300
 125217348.402 6  97572059.86243                  23828082.555
                  23828089.410                          40.700          22.900

 119150032.336 7  92844195.76044                  22673488.547
                  22673493.121                          45.900          29.400

 131846813.164 6 102737788.97542                  25089627.125
                  25089633.316                          38.300          14.800

 113320007.054 7  88301334.23745                  21564067.961
                  21564073.160                          46.400          33.900

 107440203.036 8  83719701.741 8                  20445196.188
  20445200.793    20445201.281                          50.300          49.000

 126885590.272 6  98871912.664 6  94752260.684 7  24145504.273
  24145512.898    24145512.680    24145513.195          40.300          39.600
        42.600
 19  3 26 20  9  0.0000000  0 11G17G08G30G13G09G18G11G23G28G07G27
 129342155.700 6 100786107.225 5                  24612996.195
  24613002.344    24613004.445                          41.400          34.600

 114304810.802 8  89068626.405 7  85357450.264 8  21751455.141
  21751462.688    21751462.820    21751462.785          50.000          46.600
        51.500
 108366577.733 8  84441513.195 8  80923120.235 9  20621470.500
  20621478.168    20621478.137    20621478.309          48.300          49.400
        54.100
 126334062.173 6  98442162.42143                  24040577.383
                  24040583.039                          39.400          19.600

 118879041.781 7  92633034.040 7  88773324.870 8  22621932.438
  22621941.523    22621940.996    22621941.273          43.100          44.800
        48.400
 125142491.508 6  97513729.89244                  23813837.977
                  23813844.590                          40.400          25.600

 119077635.228 7  92787782.45345                  22659712.070
                  22659717.309                          44.700          30.700

 131961561.376 6 102827202.99942                  25111464.648
                  25111469.176                          37.900          15.600

 113277058.088 7  88267867.53445                  21555895.477
                  21555900.445                          46.300          34.200

 107453667.198 8  83730193.297 8                  20447758.398
  20447762.738    20447763.355                          51.800          48.800

 126988972.915 6  98952470.528 6  94829461.964 7  24165178.820
  24165185.539    24165185.895    24165186.387          40.900          38.400
        43.000
 19  3 26 20  9 30.0000000  0 12G17G01G08G30G13G09G18G11G23G28G07G27
 129231845.700 6 100700151.578 6                  24592005.523
  24592013.102    24592013.832                          41.500          39.000

 129757927.05015 101110088.232 5  96897165.357 6  24692111.625
  24692123.645                    24692121.789          31.300          33.300
        39.400
 114366180.597 8  89116447.018 7  85403278.350 8  21763133.406
  21763141.090    21763141.133    21763141.336          48.200          46.600
        51.800
 108325570.097 8  84409559.206 8  80892497.675 9  20613666.945
  20613674.684    20613674.691    20613674.930          48.100          48.900
        54.400
 126239821.313 6  98368728.01343                  24022645.078
                  24022649.168                          39.100          19.300

 118982035.227 7  92713288.630 7  88850235.512 8  22641531.750
  22641539.984    22641540.254    22641540.473          42.400          43.900
        48.100
 125067930.270 6  97455630.26143                  23799647.406
                  23799656.250                          39.900          23.000

 119005601.780 7  92731652.52045                  22646003.938
                  22646009.707                          45.200          31.300

 132076280.913 5                                  25133295.461
                                                        35.400

 113234375.070 7  88234608.06845                  21547773.016
                  21547778.445                          46.000          34.100

 107467515.275 8  83740984.017 8                  20450393.734
  20450397.883    20450398.328                          50.600          48.300

 127092582.395 6  99033205.194 6  94906832.635 7  24184894.930
  24184901.906    24184901.430    24184902.180          40.400          38.600
        43.400
 19  3 26 20 10  0.0000000  0 12G17G01G08G30G13G09G18G11G23G28G07G27
 129121606.185 6 100614250.689 5                  24571023.594
  24571032.574    24571033.957                          37.900          33.900

 129665789.212 5 101038292.627 5  96828361.240 6  24674578.797
  24674590.559                    24674589.305          32.200          35.300
        40.500
 114428026.321 7  89164638.493 7  85449461.833 8  21774902.156
  21774910.277    21774909.918    21774909.941          47.600          46.400
        51.200
 108284869.931 8  84377844.788 8  80862104.680 9  20605921.797
  20605929.215    20605929.645    20605930.016          49.200          49.500
        54.300
 126145874.938 6  98295523.11043                  24004767.922
                  24004772.066                          39.300          19.000

 119085246.795 7  92793713.177 7  88927309.015 7  22661172.727
  22661179.902    22661180.313    22661181.395          43.600          43.600
        47.800
 124993667.690 6  97397763.37944                  23785516.188
                  23785523.813                          39.200          24.200

 118933934.940 7  92675808.23545                  22632367.125
                  22632371.328                          45.300          30.900

 132190969.011 5                                  25155119.180
                                                        34.500

 113191956.980 7  88201555.03445                  21539702.156
                  21539706.688                          47.000          35.400

 107481747.103 8  83752073.750 8                  20453102.250
  20453105.879    20453106.387                          50.500          48.800

 127196415.614 6  99114114.130 6  94984370.386 7  24204653.977
  24204659.426    24204659.961    24204661.641          41.000          37.600
        44.100
 19  3 26 20 10 30.0000000  0 12G17G01G08G30G13G09G18G11G23G28G07G27
 129011439.485 7 100528406.611 6                  24550063.828
  24550072.141    24550071.668                          43.400          40.400

 129573690.884 5 100966527.725 5  96759586.603 6  24657051.766
  24657064.180                    24657063.875          33.700          35.300
        40.400
 114490345.239 8  89213198.665 7  85495998.675 8  21786760.711
  21786768.613    21786768.746    21786768.469          48.200          46.600
        51.100
 108244478.812 7  84346371.174 8  80831942.490 9  20598235.922
  20598243.332    20598243.508    20598243.719          47.800          49.600
        54.200
 126052225.564 6  98222549.63743                  23986947.977
                  23986951.336                          40.600          19.600

 119188673.692 7  92874305.519 7  89004543.345 8  22680853.953
  22680861.020    22680861.730    22680863.191          42.900          43.900
        48.200
 124919706.977 6  97340131.65443                  23771442.227
                  23771449.070                          39.400          23.900

 118862637.569 7  92620251.88144                  22618799.000
                  22618803.762                          44.000          29.600

 132305622.898 5                                  25176936.992
                                                        31.900

 113149803.423 7  88168708.13245                  21531679.844
                  21531685.160                          46.100          34.200

 107496363.860 8  83763463.413 8                  20455883.719
  20455887.754    20455888.309                          50.700          49.300

 127300469.743 6  99195195.272 6  95062073.121 7  24224454.203
  24224460.566    24224461.309    24224462.281          40.100          38.600
        43.900
 19  3 26 20 11  0.0000000  0 12G17G01G08G30G13G09G18G11G23G28G07G27
 128901347.610 6 100442620.825 5                  24529112.266
  24529118.125    24529120.203                          41.600          34.100

 129481635.324 6 100894796.175 5  96690843.855 6  24639536.977
  24639546.645    24639545.770    24639546.449          36.100          34.700
        41.300
 114553135.403 7  89262126.075 7  85542887.434 8  21798709.859
  21798717.563    21798717.328    21798716.953          47.800          46.300
        50.800
 108204398.235 8  84315139.571 8  80802012.202 9  20590608.469
  20590616.246    20590616.480    20590616.582          48.400          49.200
        54.300
 125958875.841 6  98149809.61743                  23969183.203
                  23969187.469                          40.400          18.600

 119292313.057 7  92955063.409 7  89081936.308 8  22700577.508
  22700583.320    22700583.648    22700585.418          43.700          43.900
        48.300
 124846051.595 6  97282737.91243                  23757427.219
                  23757433.230                          40.300          22.500

 118791712.864 7  92564985.91744                  22605301.922
                  22605306.918                          43.700          29.500

 132420240.36515                                  25198746.969
                                                        30.500

 113107914.533 7  88136067.46145                  21523708.625
                  21523713.633                          46.400          34.500

 107511366.701 8  83775153.924 8                  20458738.469
  20458743.031    20458743.391                          50.200          48.900

 127404741.927 6  99276446.282 6  95139938.665 7  24244295.398
  24244302.590    24244303.508    24244304.770          40.400          38.700
        44.200
 19  3 26 20 11 30.0000000  0 12G17G01G08G30G13G09G18G11G23G28G07G27
 128791333.243 7 100356895.520 6                  24508176.734
  24508185.465    24508186.012                          42.100          37.900

 129389625.612 5 100823100.392 6  96622135.370 6  24622028.148
  24622037.063    24622037.539    24622037.105          35.700          36.500
        41.600
 114616394.202 7  89311418.611 7  85590126.123 8  21810746.695
  21810754.922    21810755.074    21810754.934          47.800          46.300
        51.000
 108164629.764 8  84284151.153 8  80772314.964 9  20583041.109
  20583048.520    20583048.586    20583048.797          48.700          48.900
        54.400
 125865828.545 6  98077305.27243                  23951474.891
                  23951480.984                          40.000          18.600

 119396162.074 7  93035984.689 7  89159485.842 8  22720337.898
  22720344.777    22720345.461    22720347.527          42.500          43.300
        48.500
 124772704.630 6  97225584.47043                  23743469.070
                  23743475.500                          40.400          22.200

 118721163.782 7  92510012.62345                  22591875.922
                  22591882.086                          44.400          30.500

 132534819.161 4                                  25220552.219
                                                        28.000

 113066289.438 7  88103632.34845                  21515787.633
                  21515792.309                          47.200          33.500

 107526756.109 8  83787145.675 8                  20461666.922
  20461671.176    20461671.762                          50.700          49.000

 127509229.325 6  99357865.004 6  95217964.919 7  24264180.102
  24264186.465    24264187.160    24264188.395          39.700          39.200
        44.100
 19  3 26 20 12  0.0000000  0 12G17G01G08G30G13G09G18G11G23G28G07G27
 128681399.152 7 100271232.620 5                  24487258.172
  24487263.297    24487263.742                          43.000          35.600

 129297665.477 6 100751443.300 6  96553463.950 7  24604528.398
  24604538.344    24604538.457    24604537.297          37.200          37.600
        42.600
 114680120.191 8  89361075.228 7  85637713.698 8  21822873.711
  21822881.836    21822881.887    21822881.582          48.400          47.000
        51.400
 108125175.405 8  84253407.508 8  80742852.314 9  20575532.836
  20575540.129    20575540.402    20575541.207          49.700          48.600
        54.400
 125773086.763 6  98005038.99243                  23933828.633
                  23933832.895                          39.900          19.900

 119500218.452 7  93117067.492 7  89237190.216 8  22740139.438
  22740145.531    22740146.645    22740148.281          43.700          43.000
        48.300
 124699670.024 6  97168674.42543                  23729568.664
                  23729576.617                          37.900          20.400

 118650993.111 7  92455334.21045                  22578523.594
                  22578529.348                          43.900          30.400

 132649357.29614                                  25242348.336
                                                        25.300

 113024928.500 7  88071403.06645                  21507916.164
                  21507921.242                          45.400          33.300

 107542533.195 8  83799439.501 8                  20464669.266
  20464673.621    20464673.816                          50.300          48.300

 127613929.645 6  99439449.600 6  95296150.144 7  24284103.344
  24284110.816    24284111.316    24284112.168          38.800          39.400
        43.900
 19  3 26 20 12 30.0000000  0 11G17G01G08G30G13G09G18G11G28G07G27
 128571547.582 7 100185634.130 5                  24466353.922
  24466359.441    24466360.293                          42.400          33.500

 129205758.426 6 100679827.373 6  96484832.113 7  24587039.961
  24587049.020    24587050.313    24587047.410          39.700          39.200
        43.100
 114744310.596 8  89411093.701 7  85685648.068 8  21835089.203
  21835097.191    21835097.105    21835096.602          49.400          46.900
        50.800
 108086036.879 8  84222909.962 8  80713625.483 9  20568085.609
  20568092.898    20568092.809    20568093.543          48.700          49.100
        54.500
 125680653.613 6  97933013.21843                  23916239.664
                  23916243.262                          40.800          20.600

 119604479.457 6  93198309.806 7  89315047.419 8  22759979.648
  22759986.016    22759986.785    22759988.215          41.700          42.500
        48.800
 124626950.990 6  97112010.26743                  23715732.000
                  23715738.859                          38.500          20.100

 118581203.923 7  92400953.05745                  22565243.906
                  22565248.773                          44.500          30.300

 112983830.875 7  88039378.97845                  21500095.383
                  21500100.656                          45.500          33.700

 107558699.033 8  83812036.237 8                  20467746.008
  20467749.813    20467750.227                          51.300          49.100

 127718840.114 6  99521197.935 6  95374492.306 7  24304065.906
  24304074.719    24304075.512    24304075.988          38.400          39.400
        43.400
 19  3 26 20 13  0.0000000  0 11G17G01G08G30G13G09G18G11G28G07G27
 128461780.563 7 100100101.492 6                  24445466.977
  24445471.480    24445471.242                          42.000          36.300

 129113907.199 6 100608255.037 6  96416241.955 7  24569558.555
  24569570.984    24569572.000    24569568.281          37.900          39.600
        42.900
 114808962.701 8  89461471.972 7  85733927.239 8  21847391.406
  21847400.207    21847399.969    21847399.430          48.500          46.400
        51.800
 108047215.309 8  84192659.383 8  80684635.367 9  20560697.602
  20560705.672    20560705.594    20560705.781          48.800          49.700
        54.500
 125588531.288 6  97861229.59643                  23898707.711
                  23898713.215                          40.400          20.100

 119708941.922 7  93279709.080 7  89393055.030 8  22779857.219
  22779864.711    22779865.020    22779866.895          42.600          42.500
        48.600
 124554550.529 6  97055594.37743                  23701956.391
                  23701962.219                          39.700          21.500

 118511798.764 7  92346871.16545                  22552036.680
                  22552040.871                          44.900          31.100

 112942995.988 7  88007559.60445                  21492324.375
                  21492330.293                          45.300          34.000

 107575253.754 8  83824936.020 8                  20470895.148
  20470900.086    20470900.621                          51.000          48.600

 127823957.518 6  99603107.594 6  95452989.034 7  24324068.758
  24324078.809    24324078.645    24324078.539          39.700          39.700
        42.900
 19  3 26 20 13 30.0000000  0 11G17G01G08G30G13G09G18G11G28G07G27
 128352101.137 7 100014637.148 5                  24424594.727
  24424599.754    24424599.949                          42.200          35.300

 129022115.602 6 100536729.140 6  96347696.296 7  24552091.969
  24552103.660    24552105.156    24552100.844          37.200          40.300
        43.400
 114874074.507 8  89512208.424 7  85782549.663 8  21859782.008
  21859790.293    21859790.254    21859789.695          49.900          46.400
        51.100
 108008712.772 7  84162657.409 8  80655883.466 9  20553371.383
  20553378.445    20553378.918    20553378.668          47.900          49.700
        54.300
 125496723.017 6  97789690.72043                  23881237.656
                  23881242.926                          40.900          19.900

 119813603.487 7  93361263.541 7  89471211.339 8  22799773.828
  22799780.945    22799781.746    22799783.852          42.100          42.400
        49.200
 124482472.286 6  96999429.53243                  23688239.563
                  23688245.879                          38.800          21.300

 118442780.885 7  92293091.02345                  22538902.320
                  22538907.191                          44.500          30.700

 112902423.872 7  87975944.98845                  21484604.430
                  21484609.484                          45.900          34.100

 107592198.780 8  83838139.945 8                  20474119.945
  20474124.680    20474125.199                          51.100          48.500

 127929279.591 6  99685176.695 6  95531638.588 7  24344112.086
  24344120.945    24344120.621    24344120.688          40.200          39.000
        42.000
 19  3 26 20 14  0.0000000  0 11G17G01G08G30G13G09G18G11G28G07G27
 128242510.624 6  99929241.968 5                  24403740.414
  24403744.344    24403744.922                          41.600          35.200

 128930386.093 6 100465251.627 6  96279197.035 7  24534637.680
  24534647.445    24534648.996    24534645.699          38.600          39.400
        43.600
 114939642.583 8  89563300.453 7  85831512.834 8  21872259.570
  21872267.805    21872267.707    21872266.918          50.100          46.800
        51.300
 107970530.042 8  84132904.648 8  80627370.400 9  20546105.281
  20546112.609    20546112.875    20546112.613          49.900          49.600
        54.100
 125405230.604 6  97718397.93843                  23863827.813
                  23863832.398                          41.800          20.900

 119918460.629 7  93442970.343 7  89549513.682 8  22819727.680
  22819734.914    22819735.473    22819737.246          42.000          42.600
        48.900
 124410718.760 6  96943517.73343                  23674584.688
                  23674592.813                          40.300          22.500

 118374152.384 7  92239614.29645                  22525842.094
                  22525848.219                          45.100          30.900

 112862113.109 7  87944534.01945                  21476933.820
                  21476938.754                          47.600          33.900

 107609534.199 8  83851648.038 8                  20477419.719
  20477423.227    20477423.762                          49.900          48.400

 128034802.741 6  99767402.485 6  95610438.307 6  24364191.945
  24364200.105    24364200.926    24364200.805          39.600          38.100
        41.700
 19  3 26 20 14 30.0000000  0 11G17G01G08G30G13G09G18G11G28G07G27
 128133011.626 7  99843918.177 5                  24382903.594
  24382907.727    24382907.938                          42.400          35.700

 128838722.036 6 100393825.125 6  96210746.643 7  24517194.836
  24517203.551    24517205.352    24517203.480          39.200          38.600
        43.900
 115005665.296 8  89614746.691 7  85880815.480 8  21884822.453
  21884831.559    21884831.398    21884830.813          48.800          47.300
        50.500
 107932668.814 8  84103402.378 8  80599097.393 9  20538900.617
  20538907.844    20538908.012    20538908.156          49.700          49.500
        54.200
 125314057.147 6  97647353.75343                  23846476.203
                  23846482.758                          41.800          20.400

 120023510.596 6  93524827.410 7  89627960.032 8  22839717.617
  22839725.391    22839726.066    22839727.316          41.100          43.400
        48.300
 124339293.319 6  96887861.61744                  23660993.586
                  23661001.039                          41.300          24.900

 118305916.355 7  92186443.36645                  22512858.633
                  22512863.672                          45.500          30.900

 112822063.526 7  87913326.57745                  21469312.891
                  21469317.219                          47.300          33.600

 107627260.955 8  83865461.098 8                  20480792.266
  20480796.441    20480797.184                          50.300          48.100

 128140524.277 6  99849782.853 6  95689386.191 6  24384310.266
  24384318.527    24384319.340    24384318.555          39.200          37.600
        41.000
 19  3 26 20 15  0.0000000  0 11G17G01G08G30G13G09G18G11G28G07G27
 128023606.433 7  99758667.465 5                  24362084.805
  24362086.961    24362088.402                          42.800          33.400

 128747126.686 6 100322452.164 6  96142347.562 7  24499764.742
  24499773.520    24499774.527    24499774.379          39.200          39.500
        43.700
 115072139.885 8  89666545.059 7  85930455.591 8  21897473.297
  21897481.207    21897481.152    21897480.473          49.500          47.000
        50.300
 107895130.500 8  84074151.750 8  80571065.534 9  20531757.305
  20531764.801    20531764.875    20531764.789          48.600          49.700
        54.700
 125223205.251 6  97576560.07443                  23829186.969
                  23829193.992                          40.600          20.400

 120128750.488 6  93606832.464 7  89706548.217 8  22859743.953
  22859752.016    22859752.578    22859753.535          41.100          43.400
        48.000
 124268199.099 6  96832463.54544                  23647465.375
                  23647472.398                          41.000          26.500

 118238075.329 7  92133580.28745                  22499949.008
                  22499953.820                          45.700          30.900

 112782274.653 7  87882322.27645                  21461741.602
                  21461745.422                          46.400          33.800

 107645379.139 8  83879579.163 8                  20484239.609
  20484244.703    20484245.207                          49.700          48.300

 128246441.281 6  99932315.607 6  95768480.043 6  24404466.594
  24404473.781    24404474.355    24404473.813          39.100          37.200
        41.600
 19  3 26 20 15 30.0000000  0 11G17G01G08G30G13G09G18G11G28G07G27
 127914297.812 6  99673492.096 6                  24341281.547
  24341289.715    24341289.523                          40.500          38.200

 128655603.846 6 100251135.753 6  96074002.631 7  24482348.758
  24482356.863    24482357.504    24482358.754          38.800          38.800
        45.000
 115139064.146 8  89718693.809 7  85980431.480 8  21910208.297
  21910216.316    21910216.281    21910215.625          50.300          46.800
        50.800
 107857917.248 7  84045154.403 8  80543276.427 9  20524675.555
  20524682.703    20524683.270    20524683.555          47.400          49.600
        54.800
 125132677.868 6  97506019.29943                  23811960.766
                  23811967.629                          40.700          19.900

 120234178.073 7  93688983.782 7  89785276.559 7  22879806.031
  22879814.949    22879815.121    22879816.176          42.000          43.700
        47.300
 124197440.003 7  96777326.65244                  23634000.883
                  23634007.105                          42.500          26.200

 118170632.792 7  92081027.67645                  22487114.539
                  22487119.063                          45.500          30.700

 112742746.649 7  87851521.24345                  21454218.602
                  21454223.645                          45.600          33.400

 107663890.296 8  83894003.444 8                  20487762.430
  20487767.039    20487767.645                          50.800          48.800

 128352551.637 6 100014998.949 6  95847718.237 6  24424658.094
  24424666.742    24424666.652    24424665.230          38.400          38.200
        40.600
 19  3 26 20 16  0.0000000  0 11G17G01G08G30G13G09G18G11G28G07G27
 127805088.115 6  99588393.582 6                  24320500.398
  24320508.629    24320507.344                          39.800          39.700

 128564156.615 6 100179878.218 6  96005714.189 7  24464944.953
  24464954.840    24464955.488    24464956.465          38.300          39.200
        45.400
 115206435.618 8  89771191.061 7  86030741.344 8  21923028.977
  21923036.668    21923036.566    21923035.555          50.200          47.200
        50.000
 107821030.369 7  84016411.386 8  80515731.029 9  20517656.539
  20517663.641    20517663.910    20517664.188          47.900          49.500
        54.600
 125042477.938 6  97435733.64743                  23794796.219
                  23794802.539                          41.400          20.400

 120339790.334 7  93771279.000 7  89864142.787 8  22899904.320
  22899911.953    22899912.242    22899913.961          42.600          44.000
        48.000
 124127019.006 7  96722453.20144                  23620599.891
                  23620606.164                          42.700          25.100

 118103591.151 7  92028787.45745                  22474356.328
                  22474361.395                          44.300          31.000

 112703478.576 7  87820922.76545                  21446746.359
                  21446751.324                          46.500          34.200

 107682795.136 8  83908734.479 8                  20491360.383
  20491364.262    20491364.922                          50.100          48.100

 128458852.265 6 100097830.591 6  95927098.523 7  24444886.859
  24444894.426    24444895.109    24444894.285          37.200          38.000
        42.400
 19  3 26 20 16 30.0000000  0 11G17G01G08G30G13G09G18G11G28G07G27
 127695979.284 6  99503373.818 6                  24299738.539
  24299744.750    24299744.168                          41.100          37.900

 128472788.286 6 100108682.173 6  95937484.655 7  24447557.648
  24447568.246    24447569.023    24447569.004          37.100          39.600
        45.600
 115274251.923 8  89824034.917 7  86081383.376 8  21935934.266
  21935941.641    21935941.574    21935940.129          49.600          46.600
        49.100
 107784471.440 8  83987923.921 8  80488430.537 9  20510699.438
  20510706.633    20510706.992    20510707.168          49.600          49.600
        54.300
 124952608.073 6  97365705.22743                  23777694.992
                  23777701.020                          41.100          20.900

 120445584.413 7  93853715.885 7  89943144.806 8  22920037.945
  22920044.406    22920044.543    22920046.082          43.200          43.200
        48.000
 124056939.227 6  96667845.61043                  23607262.172
                  23607270.941                          41.600          22.800

 118036953.388 7  91976861.94945                  22461675.250
                  22461681.578                          43.900          30.800

 112664470.192 7  87790526.63045                  21439324.289
                  21439328.574                          47.900          35.000

 107702094.302 8  83923772.771 8                  20495032.586
  20495037.270    20495037.633                          50.000          48.300

 128565340.408 6 100180808.297 6  96006618.845 6  24465150.203
  24465159.164    24465159.332    24465158.223          37.800          38.200
        41.700
 19  3 26 20 17  0.0000000  0 11G17G01G08G30G13G09G18G11G28G07G27
 127586973.441 7  99418434.333 6                  24278995.430
  24279002.121    24279002.551                          43.400          39.000

 128381501.603 6 100037549.776 6  95869316.126 7  24430188.359
  24430197.887    24430197.352    24430196.984          39.200          40.100
        45.800
 115342509.828 8  89877222.898 7  86132355.199 8  21948923.039
  21948930.344    21948930.680    21948928.816          49.900          46.400
        49.500
 107748241.487 7  83959692.786 8  80461375.704 9  20503805.328
  20503811.988    20503812.449    20503812.734          47.900          48.900
        54.400
 124863070.409 6  97295935.65843                  23760656.141
                  23760662.375                          41.100          21.300

 120551556.999 7  93936291.891 7  90022280.122 7  22940203.320
  22940210.629    22940210.816    22940211.703          42.700          44.500
        47.500
 123987203.330 7  96613505.97644                  23593992.586
                  23594000.316                          42.200          25.300

 117970721.727 7  91925252.90845                  22449072.648
                  22449078.141                          45.400          32.100

 112625720.406 7  87760332.01045                  21431949.953
                  21431955.109                          46.300          34.400

 107721787.666 8  83939118.251 8                  20498780.070
  20498784.605    20498785.313                          49.600          48.900

 128672012.752 6 100263929.560 6  96086276.708 6  24485450.102
  24485458.180    24485459.266    24485457.000          38.900          38.300
        41.800
 19  3 26 20 17 30.0000000  0 11G17G01G08G30G13G09G18G11G28G07G27
 127478073.109 7  99333577.017 6                  24258272.828
  24258279.156    24258279.039                          42.800          38.500

 128290300.088 6  99966483.733 6  95801211.223 7  24412834.008
  24412843.313    24412843.219    24412841.250          38.900          41.000
        45.600
 115411207.219 8  89930753.322 7  86183655.187 8  21961995.070
  21962003.195    21962002.930    21962001.707          49.400          46.000
        49.600
 107712342.293 7  83931719.398 8  80434567.872 9  20496973.703
  20496980.836    20496980.969    20496981.602          47.800          49.500
        54.400
 124773867.842 6  97226427.19443                  23743681.938
                  23743688.000                          40.600          21.100

 120657705.530 7  94019004.938 7  90101546.801 7  22960403.430
  22960409.465    22960409.996    22960410.941          43.400          44.000
        46.700
 123917814.907 6  96559437.13444                  23580787.539
                  23580795.180                          41.600          25.500

 117904899.036 7  91873962.51745                  22436546.125
                  22436552.074                          45.100          30.500

 112587228.878 7  87730338.63345                  21424625.016
                  21424630.293                          47.100          35.100

 107741876.564 8  83954771.939 8                  20502603.563
  20502607.516    20502607.969                          50.000          48.500

 128778866.759 6 100347192.381 6  96166070.256 7  24505782.977
  24505791.613    24505792.242    24505790.809          39.600          38.800
        42.000
 19  3 26 20 18  0.0000000  0 11G17G01G08G30G13G09G18G11G28G07G27
 127369280.665 6  99248803.817 6                  24237570.281
  24237577.340    24237577.902                          40.900          40.400

 128199187.153 6  99895486.726 6  95733172.439 7  24395495.125
  24395503.934    24395504.645    24395502.547          38.100          39.900
        44.900
 115480341.756 7  89984624.383 7  86235281.630 8  21975151.211
  21975158.965    21975158.664    21975157.945          47.500          46.200
        49.300
 107676775.478 7  83904004.976 8  80408008.234 9  20490205.344
  20490212.750    20490213.332    20490213.371          47.300          49.500
        54.500
 124685003.046 6  97157181.94043                  23726771.148
                  23726777.184                          40.200          21.500

 120764027.194 7  94101852.934 7  90180942.784 7  22980635.641
  22980641.961    22980642.527    22980643.707          43.200          43.700
        46.200
 123848777.245 6  96505641.59543                  23567651.258
                  23567657.262                          41.100          22.000

 117839488.084 7  91822992.96045                  22424099.680
                  22424104.020                          44.200          31.200

 112548995.305 7  87700546.25645                  21417349.859
                  21417354.629                          45.700          34.900

 107762361.506 8  83970734.208 8                  20506501.633
  20506505.117    20506505.859                          48.900          48.300

 128885899.745 6 100430594.690 6  96245997.411 6  24526153.195
  24526160.703    24526160.582    24526158.047          40.500          38.900
        40.400
 19  3 26 20 18 30.0000000  0 11G17G01G08G30G13G09G18G11G28G07G27
 127260598.953 6  99164116.810 6                  24216887.281
  24216897.852    24216897.133                          41.000          41.300

 128108166.568 6  99824561.702 6  95665202.667 7  24378172.555
  24378181.125    24378183.363    24378182.051          37.100          37.300
        45.500
 115549911.117 8  90038834.283 7  86287232.767 8  21988389.961
  21988397.328    21988397.402    21988396.793          48.400          45.600
        50.100
 107641543.025 7  83876551.128 8  80381698.299 9  20483501.023
  20483508.457    20483508.688    20483508.629          47.400          49.700
        54.400
 124596479.349 6  97088202.47843                  23709927.328
                  23709931.602                          39.900          22.200

 120870519.665 7  94184833.996 7  90260466.321 7  23000899.234
  23000906.891    23000907.660    23000908.254          42.400          43.300
        46.100
 123780093.940 6  96452122.15943                  23554580.586
                  23554587.793                          41.400          21.300

 117774492.121 7  91772346.77645                  22411731.422
                  22411736.246                          45.000          31.700

 112511019.561 7  87670954.78245                  21410122.641
                  21410128.270                          45.600          34.400

 107783243.676 8  83987006.014 7                  20510474.789
  20510478.750    20510479.609                          49.900          47.800

 128993109.458 6 100514134.689 6  96326056.605 6  24546554.078
  24546561.773    24546561.957    24546559.016          41.500          38.400
        39.800
 19  3 26 20 19  0.0000000  0 11G17G01G08G30G13G09G18G11G28G07G27
 127152030.418 6  99079518.029 6                  24196227.383
  24196236.707    24196236.297                          41.600          39.200

 128017241.775 6  99753711.364 6  95597304.409 7  24360869.992
  24360878.086    24360880.293    24360880.383          37.800          37.000
        45.600
 115619912.788 8  90093381.031 7  86339506.733 8  22001711.234
  22001718.645    22001718.281    22001717.500          49.000          45.800
        49.500
 107606646.679 8  83849359.181 8  80355639.334 9  20476860.398
  20476867.918    20476868.074    20476868.039          49.500          50.200
        54.400
 124508299.712 6  97019491.08443                  23693145.688
                  23693151.586                          40.100          22.000

 120977180.260 7  94267946.115 7  90340115.433 7  23021195.383
  23021203.645    23021204.141    23021205.609          42.900          43.000
        46.100
 123711768.233 6  96398881.36743                  23541577.531
                  23541586.031                          40.500          22.000

 117709913.904 7  91722026.11345                  22399442.305
                  22399447.559                          45.300          31.300

 112473301.556 7  87641564.13345                  21402944.648
                  21402950.480                          47.000          34.600

 107804523.869 8  84003587.973 8                  20514524.281
  20514528.188    20514529.336                          50.000          48.100

 129100493.184 6 100597810.303 6  96406245.747 6  24566987.992
  24566996.031    24566996.270    24566994.379          40.500          38.000
        39.600
 19  3 26 20 19 30.0000000  0 11G17G01G08G30G13G09G18G11G28G07G27
 127043577.426 7  98995009.300 6                  24175590.594
  24175598.250    24175598.699                          42.500          38.600

 127926415.932 6  99682938.087 6  95529480.033 7  24343587.273
  24343596.012    24343597.051    24343597.488          38.300          39.000
        45.500
 115690344.642 8  90148262.992 7  86392101.940 8  22015113.625
  22015121.570    22015121.367    22015120.121          49.200          45.800
        49.400
 107572087.776 7  83822430.163 8  80329832.366 9  20470283.891
  20470291.098    20470291.570    20470292.043          47.900          49.600
        54.600
 124420466.469 6  96951049.65743                  23676431.570
                  23676437.297                          40.400          20.900

 121084006.016 6  94351186.922 7  90419887.863 7  23041523.000
  23041531.613    23041532.332    23041534.227          41.900          42.600
        46.300
 123643803.141 6  96345921.54143                  23528643.688
                  23528651.840                          40.900          20.900

 117645756.097 7  91672033.02645                  22387233.625
                  22387238.199                          45.200          30.500

 112435840.370 7  87612373.61845                  21395816.547
                  21395821.500                          46.000          34.600

 107826202.449 8  84020480.364 8                  20518648.906
  20518653.887    20518654.625                          49.300          48.500

 129208048.125 6 100681619.307 6  96486562.732 6  24587456.406
  24587462.551    24587463.457    24587460.891          40.200          36.700
        38.300
 19  3 26 20 20  0.0000000  0 11G17G01G08G30G13G09G18G11G28G07G27
 126935241.349 7  98910591.640 6                  24154975.023
  24154983.027    24154982.527                          42.100          38.300

 127835691.926 6  99612244.132 6  95461731.674 7  24326323.117
  24326333.566    24326333.105    24326333.348          39.000          40.100
        45.700
 115761203.347 8  90203477.547 7  86445015.909 8  22028597.602
  22028605.168    22028605.188    22028604.113          50.300          46.200
        49.800
 107537867.386 8  83795764.937 8  80304278.197 9  20463772.867
  20463779.387    20463779.512    20463780.063          48.900          49.700
        54.600
 124332982.029 6  96882880.00443                  23659783.281
                  23659789.570                          39.600          21.100

 121190993.675 7  94434553.864 7  90499781.179 7  23061883.055
  23061891.598    23061892.180    23061892.734          42.600          42.000
        47.200
 123576201.577 6  96293245.01843                  23515780.602
                  23515787.035                          40.800          20.900

 117582021.139 7  91622369.43644                  22375104.289
                  22375109.730                          45.100          29.900

 112398635.083 7  87583382.49845                  21388736.461
                  21388741.410                          45.800          34.600

 107848279.534 8  84037683.298 8                  20522850.914
  20522855.117    20522855.496                          50.200          48.500

 129315771.014 6 100765559.260 6  96567005.130 6  24607953.453
  24607962.332    24607962.277    24607961.523          37.600          36.700
        39.600
 19  3 26 20 20 30.0000000  0 11G17G01G08G30G13G09G18G11G28G07G27
 126827024.694 7  98826267.103 6                  24134381.148
  24134386.941    24134389.355                          43.100          36.600

 127745072.642 6  99541631.796 6  95394061.563 7  24309079.430
  24309089.559    24309089.926    24309088.734          39.900          40.400
        45.300
 115832486.186 8  90259022.617 7  86498246.596 8  22042162.734
  22042169.637    22042169.566    22042169.051          50.000          45.900
        49.800
 107503986.742 8  83769364.435 8  80278977.716 9  20457325.031
  20457332.172    20457332.352    20457332.691          48.700          49.700
        54.500
 124245848.604 6  96814983.86843                  23643201.711
                  23643208.668                          38.700          20.100

 121298140.029 7  94518044.474 7  90579792.998 7  23082273.125
  23082281.012    23082281.434    23082281.832          43.000          42.600
        47.000
 123508966.221 7  96240853.86743                  23502986.813
                  23502993.258                          42.700          22.300

 117518710.990 7  91573036.86245                  22363057.852
                  22363062.414                          45.600          32.100

 112361684.673 7  87554589.98745                  21381704.883
                  21381709.719                          47.200          34.300

 107870755.731 8  84055197.203 8                  20527127.461
  20527132.254    20527132.883                          49.700          48.300

 129423658.852 5 100849627.669 5  96647570.712 6  24628482.211
  24628491.914    24628492.703    24628491.324          35.000          35.700
        39.900
 19  3 26 20 21  0.0000000  0 11G17G01G08G30G13G09G18G11G28G07G27
 126718929.724 7  98742037.328 6                  24113810.828
  24113818.227    24113818.777                          42.900          36.900

 127654561.723 6  99471103.858 6  95326472.347 7  24291857.289
  24291865.027    24291865.652    24291863.922          39.300          39.700
        45.600
 115904190.910 8  90314896.419 7  86551792.316 8  22055806.789
  22055814.445    22055814.348    22055814.059          49.700          45.300
        49.900
 107470447.615 8  83743230.060 8  80253932.272 9  20450942.117
  20450950.137    20450950.289    20450950.184          48.200          50.000
        54.400
 124159069.050 6  96747363.47043                  23626689.797
                  23626694.789                          40.500          20.600

 121405442.520 7  94601656.755 6  90659921.395 7  23102692.156
  23102699.617    23102700.129    23102700.570          43.200          41.800
        47.300
 123442100.552 7  96188750.76443                  23490263.031
                  23490270.125                          42.100          23.600

 117455828.869 7  91524037.83145                  22351091.250
                  22351096.398                          44.800          31.000

 112324989.182 7  87525996.13045                  21374722.344
                  21374726.723                          47.200          34.300

 107893631.582 8  84073022.527 8                  20531480.898
  20531485.230    20531485.945                          50.700          48.400

 129531709.136 6 100933822.634 6  96728257.527 7  24649046.961
  24649053.688    24649053.473    24649053.844          37.700          36.400
        42.400
 19  3 26 20 21 30.0000000  0 11G17G01G08G30G13G09G18G11G28G07G27
 126610959.012 7  98657904.358 6                  24093263.508
  24093271.434    24093271.805                          42.600          37.000

 127564162.875 6  99400663.346 6  95258966.860 7  24274654.547
  24274661.824    24274662.910    24274661.246          39.200          39.600
        45.700
 115976315.135 8  90371097.115 7  86605651.309 8  22069531.766
  22069539.301    22069539.023    22069538.719          49.800          45.300
        49.900
 107437251.963 8  83717363.310 8  80229143.312 9  20444625.445
  20444633.152    20444633.457    20444633.164          48.200          50.100
        54.400
 124072646.375 6  96680021.16643                  23610243.063
                  23610249.684                          39.700          21.300

 121512898.752 7  94685388.822 6  90740164.631 7  23123139.750
  23123147.664    23123148.016    23123148.328          43.200          41.100
        47.100
 123375607.942 7  96136938.40844                  23477610.188
                  23477616.590                          42.200          25.100

 117393377.939 7  91475374.78545                  22339207.352
                  22339212.563                          45.200          31.600

 112288548.454 8  87497600.77245                  21367787.938
                  21367792.523                          48.100          34.900

 107916908.484 8  84091160.364 7                  20535910.070
  20535914.316    20535915.160                          50.100          47.800

 129639919.522 6 101018142.374 6  96809063.908 7  24669638.258
  24669644.309    24669644.828    24669645.688          39.200          36.900
        43.000
 19  3 26 20 22  0.0000000  0 11G17G01G08G30G13G09G18G11G28G07G27
 126503115.147 7  98573870.276 6                  24072741.867
  24072749.531    24072749.555                          44.400          36.900

 127473879.552 6  99330312.814 6  95191547.628 7  24257471.391
  24257480.559    24257481.867    24257481.480          38.300          38.600
        45.200
 116048856.533 8  90427622.879 7  86659821.808 8  22083335.938
  22083343.824    22083343.668    22083342.840          49.400          45.500
        50.000
 107404401.384 8  83691765.467 8  80204612.044 9  20438375.086
  20438382.074    20438382.254    20438381.859          48.000          50.000
        54.400
 123986583.718 6  96612959.41443                  23593866.031
                  23593872.266                          40.500          20.600

 121620506.004 7  94769238.592 6  90820520.618 7  23143617.391
  23143624.109    23143624.230    23143625.426          42.900          40.700
        47.000
 123309491.968 6  96085419.51844                  23465027.883
                  23465034.813                          40.400          24.300

 117331360.636 7  91427049.61045                  22327404.867
                  22327411.398                          44.100          31.200

 112252361.817 7  87469403.42045                  21360901.406
                  21360906.684                          46.100          35.200

 107940586.764 8  84109610.970 7                  20540416.344
  20540420.609    20540421.168                          50.500          47.700

 129748287.354 6 101102584.777 6  96889987.862 7  24690260.023
  24690267.148    24690267.320    24690268.027          41.000          38.300
        44.200
 19  3 26 20 22 30.0000000  0 11G17G01G08G30G13G09G18G11G28G07G27
 126395400.952 7  98489937.236 6                  24052245.992
  24052251.418    24052252.672                          45.800          37.900

 127383715.494 6  99260055.162 6  95124217.386 7  24240313.477
  24240322.902    24240323.141    24240325.145          37.400          37.300
        45.300
 116121812.614 8  90484471.746 7  86714301.989 8  22097219.156
  22097227.313    22097227.344    22097226.098          49.900          46.400
        49.700
 107371897.776 8  83666437.980 8  80180339.861 9  20432189.266
  20432196.695    20432197.008    20432196.684          48.100          50.200
        54.300
 123900884.175 7  96546180.58143                  23577559.734
                  23577564.070                          42.200          21.500

 121728261.746 7  94853204.090 6  90900987.502 7  23164122.078
  23164128.094    23164128.984    23164130.266          43.600          39.800
        47.000
 123243755.683 6  96034196.44143                  23452516.898
                  23452526.297                          38.100          23.000

 117269780.067 7  91379064.77745                  22315686.547
                  22315692.301                          45.200          30.000

 112216429.180 8  87441403.97645                  21354064.578
                  21354069.160                          48.300          35.200

 107964667.186 8  84128374.929 8                  20544998.977
  20545003.113    20545003.609                          50.900          48.300

 129856810.221 6 101187148.032 6  96971027.611 7  24710909.781
  24710918.469    24710918.059    24710919.465          40.800          39.900
        45.000
 19  3 26 20 23  0.0000000  0 11G17G01G08G30G13G09G18G11G28G07G27
 126287817.910 7  98406106.367 6                  24031772.547
  24031780.125    24031780.230                          44.800          39.600

 127293673.293 6  99189892.512 6  95056978.185 7  24223180.367
  24223188.680    24223188.707    24223192.527          37.200          37.500
        45.900
 116195180.352 8  90541641.400 7  86769089.575 8  22111180.727
  22111189.098    22111189.121    22111187.840          49.300          47.000
        50.000
 107339742.041 7  83641381.555 8  80156327.464 9  20426069.844
  20426077.637    20426077.645    20426077.750          47.900          49.200
        54.300
 123815549.487 7  96479686.06043                  23561321.406
                  23561325.281                          42.700          21.800

 121836162.589 6  94937282.610 6  90981562.736 7  23184653.078
  23184661.809    23184662.348    23184663.301          41.900          40.000
        47.200
 123178401.698 6  95983271.30944                  23440082.039
                  23440090.332                          39.400          24.500

 117208638.011 7  91331421.63045                  22304052.188
                  22304056.707                          44.600          30.400

 112180749.456 8  87413601.61145                  21347274.008
                  21347279.547                          48.200          34.900

 107989150.146 8  84147452.553 8                  20549657.406
  20549662.145    20549662.395                          49.300          48.200

 129965484.904 7 101271829.556 6  97052180.739 7  24731589.672
  24731598.234    24731598.734    24731599.223          42.500          41.200
        44.900
 19  3 26 20 23 30.0000000  0 11G17G01G08G30G13G09G18G11G28G07G27
 126180368.319 7  98322379.542 6                  24011327.883
  24011332.582    24011333.676                          45.600          38.500

 127203756.176 6  99119827.352 6  94989832.348 7  24206069.656
  24206077.879    24206078.211    24206081.750          38.600          37.500
        45.700
 116268957.393 8  90599130.006 7  86824182.811 8  22125219.914
  22125228.316    22125228.250    22125227.383          48.800          46.000
        50.300
 107307935.483 8  83616597.232 8  80132575.817 9  20420017.375
  20420024.836    20420025.258    20420025.059          48.200          50.100
        54.400
 123730581.914 7  96413477.55643                  23545151.898
                  23545156.719                          42.600          21.800

 121944205.518 6  95021471.848 7  91062244.058 7  23205212.328
  23205223.438    23205222.988    23205223.586          41.400          42.600
        47.200
 123113432.987 6  95932646.36544                  23427717.555
                  23427726.727                          40.400          24.500

 117147937.165 7  91284122.28445                  22292501.625
                  22292506.270                          44.700          31.200

 112145321.920 8  87385995.75845                  21340532.828
                  21340537.875                          48.200          35.400

 108014035.976 8  84166844.105 8                  20554392.883
  20554397.777    20554398.250                          49.700          48.400

 130074308.473 6 101356627.110 6  97133445.058 7  24752296.461
  24752306.453    24752306.684    24752308.125          41.600          41.100
        45.700
 19  3 26 20 24  0.0000000  0 11G17G01G08G30G13G09G18G11G28G07G27
 126073053.738 7  98238757.898 6                  23990906.586
  23990911.996    23990912.723                          44.500          40.900

 127113966.933 6  99049861.736 6  94922782.026 7  24188983.359
  24188992.695    24188992.418    24188993.652          38.800          38.300
        44.400
 116343140.278 8  90656934.827 7  86879579.103 8  22139336.344
  22139344.289    22139344.762    22139344.086          48.700          45.800
        50.700
 107276479.102 8  83592085.767 8  80109085.649 9  20414032.664
  20414039.305    20414039.285    20414039.074          48.200          50.300
        54.200
 123645984.106 7  96347557.19943                  23529053.133
                  23529058.109                          42.800          21.500

 122052387.128 7  95105769.141 7  91143028.962 7  23225799.930
  23225809.910    23225810.105    23225810.844          42.600          43.300
        47.200
 123048852.118 6  95882323.62743                  23415426.344
                  23415437.801                          38.300          23.000

 117087679.304 7  91237168.11245                  22281034.961
                  22281039.840                          44.900          31.300

 112110145.428 7  87358585.52545                  21333838.461
                  21333844.090                          46.200          34.800

 108039324.385 8  84186549.351 8                  20559205.141
  20559209.848    20559210.629                          49.900          48.100

 130183277.654 6 101441538.178 6  97214818.122 7  24773032.656
  24773042.984    24773042.957    24773043.836          41.600          40.900
        45.100
 19  3 26 20 24 30.0000000  0 11G17G01G08G30G13G09G18G11G28G07G27
 125965876.860 7  98155243.534 6                  23970511.391
  23970517.531    23970516.910                          43.300          40.400

 127024309.188 6  98979998.577 6  94855829.856 7  24171921.000
  24171932.195    24171931.891    24171930.371          38.200          38.100
        42.700
 116417726.570 7  90715054.003 7  86935276.637 8  22153529.695
  22153537.691    22153537.813    22153537.320          47.000          45.400
        50.200
 107245374.666 8  83567848.550 8  80085858.327 9  20408112.477
  20408120.082    20408120.539    20408120.043          48.000          50.200
        54.400
 123561758.596 7  96281926.96343                  23513025.516
                  23513029.824                          43.000          21.700

 122160704.875 7  95190172.544 7  91223915.532 7  23246415.227
  23246422.879    23246422.957    23246422.953          45.000          43.900
        46.800
 122984662.347 6  95832305.67643                  23403214.383
                  23403222.660                          40.900          22.900

 117027867.770 7  91190561.73745                  22269652.992
                  22269657.402                          45.500          30.700

 112075219.733 7  87331370.71345                  21327192.469
                  21327197.855                          47.000          35.100

 108065016.311 8  84206569.011 8                  20564094.031
  20564098.531    20564099.305                          48.700          48.100

 130292390.105 6 101526560.793 6  97296298.157 7  24793797.617
  24793806.441    24793806.688    24793807.750          41.100          41.600
        45.100
 19  3 26 20 25  0.0000000  0 11G17G01G08G30G13G09G18G11G28G07G27
 125858840.983 7  98071839.068 6                  23950141.328
  23950148.625    23950148.813                          42.000          38.900

 126934787.557 6  98910241.464 6  94788979.344 7  24154883.313
  24154896.000    24154896.496    24154893.777          37.000          37.900
        42.700
 116492714.731 7  90773486.340 7  86991274.274 8  22167799.836
  22167807.285    22167807.156    22167807.238          47.300          45.100
        50.200
 107214625.049 7  83543887.809 8  80062895.947 9  20402260.984
  20402268.730    20402269.023    20402268.723          47.800          49.700
        54.300
 123477909.277 7  96216589.82643                  23497069.047
                  23497073.227                          42.900          20.600

 122269157.214 7  95274680.768 7  91304902.580 7  23267054.414
  23267060.715    23267061.281    23267061.227          43.800          44.300
        46.500
 122920868.111 6  95782595.93443                  23391073.500
                  23391081.852                          39.800          22.800

 116968506.113 7  91144305.92345                  22258356.945
                  22258361.000                          45.200          31.900

 112040545.436 7  87304351.80445                  21320594.273
                  21320599.430                          47.500          35.000

 108091113.569 8  84226904.545 8                  20569060.711
  20569065.098    20569065.355                          48.900          48.300

 130401644.333 6 101611693.901 6  97377884.036 7  24814588.586
  24814597.199    24814597.258    24814597.980          39.400          41.600
        44.500
 19  3 26 20 25 30.0000000  0 11G17G01G08G30G13G09G18G11G28G07G27
 125751948.470 7  97988546.324 6                  23929799.797
  23929807.359    23929807.852                          42.700          39.200

 126845405.030 6  98840592.807 6  94722232.695 7  24137873.867
  24137884.973    24137886.539    24137885.008          36.200          36.900
        42.600
 116568102.199 8  90832229.828 7  87047570.100 8  22182145.633
  22182153.117    22182152.828    22182152.852          48.600          45.600
        50.200
 107184231.234 7  83520204.326 8  80040199.272 9  20396477.617
  20396484.738    20396484.934    20396484.996          47.700          49.600
        54.400
 123394438.543 7  96151547.73143                  23481185.133
                  23481188.953                          42.400          20.900

 122377740.968 7  95359291.421 7  91385987.794 7  23287715.594
  23287724.102    23287723.758    23287724.508          44.300          44.700
        46.000
 122857472.084 6  95733196.48943                  23379011.109
                  23379017.625                          39.000          23.000

 116909596.487 7  91098402.33645                  22247147.016
                  22247151.227                          45.100          31.700

 112006121.776 8  87277528.18445                  21314043.773
                  21314048.711                          48.000          35.800

 108117616.349 8  84247556.064 8                  20574104.016
  20574108.363    20574108.969                          49.000          48.100

 130511037.378 6 101696935.213 6  97459573.607 7  24835404.883
  24835413.316    24835413.836    24835414.660          38.300          41.700
        43.400
 19  3 26 20 26  0.0000000  0 11G17G01G08G30G13G09G18G11G28G07G27
 125645201.507 7  97905366.950 6                  23909486.313
  23909492.992    23909493.715                          43.000          38.000

 126756164.956 6  98771055.168 6  94655592.425 7  24120894.414
  24120903.832    24120904.152    24120903.859          37.300          36.800
        42.900
 116643886.092 8  90891282.210 7  87104161.958 8  22196566.375
  22196573.961    22196574.129    22196574.254          48.700          44.900
        49.900
 107154194.718 7  83496799.243 8  80017769.399 9  20390761.102
  20390769.047    20390769.070    20390769.293          47.300          50.000
        54.500
 123311349.215 7  96086802.79543                  23465374.289
                  23465377.820                          42.800          20.600

 122486453.305 6  95444002.249 7  91467168.998 7  23308402.313
  23308411.070    23308411.270    23308411.574          41.100          44.700
        45.100
 122794477.256 6  95684109.62343                  23367025.227
                  23367030.551                          40.500          23.600

 116851141.319 7  91052852.85645                  22236023.398
                  22236028.273                          45.400          31.300

 111971948.264 7  87250899.48745                  21307540.648
                  21307545.793                          47.000          35.000

 108144524.906 8  84268523.745 8                  20579224.219
  20579229.012    20579229.820                          50.200          48.300

 130620566.477 5 101782282.521 6  97541364.775 7  24856247.305
  24856256.602    24856256.770    24856257.770          35.000          41.400
        43.000
 19  3 26 20 26 30.0000000  0 11G17G01G08G30G13G09G18G11G28G07G27
 125538601.356 7  97822301.931 6                  23889202.320
  23889206.281    23889207.680                          45.500          36.000

 126667069.804 6  98701630.494 6  94589060.436 7  24103942.711
  24103949.617    24103950.434    24103951.242          38.000          38.800
        43.200
 116720063.151 8  90950640.942 7  87161047.404 8  22211062.555
  22211070.316    22211070.113    22211070.316          49.500          45.300
        49.800
 107124516.269 7  83473673.169 8  79995606.929 9  20385113.813
  20385121.355    20385121.441    20385121.668          47.600          50.000
        54.700
 123228642.686 7  96022356.19043                  23449636.109
                  23449639.516                          42.900          20.600

 122595290.548 6  95528810.433 7  91548443.532 7  23329112.664
  23329121.594    23329121.625    23329122.660          40.500          43.200
        45.400
 122731886.037 6  95635337.28644                  23355113.500
                  23355120.234                          40.600          25.400

 116793142.602 7  91007659.06145                  22224986.203
                  22224991.109                          46.300          30.500

 111938023.342 7  87224464.51345                  21301085.883
                  21301090.027                          46.900          35.500

 108171839.117 8  84289807.544 8                  20584421.859
  20584427.047    20584427.387                          48.700          48.200

 130730228.247 5 101867733.144 6  97623255.007 6  24877115.617
  24877123.750    24877125.242    24877125.086          33.600          39.200
        40.500
 19  3 26 20 27  0.0000000  0 11G17G01G08G30G13G09G18G11G28G07G27
 125432150.382 7  97739353.249 5                  23868945.109
  23868950.082    23868950.426                          46.000          34.900

 126578123.037 6  98632321.391 6  94522639.235 7  24087015.641
  24087025.535    24087025.938    24087025.691          37.000          40.600
        43.900
 116796630.946 8  91010304.150 7  87218224.644 8  22225632.781
  22225640.930    22225640.734    22225640.586          48.400          45.800
        50.000
 107095197.362 7  83450827.274 8  79973712.949 9  20379534.828
  20379542.367    20379542.434    20379542.391          47.600          49.600
        54.500
 123146321.968 7  95958210.19943                  23433970.992
                  23433974.484                          42.300          22.300

 122704249.974 6  95613713.779 7  91629809.262 7  23349846.023
  23349855.910    23349855.805    23349856.438          40.900          42.700
        44.700
 122669701.100 6  95586881.49043                  23343279.078
                  23343286.063                          40.800          23.000

 116735602.742 7  90962822.81945                  22214036.297
                  22214041.242                          44.100          30.600

 111904346.196 7  87198222.59745                  21294676.570
                  21294681.387                          46.300          35.100

 108199559.562 8  84311407.888 8                  20589697.281
  20589701.270    20589702.047                          48.700          48.000

 130840020.025 5 101953285.087 6  97705242.247 6  24898010.719
  24898016.863    24898017.496    24898018.180          35.100          38.400
        40.600
 19  3 26 20 27 30.0000000  0 11G17G01G08G30G13G09G18G11G28G07G27
 125325851.929 7  97656523.295 6                  23848718.008
  23848722.422    23848722.637                          47.700          36.200

 126489329.057 6  98563131.318 6  94456332.107 7  24070116.555
  24070128.625    24070129.609    24070128.207          36.900          41.100
        44.800
 116873587.610 8  91070270.370 7  87275692.268 8  22240277.758
  22240285.238    22240285.277    22240284.621          48.400          45.600
        49.100
 107066240.553 7  83428263.536 8  79952089.349 9  20374024.688
  20374032.078    20374032.176    20374032.129          47.700          50.600
        54.300
 123064390.256 7  95894367.32343                  23418379.648
                  23418383.559                          42.200          22.000

 122813329.731 6  95698710.948 6  91711264.873 7  23370603.141
  23370612.152    23370612.285    23370613.602          40.300          41.200
        44.700
 122607926.668 6  95538745.58743                  23331524.086
                  23331531.012                          41.300          22.800

 116678525.190 7  90918346.83045                  22203173.984
                  22203179.547                          43.500          30.300

 111870917.920 7  87172174.60945                  21288315.148
                  21288319.809                          46.500          35.000

 108227687.420 8  84333325.697 8                  20595049.617
  20595054.316    20595054.867                          48.900          48.000

 130949940.118 6 102038937.045 6  97787325.389 6  24918928.500
  24918933.336    24918935.109    24918934.469          37.700          36.000
        37.700
