     2.11           OBSERVATION DATA    M (MIXED)           RINEX VERSION / TYPE
teqc  2018Jun8      root                20191212 04:37:42UTCPGM / RUN BY / DATE
Linux 2.4.21-27.ELsmp|Opteron|gcc|Linux 64|=+               COMMENT
teqc  2019Feb25     CORS-ADM Account    20190427 20:20:17UTCCOMMENT
teqc  2018Jan11     NOAA/NOS/NGS/CORS   20190328 08:54:24UTCCOMMENT
Linux 2.4.21-27.ELsmp|Opteron|gcc -static|Linux 64|=+       COMMENT
BIT 2 OF LLI FLAGS DATA COLLECTED UNDER A/S CONDITION       COMMENT
 SNR is mapped to RINEX snr flag value [0-9]                COMMENT
  L1 & L2: min(max(int(snr_dBHz/6), 0), 9)                  COMMENT
teqc.e edited: all SBAS satellites excluded                 COMMENT
teqc.e edited: all QZSS satellites excluded                 COMMENT
Forced Modulo Decimation to 30 seconds                      COMMENT
TMG2                                                        MARKER NAME
Don Haw             NGS                                     OBSERVER / AGENCY
3025662             SEPT POLARX5        5.2.0               REC # / TYPE / VERS
00446               JAVRINGANT_DM   SCIS                    ANT # / TYPE
 -1283433.9380 -4713073.2970  4090105.0960                  APPROX POSITION XYZ
        0.0083        0.0000        0.0000                  ANTENNA: DELTA H/E/N
     1     1                                                WAVELENGTH FACT L1/2
    11    L1    L2    L5    C1    P1    C2    P2    C5    S1# / TYPES OF OBSERV
          S2    S5                                          # / TYPES OF OBSERV
    30.0000                                                 INTERVAL
teqc.w windowed: start @ 2019 Mar 26 19:00:00.000           COMMENT
teqc.w windowed:  end  @ 2019 Mar 26 22:00:00.000           COMMENT
  2019     3    26    19     0    0.0000000     GPS         TIME OF FIRST OBS
    18                                                      LEAP SECONDS
                                                            END OF HEADER
 19  3 26 19  0  0.0000000  0 27R08G23G08E05R15R17E08G16G09E24E03G30
                                G07G11G27E02E25R16R07R09G05R06G28E12
                                R18E11R19
 125801766.793 7  97845829.327 7                  23492592.684
  23492596.070                                          43.500          42.000

 117032815.369 7  91194386.37745                  22270603.121    22270602.469
                  22270599.440                          46.000          34.000

 111194709.491 8  86645255.871 7  83035042.634 8  21159640.681    21159640.190
  21159642.080    21159641.378    21159640.058          48.750          46.500
        52.250
 134692354.149 7                 100581966.570 7  25631102.685
                                  25631105.467          44.250
        46.250
 127324732.841 7  99030357.766 7                  23827091.425
  23827095.558                                          43.750          42.000

 121953480.221 7  94852735.893 7                  22789917.868
  22789921.786                                          44.250          42.750

 129833543.403 6                  96953616.926 7  24706497.565
                                  24706498.316          39.750
        42.000
 127119617.496 6  99054253.95643                  24190057.985    24190057.127
                  24190056.254                          37.250          19.750

 107962169.699 8  84126373.297 8  80621110.715 9  20544514.481    20544514.048
  20544514.713    20544514.503    20544514.403          50.750          48.750
        54.000
 122526121.881 7                  91496827.306 7  23315946.293
                                  23315958.706          45.500
        47.750
 127517789.456 8                  95224338.162 8  24265826.621
                                  24265828.593          48.750
        50.750
 116297835.797 7  90621710.636 7  86845806.450 8  22130735.486    22130734.856
  22130735.950    22130735.602    22130735.480          45.750          43.250
        50.250
 108753071.854 8  84742666.288 7                  20695014.382    20695013.962
  20695011.909    20695011.663                          51.250          46.500

 131246513.585 6 102270023.92243                  24975377.743    24975377.100
                  24975377.511                          38.000          20.750

 116063110.060 7  90438806.026 7  86670536.796 8  22086068.483    22086067.902
  22086068.707    22086068.179    22086067.834          46.500          44.000
        49.250
 137492859.701 7                 102673265.692 7  26164016.146
                                  26164018.046          42.500
        43.750
 120608931.132 8                  90065134.293 8  22951109.984
                                  22951111.545          49.750
        52.500
 108441394.357 8  84343328.588 7                  20300450.387
  20300452.793                                          48.000          45.000

 110607803.019 8  86028330.687 8                  20662469.063
  20662472.282                                          52.000          49.500

 111255059.515 8  86531745.502 8                  20834492.091
  20834494.430                                          50.500          49.250

 129308213.180 6 100759633.848 5                  24606535.749    24606535.450
  24606534.765    24606534.300                          38.500          30.250

 112674808.247 7                                  21115209.643
                                                        45.750

 121842074.499 6  94941880.94944                  23185771.529    23185770.702
                  23185770.116                          40.000          24.000

 131123119.513 5                  97916643.781 6  24951897.091
                                  24951896.720          35.750
        39.500
 114423793.390 8  88996320.607 7                  21435425.256
  21435429.677                                          49.250          46.500

 134021780.699 5                 100081208.833 6  25503492.975
                                  25503492.304          34.500
        38.250
 122974464.928 6  95646834.973 6                  22988774.571
  22988778.966                                          39.250          39.250

 19  3 26 19  0 30.0000000  0 27R08G23G08E05R15R17E08G16G09E24E03G30
                                G07G11G27E02E25R16R07R09G05R06G28E12
                                R18E11R19
 125700554.500 7  97767108.679 7                  23473692.030
  23473694.790                                          43.750          42.000

 117127537.225 7  91268195.57145                  22288628.129    22288627.468
                  22288624.390                          46.000          33.500

 111175470.243 8  86630264.263 7  83020675.674 8  21155979.500    21155979.009
  21155980.976    21155980.233    21155978.887          49.000          46.750
        52.500
 134777107.264 7                 100645256.193 7  25647230.581
                                  25647233.420          43.750
        46.500
 127411602.947 7  99097923.367 7                  23843348.121
  23843352.120                                          42.500          42.000

 122007843.666 7  94895018.552 7                  22800076.572
  22800080.790                                          44.500          43.000

 129775483.520 6                  96910260.540 7  24695449.263
                                  24695449.818          39.250
        42.000
 127225411.872 6  99136691.08143                  24210190.276    24210189.422
                  24210188.192                          37.250          20.250

 108011380.870 8  84164719.649 8  80657859.300 9  20553879.114    20553878.676
  20553879.319    20553879.064    20553878.974          50.750          49.000
        54.250
 122580432.725 7                  91537384.095 8  23326281.398
                                  23326293.758          45.250
        48.000
 127536086.800 8                  95238001.747 8  24269308.504
                                  24269310.445          48.500
        50.750
 116227873.171 7  90567194.334 7  86793561.663 8  22117421.892    22117421.258
  22117422.665    22117422.137    22117421.993          45.750          43.750
        50.500
 108723888.237 8  84719925.812 7                  20689460.980    20689460.560
  20689458.301    20689458.225                          51.500          46.750

 131152600.249 6 102196844.76643                  24957507.414    24957506.757
                  24957506.059                          39.250          21.750

 116108967.458 7  90474539.065 7  86704780.957 8  22094794.690    22094794.109
  22094794.868    22094794.555    22094794.192          46.500          44.000
        49.250
 137436952.085 7                 102631516.557 7  26153377.190
                                  26153379.238          42.250
        44.250
 120606872.396 8                  90063596.936 8  22950718.199
                                  22950719.814          49.500
        52.500
 108485130.637 7  84377345.705 7                  20308638.036
  20308640.719                                          47.500          45.000

 110598560.156 8  86021141.789 8                  20660742.427
  20660745.749                                          51.750          49.500

 111204040.147 8  86492063.796 8                  20824937.844
  20824939.945                                          50.500          49.250

 129305435.704 6 100757469.551 5                  24606007.181    24606006.886
  24606005.933    24606005.620                          38.750          30.500

 112777118.193 7                                  21134382.070
                                                        45.250

 121761747.846 6  94879288.80244                  23170485.744    23170484.913
                  23170484.796                          40.250          24.250

 131093754.772 5                  97894715.564 6  24946309.317
                                  24946308.834          35.750
        39.750
 114375756.061 8  88958958.258 7                  21426426.380
  21426430.577                                          49.250          46.500

 133942072.315 5                 100021686.407 6  25488324.803
                                  25488324.105          34.000
        38.250
 122852441.732 6  95551928.154 6                  22965964.181
  22965968.384                                          39.750          38.250

 19  3 26 19  1  0.0000000  0 28R10R08G23G08E05R15R17E08G16G09E24E03
                                G30G07G11G27E02E25R16R07R09G05R06G28
                                E12R18E11R19
 129230650.536 6                                  24243343.130
                                                        37.000

 125599795.972 7  97688740.960 6                  23454876.027
  23454879.336                                          43.750          41.750

 117222575.551 7  91342251.36545                  22306713.515    22306712.863
                  22306709.607                          46.000          33.750

 111156843.979 8  86615750.301 7  83006766.466 8  21152435.179    21152434.688
  21152436.547    21152435.738    21152434.409          49.000          46.750
        52.250
 134862028.120 7                 100708671.076 7  25663390.544
                                  25663393.424          44.000
        46.000
 127498456.302 6  99165475.926 7                  23859601.461
  23859605.719                                          41.000          42.000

 122062911.651 7  94937849.189 7                  22810367.334
  22810371.329                                          44.500          42.750

 129717731.765 6                  96867134.247 6  24684459.328
                                  24684459.882          39.750
        41.750
 127331218.452 6  99219137.73943                  24230324.377    24230323.506
                  24230322.302                          37.750          20.500

 108061118.985 8  84203476.607 8  80695001.387 9  20563344.022    20563343.584
  20563344.263    20563343.927    20563343.841          50.750          49.000
        54.000
 122634793.536 7                  91577978.201 7  23336625.940
                                  23336638.287          45.750
        47.750
 127554802.684 8                  95251977.886 8  24272870.016
                                  24272871.988          49.000
        50.500
 116158038.745 7  90512777.912 7  86741412.601 8  22104132.814    22104132.180
  22104133.520    22104133.117    22104132.938          45.750          43.750
        50.500
 108694941.461 8  84697369.894 7                  20683952.575    20683952.155
  20683950.034    20683949.842                          51.500          46.750

 131058641.825 6 102123630.46943                  24939627.393    24939626.741
                  24939626.140                          39.250          22.250

 116155407.687 7  90510726.258 7  86739460.353 8  22103631.960    22103631.379
  22103632.260    22103631.844    22103631.490          46.500          44.250
        49.000
 137381158.636 7                 102589852.666 7  26142759.956
                                  26142761.986          42.750
        44.000
 120604973.580 8                  90062178.998 8  22950356.904
                                  22950358.487          50.000
        52.500
 108529069.532 7  84411520.384 7                  20316863.696
  20316865.619                                          47.500          45.000

 110590139.667 8  86014592.510 8                  20659169.322
  20659172.720                                          52.000          49.500

 111153236.753 8  86452550.054 8                  20815423.974
  20815426.120                                          50.750          49.250

 129303182.663 6 100755713.893 5                  24605578.615    24605578.311
  24605577.631    24605577.031                          38.750          31.000

 112879897.950 7                                  21153643.493
                                                        45.500

 121681670.679 6  94816891.06644                  23155247.714    23155246.878
                  23155246.403                          40.500          25.000

 131064774.224 6                  97873074.235 6  24940794.391
                                  24940793.958          36.250
        39.500
 114328441.925 8  88922158.391 7                  21417562.956
  21417566.831                                          49.250          46.500

 133862446.984 5                  99962225.995 6  25473172.310
                                  25473172.037          34.000
        38.000
 122730569.009 6  95457138.347 6                  22943181.330
  22943184.401                                          40.250          37.500

 19  3 26 19  1 30.0000000  0 28R10R08G23G08E05R15R17E08G16G09E24E03
                                G30G07G11G27E02E25R16R07R09G05R06G28
                                E12R18E11R19
 129145725.423 6                                  24227410.110
                                                        40.750

 125499494.043 7  97610728.387 6                  23436145.304
  23436148.931                                          44.000          41.750

 117317927.067 7  91416551.20345                  22324858.252    22324857.600
                  22324854.401                          45.750          33.500

 111138830.148 8  86601713.562 7  82993314.592 8  21149007.288    21149006.797
  21149008.450    21149007.797    21149006.491          49.000          47.000
        52.250
 134947114.092 7                 100772209.252 7  25679581.830
                                  25679584.674          44.000
        46.000
 127585292.059 6  99233014.779 6                  23875850.932
  23875856.223                                          39.000          41.750

 122118680.813 7  94981225.194 7                  22820789.664
  22820793.198                                          44.750          42.250

 129660288.753 6                  96824238.516 7  24673528.287
                                  24673529.087          40.000
        42.000
 127437034.533 6  99301591.78543                  24250460.626    24250459.804
                  24250458.337                          37.500          20.500

 108111381.861 8  84242642.469 8  80732535.341 9  20572908.653    20572908.215
  20572908.957    20572908.689    20572908.554          50.500          49.000
        54.000
 122689202.932 7                  91618608.585 7  23346979.724
                                  23346992.071          45.500
        47.750
 127573935.847 8                  95266265.624 8  24276510.982
                                  24276512.904          49.000
        50.500
 116088332.563 7  90458461.431 7  86689359.310 8  22090868.265    22090867.635
  22090868.944    22090868.368    22090868.304          45.750          43.750
        50.500
 108666231.984 8  84674998.877 7                  20678489.299    20678488.879
  20678486.884    20678486.598                          51.250          47.000

 130964640.359 6 102050382.65643                  24921739.012    24921738.360
                  24921738.546                          38.500          21.500

 116202428.133 7  90547365.562 7  86774573.016 8  22112579.620    22112579.039
  22112579.848    22112579.553    22112579.172          46.250          44.000
        49.000
 137325478.243 7                 102548273.200 7  26132164.407
                                  26132166.330          42.750
        44.000
 120603233.229 8                  90060879.390 8  22950025.665
                                  22950027.284          49.750
        52.500
 108573209.588 7  84445851.530 7                  20325126.723
  20325129.317                                          47.500          45.250

 110582540.668 8  86008682.167 8                  20657749.789
  20657753.155                                          52.000          49.500

 111102648.250 8  86413203.464 8                  20805950.078
  20805952.711                                          51.000          49.250

 129301452.667 6 100754365.873 5                  24605249.075    24605248.771
  24605247.818    24605247.599                          38.000          31.500

 112983141.625 7                                  21172990.993
                                                        45.500

 121601842.296 6  94754687.18744                  23140056.982    23140056.137
                  23140055.618                          40.750          25.500

 131036178.088 6                  97851720.017 6  24935352.875
                                  24935352.383          36.250
        39.500
 114281853.010 8  88885922.587 7                  21408835.303
  21408839.544                                          49.000          46.500

 133782906.013 5                  99902828.578 6  25458036.669
                                  25458035.837          34.750
        38.000
 122608850.361 6  95362468.386 6                  22920427.408
  22920430.269                                          40.500          37.500

 19  3 26 19  2  0.0000000  0 28R10R08G23G08E05R15R17E08G16G09E24E03
                                G30G07G11G27E02E25R16R07R09G05R06G28
                                E12R18E11R19
 129060861.362 7 100380704.032 5                  24211490.396
  24211498.423                                          43.500          33.500

 125399655.199 7  97533075.972 6                  23417500.843
  23417503.889                                          43.500          41.250

 117413592.008 7  91491095.26745                  22343062.554    22343061.902
                  22343058.834                          46.000          33.500

 111121432.022 8  86588156.592 7  82980322.498 8  21145696.468    21145695.977
  21145697.666    21145696.982    21145695.711          49.000          46.750
        52.250
 135032365.834 7                 100835871.227 7  25695804.650
                                  25695807.650          43.500
        46.000
 127672112.378 6  99300541.601 6                  23892098.582
  23892102.970                                          38.250          40.750

 122175151.335 7  95025146.691 7                  22831342.273
  22831345.969                                          44.750          42.000

 129603158.392 6                  96781576.247 7  24662656.552
                                  24662657.339          39.500
        42.250
 127542860.870 6  99384053.82243                  24270598.741    24270597.914
                  24270596.969                          38.000          20.750

 108162170.646 8  84282218.140 8  80770462.015 9  20582573.503    20582573.065
  20582573.704    20582573.494    20582573.376          50.750          49.000
        54.000
 122743662.824 7                  91659276.676 7  23357342.983
                                  23357355.410          45.250
        47.500
 127593488.273 8                  95280866.452 8  24280231.694
                                  24280233.653          48.750
        50.750
 116018757.951 7  90404247.471 7  86637404.260 8  22077628.672    22077628.038
  22077629.316    22077628.730    22077628.689          46.000          43.750
        50.500
 108637762.770 8  84652815.073 7                  20673071.818    20673071.398
  20673069.242    20673069.094                          51.500          47.000

 130870601.113 6 101977105.39343                  24903844.407    24903843.755
                  24903843.472                          38.500          21.250

 116250029.404 7  90584457.458 7  86810119.418 8  22121637.863    22121637.282
  22121638.403    22121637.742    22121637.405          46.250          44.000
        49.000
 137269913.110 7                 102506779.795 7  26121590.778
                                  26121592.535          42.500
        44.250
 120601653.182 8                  90059699.484 8  22949724.963
                                  22949726.653          49.500
        52.500
 108617552.412 7  84480340.389 7                  20333427.822
  20333430.250                                          47.500          45.000

 110575766.307 8  86003413.208 8                  20656484.482
  20656487.777                                          52.000          49.500

 111052277.073 8  86374025.887 8                  20796517.365
  20796519.730                                          50.750          49.250

 129300247.400 6 100753426.658 5                  24605019.789    24605019.499
  24605018.367    24605018.340                          38.500          30.500

 113086847.461 7                                  21192425.891
                                                        45.500

 121522265.617 6  94692679.43144                  23124913.905    23124913.056
                  23124912.590                          41.000          26.000

 131007969.999 6                  97830655.528 6  24929985.198
                                  24929984.724          36.000
        39.750
 114235994.596 8  88850254.944 7                  21400244.373
  21400248.404                                          49.250          46.500

 133703453.873 5                  99843497.490 6  25442916.943
                                  25442916.536          34.750
        38.000
 122487292.854 6  95267923.710 6                  22897703.294
  22897706.137                                          41.000          37.500

 19  3 26 19  2 30.0000000  0 28R10R08G23G08E05R15R17E08G16G09E24E03
                                G30G07G11G27E02E25R16R07R09G05R06G28
                                E12R18E11R19
 128976056.420 7 100314744.680 5                  24195581.063
  24195589.769                                          43.750          35.000

 125300281.219 7  97455785.160 6                  23398942.946
  23398946.483                                          42.250          41.000

 117509565.937 7  91565880.10245                  22361325.937    22361325.285
                  22361322.172                          46.000          33.500

 111104648.386 8  86575078.451 7  82967789.273 8  21142502.663    21142502.172
  21142503.839    21142503.213    21142501.870          49.000          46.750
        52.250
 135117779.628 7                 100899654.205 7  25712058.360
                                  25712061.383          43.500
        46.000
 127758915.180 6  99368054.809 6                  23908341.485
  23908347.107                                          37.500          41.250

 122232318.944 7  95069610.373 7                  22842025.331
  22842028.892                                          44.750          42.000

 129546340.134 6                  96739147.042 7  24651844.578
                                  24651845.222          40.250
        42.250
 127648693.925 6  99466521.09343                  24290738.273    24290737.437
                  24290736.185                          38.250          20.000

 108213481.995 8  84322200.992 8  80808778.916 9  20592337.789    20592337.351
  20592338.021    20592337.749    20592337.614          50.750          49.000
        54.000
 122798170.729 7                  91699980.631 7  23367715.477
                                  23367727.917          45.250
        47.500
 127613457.569 8                  95295778.581 8  24284031.690
                                  24284033.671          49.000
        50.500
 115949313.846 7  90350135.194 7  86585546.674 8  22064413.899    22064413.260
  22064414.435    22064413.912    22064413.884          46.250          43.500
        50.750
 108609533.421 8  84630818.188 7                  20667699.907    20667699.487
  20667697.506    20667697.215                          51.500          47.000

 130776524.860 6 101903799.28843                  24885941.668    24885941.007
                  24885940.863                          38.250          20.500

 116298207.722 7  90621998.994 7  86846096.731 8  22130805.925    22130805.340
  22130806.247    22130805.773    22130805.419          46.500          43.750
        49.000
 137214461.054 7                 102465370.837 7  26111038.439
                                  26111040.353          42.750
        44.250
 120600230.877 8                  90058637.384 8  22949454.360
                                  22949455.948          49.750
        52.250
 108662095.320 7  84514984.869 7                  20341766.215
  20341768.589                                          47.750          45.000

 110569814.303 8  85998783.864 8                  20655372.691
  20655375.869                                          52.000          49.250

 111002121.035 8  86335015.653 8                  20787124.746
  20787126.933                                          51.000          49.250

 129299564.446 6 100752894.445 5                  24604889.788    24604889.529
  24604888.745    24604888.593                          38.250          31.750

 113191009.065 7                                  21211945.379
                                                        45.500

 121442939.784 6  94630867.15344                  23109818.622    23109817.777
                  23109817.365                          41.500          26.250

 130980148.990 6                  97809880.120 6  24924690.942
                                  24924690.401          36.250
        39.500
 114190867.510 8  88815156.121 7                  21391790.777
  21391794.446                                          49.250          46.250

 133624090.749 5                  99784232.890 6  25427814.652
                                  25427814.120          35.500
        37.750
 122365899.325 6  95173506.612 6                  22875010.446
  22875013.723                                          41.000          37.750

 19  3 26 19  3  0.0000000  0 28R10R08G23G08E05R15R17E08G16G09E24E03
                                G30G07G11G27E02E25R16R07R09G05R06G28
                                E12R18E11R19
 128891309.768 7 100248830.678 6                  24179682.988
  24179691.064                                          42.500          36.000

 125201375.263 6  97378858.336 6                  23380473.446
  23380476.505                                          41.500          40.500

 117605845.920 7  91640903.42645                  22379647.428    22379646.771
                  22379643.703                          46.000          33.250

 111088479.294 8  86562479.158 7  82955714.956 8  21139425.683    21139425.192
  21139427.059    21139426.317    21139424.952          49.000          46.750
        52.250
 135203353.123 7                 100963556.435 7  25728342.365
                                  25728345.509          43.750
        45.750
 127845699.829 6  99435553.891 6                  23924582.978
  23924587.683                                          38.000          40.500

 122290180.554 7  95114613.822 6                  22852838.627
  22852841.951                                          45.000          41.250

 129489834.893 6                  96696951.582 7  24641091.834
                                  24641092.706          40.250
        42.500
 127754531.364 6  99548991.79243                  24310878.140    24310877.282
                  24310876.490                          38.000          19.500

 108265313.996 8  84362589.551 8  80847484.618 9  20602200.969    20602200.531
  20602201.282    20602201.054    20602200.954          50.750          48.750
        54.000
 122852725.588 7                  91740719.641 7  23378096.998
                                  23378109.327          45.500
        47.250
 127633842.707 8                  95311001.231 8  24287910.891
                                  24287912.877          49.000
        50.500
 115880000.597 7  90296124.884 7  86533786.798 8  22051223.932    22051223.293
  22051224.679    22051224.035    22051224.034          46.250          43.750
        50.500
 108581543.751 8  84609008.056 7                  20662373.678    20662373.258
  20662371.134    20662370.937                          51.500          47.000

 130682413.344 6 101830465.72343                  24868033.313    24868032.687
                  24868031.850                          38.500          19.750

 116346960.656 7  90659988.302 7  86882503.148 8  22140083.121    22140082.536
  22140083.479    22140083.157    22140082.794          46.250          43.750
        49.000
 137159121.313 7                 102424045.748 7  26100507.702
                                  26100509.589          43.000
        44.500
 120598965.161 8                  90057692.207 8  22949213.475
                                  22949215.076          50.000
        52.500
 108706836.989 7  84549783.937 7                  20350141.968
  20350144.422                                          47.500          45.000

 110564684.461 8  85994793.977 8                  20654414.204
  20654417.741                                          52.250          49.500

 110952179.603 8  86296172.324 8                  20777772.452
  20777774.571                                          50.750          49.250

 129299402.791 6 100752768.496 5                  24604858.756    24604858.502
  24604858.348    24604857.959                          38.500          31.500

 113295621.371 7                                  21231549.734
                                                        45.500

 121363864.462 6  94569250.07144                  23094771.336    23094770.496
                  23094769.815                          41.500          26.250

 130952715.676 6                  97789394.213 6  24919470.677
                                  24919469.872          36.500
        39.500
 114146473.857 8  88780627.745 7                  21383474.124
  21383478.187                                          49.250          46.500

 133544818.188 6                  99725035.909 6  25412729.836
                                  25412729.084          36.500
        37.750
 122244673.558 6  95079219.956 6                  22852348.211
  22852350.839                                          40.750          38.750

 19  3 26 19  3 30.0000000  0 28R10R08G23G08E05R15R17E08G16G09E24E03
                                G30G07G11G27E02E25R16R07R09G05R06G28
                                E12R18E11R19
 128806623.833 6 100182963.889 6                  24163795.264
  24163803.326                                          40.250          36.500

 125102943.831 6  97302300.617 6                  23362091.442
  23362095.082                                          40.750          39.750

 117702432.235 7  91716165.44845                  22398027.286    22398026.625
                  22398023.493                          46.000          33.000

 111072928.070 8  86550361.335 7  82944102.043 8  21136466.501    21136466.010
  21136467.525    21136467.033    21136465.704          49.500          46.750
        52.250
 135289087.256 7                 101027578.631 7  25744657.133
                                  25744660.215          43.250
        45.750
 127932469.057 6  99503040.995 6                  23940820.508
  23940825.146                                          39.250          40.250

 122348736.505 7  95160157.323 6                  22863780.898
  22863784.794                                          45.500          41.500

 129433646.903 6                  96654993.033 7  24630399.858
                                  24630400.524          40.500
        42.500
 127860374.341 6  99631466.80643                  24331019.504    24331018.650
                  24331018.033                          38.000          19.000

 108317667.975 8  84403384.847 8  80886580.108 9  20612163.659    20612163.226
  20612164.021    20612163.703    20612163.581          50.750          48.750
        54.000
 122907329.610 7                  91781495.368 7  23388487.770
                                  23388500.143          45.500
        47.500
 127654645.944 8                  95326536.105 8  24291869.614
                                  24291871.595          48.750
        50.500
 115810821.868 7  90242219.407 7  86482127.382 8  22038059.542    22038058.908
  22038060.262    22038059.636    22038059.675          46.500          43.750
        50.750
 108553798.259 8  84587388.200 7                  20657093.953    20657093.533
  20657091.430    20657091.140                          51.750          46.750

 130588272.057 6 101757108.94343                  24850118.267    24850117.637
                  24850117.511                          37.750          19.000

 116396289.060 7  90698426.027 7  86919339.295 8  22149470.192    22149469.607
  22149470.420    22149470.053    22149469.650          46.500          43.750
        49.000
 137103896.360 7                 102382806.377 7  26089998.606
                                  26090000.547          42.750
        44.750
 120597858.184 8                  90056865.570 8  22949002.798
                                  22949004.431          50.000
        52.500
 108751779.523 7  84584739.236 7                  20358555.195
  20358557.637                                          47.500          44.750

 110560379.677 8  85991445.798 8                  20653610.085
  20653613.237                                          52.250          49.500

 110902454.960 8  86257497.616 8                  20768460.356
  20768462.725                                          50.750          49.250

 129299764.344 6 100753050.222 5                  24604927.837    24604927.551
  24604927.864    24604926.750                          38.250          31.500

 113400682.373 7                                  21251238.569
                                                        45.500

 121285043.099 6  94507830.87644                  23079771.792    23079770.943
                  23079770.579                          41.750          26.250

 130925673.817 6                  97769200.650 6  24914324.684
                                  24914323.965          36.500
        39.500
 114102819.164 8  88746674.110 7                  21375296.125
  21375300.067                                          49.250          46.500

 133465641.155 6                  99665910.241 6  25397662.900
                                  25397662.104          36.500
        37.500
 122123622.974 6  94985069.572 6                  22829718.017
  22829722.394                                          40.500          38.750

 19  3 26 19  4  0.0000000  0 28R10R08G23G08E05R15R17E08G16G09E24E03
                                G30G07G11G27E02E25R16R07R09G05R06G28
                                E12R18E11R19
 128721998.880 6 100117144.556 6                  24147919.813
  24147929.181                                          39.250          36.250

 125004990.699 6  97226114.895 6                  23343799.397
  23343803.100                                          40.500          39.000

 117799322.822 7  91791664.55745                  22416464.983    22416464.326
                  22416461.311                          46.000          32.500

 111057995.245 8  86538725.376 7  82932950.914 8  21133624.810    21133624.319
  21133626.152    21133625.391    21133624.094          49.250          46.750
        52.250
 135374980.238 7                 101091719.450 7  25761002.120
                                  25761005.161          43.250
        45.500
 128019222.640 6  99570515.930 6                  23957056.065
  23957060.359                                          40.000          39.500

 122407984.278 7  95206238.905 6                  22874853.327
  22874855.895                                          45.750          40.750

 129377777.538 6                  96613272.397 7  24619768.341
                                  24619768.811          40.750
        42.500
 127966221.008 6  99713944.68042                  24351161.533    24351160.679
                  24351159.346                          37.500          17.750

 108370542.516 8  84444585.779 8  80926064.330 8  20622225.399    20622224.966
  20622225.649    20622225.421    20622225.290          50.750          48.750
        53.750
 122961982.298 7                  91822307.428 7  23398887.891
                                  23398900.246          45.250
        47.000
 127675866.792 8                  95342382.834 8  24295907.787
                                  24295909.782          48.750
        50.500
 115741778.586 7  90188419.468 7  86430569.111 8  22024921.104    22024920.470
  22024921.600    22024921.185    22024921.184          46.500          43.750
        50.500
 108526297.549 8  84565959.079 7                  20651860.713    20651860.293
  20651858.245    20651857.936                          51.750          47.000

 130494103.927 6 101683731.27143                  24832198.833    24832198.185
                  24832197.911                          37.000          18.000

 116446191.073 7  90737310.704 7  86956603.788 8  22158966.227    22158965.642
  22158966.410    22158966.093    22158965.739          46.250          43.500
        48.750
 137048785.973 7                 102341652.572 7  26079511.443
                                  26079513.388          42.750
        44.750
 120596909.349 8                  90056157.026 8  22948822.238
                                  22948823.914          49.750
        52.250
 108796922.183 7  84619850.196 7                  20367006.288
  20367008.586                                          47.500          44.750

 110556899.686 8  85988739.124 8                  20652959.812
  20652963.223                                          52.250          49.750

 110852947.185 8  86218991.577 8                  20759189.205
  20759191.579                                          50.750          49.250

 129300648.510 6 100753739.180 5                  24605095.862    24605095.612
  24605095.490    24605095.052                          38.250          31.500

 113506188.430 7                                  21271009.995
                                                        45.250

 121206476.783 7  94446610.41644                  23064821.269    23064820.420
                  23064819.659                          42.000          26.250

 130899024.497 6                  97749300.193 6  24909253.434
                                  24909252.799          36.500
        39.250
 114059906.111 8  88713297.310 7                  21367256.956
  21367260.853                                          49.250          46.250

 133386561.607 6                  99606857.372 6  25382614.628
                                  25382613.639          36.750
        37.000
 122002752.098 6  94891058.972 6                  22807122.844
  22807127.029                                          40.000          40.250

 19  3 26 19  4 30.0000000  0 28R10R08G23G08E05R15R17E08G16G09E24E03
                                G30G07G11G27E02E25R16R07R09G05R06G28
                                E12R18E11R19
 128637432.972 6 100051371.119 6                  24132055.294
  24132064.542                                          38.500          37.500

 124907518.251 6  97150303.010 6                  23325597.521
  23325600.468                                          40.500          39.000

 117896513.607 7  91867397.59945                  22434959.848    22434959.182
                  22434956.002                          46.000          33.000

 111043679.778 8  86527570.476 7  82922260.807 8  21130900.678    21130900.187
  21130901.925    21130901.241    21130899.836          49.250          47.000
        52.500
 135461028.787 7                 101155976.435 7  25777376.591
                                  25777379.623          43.250
        45.500
 128105959.069 6  99637977.559 6                  23973287.413
  23973292.056                                          41.250          38.000

 122467919.879 7  95252855.444 6                  22886053.585
  22886057.044                                          45.500          41.250

 129322226.694 6                  96571789.650 7  24609197.262
                                  24609197.982          40.750
        43.000
 128072067.996 6  99796422.81742                  24371303.870    24371303.048
                  24371301.374                          37.250          17.500

 108423934.733 8  84486190.087 8  80965935.127 9  20632385.607    20632385.174
  20632385.830    20632385.611    20632385.534          50.750          49.000
        54.000
 123016681.663 7                  91863154.353 7  23409296.748
                                  23409309.135          45.250
        47.250
 127697503.284 8                  95358539.941 8  24300025.125
                                  24300027.053          48.750
        50.500
 115672870.152 7  90134724.605 7  86379111.543 8  22011808.364    22011807.730
  22011808.806    22011808.364    22011808.314          46.500          44.000
        51.000
 108499041.357 8  84544720.491 7                  20646674.031    20646673.611
  20646671.625    20646671.263                          52.000          47.250

 130399910.061 6 101610333.52742                  24814273.996    24814273.308
                  24814272.878                          36.250          16.750

 116496663.269 7  90776639.697 7  86994294.063 8  22168570.720    22168570.139
  22168570.979    22168570.541    22168570.312          46.250          43.750
        49.000
 136993788.424 7                 102300583.015 7  26069045.729
                                  26069047.660          42.750
        45.000
 120596116.578 8                  90055565.024 8  22948671.412
                                  22948673.026          49.750
        52.500
 108842262.714 7  84655115.043 7                  20375494.051
  20375496.122                                          47.750          45.000

 110554243.251 8  85986673.001 8                  20652463.710
  20652467.072                                          52.000          49.500

 110803654.665 8  86180652.978 8                  20749958.240
  20749960.507                                          51.000          49.500

 129302052.936 6 100754833.474 5                  24605363.128    24605362.856
  24605362.752    24605361.849                          38.000          31.250

 113612133.113 7                                  21290864.167
                                                        45.250

 121128164.294 7  94385587.74144                  23049918.874    23049918.020
                  23049917.183                          42.250          26.750

 130872767.237 6                  97729692.528 6  24904256.760
                                  24904256.161          36.500
        39.750
 114017735.765 8  88680498.176 7                  21359356.969
  21359361.014                                          49.250          46.500

 133307580.260 6                  99547877.832 6  25367584.952
                                  25367583.740          36.750
        37.000
 121882064.167 6  94797190.668 6                  22784561.735
  22784564.829                                          40.000          40.250

 19  3 26 19  5  0.0000000  0 28R10R08G23G08E05R15R17E08G16G09E24E03
                                G30G07G11G27E02E25R16R07R09G05R06G28
                                E12R18E11R19
 128552925.217 6  99985642.898 6                  24116202.317
  24116210.715                                          36.500          37.000

 124810529.259 6  97074867.149 6                  23307485.417
  23307488.592                                          41.250          38.500

 117994001.312 7  91943362.00045                  22453511.088    22453510.422
                  22453507.474                          45.500          32.750

 111029981.053 8  86516896.159 7  82912031.252 8  21128293.961    21128293.465
  21128295.119    21128294.430    21128293.084          49.250          47.000
        52.500
 135547230.154 7                 101220347.541 7  25793780.303
                                  25793783.093          43.000
        45.250
 128192677.232 6  99705424.954 6                  23989515.448
  23989520.193                                          41.250          37.500

 122528539.943 7  95300004.383 6                  22897381.496
  22897385.075                                          45.000          41.000

 129266994.895 6                  96530545.139 7  24598687.105
                                  24598687.655          40.750
        43.500
 128177912.552 6  99878899.06042                  24391445.352    24391444.525
                  24391442.937                          36.750          16.000

 108477842.179 8  84528195.874 8  81006190.672 8  20642643.838    20642643.405
  20642644.133    20642643.873    20642643.778          50.500          48.750
        53.750
 123071426.234 7                  91904035.030 7  23419714.290
                                  23419726.622          45.250
        47.250
 127719553.888 8                  95375006.285 8  24304221.204
                                  24304223.136          48.750
        50.750
 115604096.588 7  90081134.837 7  86327754.684 8  21998720.786    21998720.147
  21998721.706    21998721.174    21998721.106          46.500          44.000
        51.000
 108472029.764 8  84523672.498 7                  20641533.890    20641533.470
  20641531.439    20641531.171                          51.500          47.250

 130305692.337 6 101536917.19442                  24796345.247    24796344.550
                  24796343.838                          36.500          15.750

 116547702.735 7  90816410.704 7  87032407.943 8  22178283.257    22178282.672
  22178283.368    22178283.082    22178282.741          46.250          43.500
        49.000
 136938902.502 7                 102259596.840 7  26058601.300
                                  26058603.222          42.250
        45.250
 120595478.303 8                  90055088.397 8  22948550.005
                                  22948551.561          49.750
        52.500
 108887799.470 7  84690532.507 7                  20384018.639
  20384020.816                                          47.500          45.000

 110552409.217 8  85985246.519 8                  20652121.199
  20652124.338                                          52.000          49.500

 110754576.308 8  86142480.942 8                  20740767.448
  20740769.572                                          51.250          49.500

 129303976.167 6 100756332.065 5                  24605729.178    24605728.901
  24605729.236    24605727.948                          37.750          32.000

 113718511.104 7                                  21310799.494
                                                        45.000

 121050105.459 6  94324762.72444                  23035064.647    23035063.780
                  23035063.282                          41.750          26.750

 130846902.128 6                  97710377.709 6  24899334.579
                                  24899334.150          36.250
        39.750
 113976309.776 8  88648277.985 7                  21351596.614
  21351600.498                                          49.000          46.500

 133228698.175 6                  99488972.385 6  25352574.227
                                  25352573.100          36.500
        36.750
 121761562.702 6  94703467.405 6                  22762034.303
  22762038.966                                          39.250          40.250

 19  3 26 19  5 30.0000000  0 28R10R08G23G08E05R15R17E08G16G09E24E03
                                G30G07G11G27E02E25R16R07R09G05R06G28
                                E12R18E11R19
 128468476.592 5  99919960.680 6                  24100360.136
  24100368.807                                          34.250          36.750

 124714028.323 7  96999810.892 6                  23289464.617
  23289467.166                                          42.000          38.500

 118091784.657 7  92019556.76645                  22472118.614    22472117.948
                  22472115.067                          45.250          32.500

 111016901.012 8  86506703.932 7  82902263.704 8  21125804.757    21125804.266
  21125806.125    21125805.355    21125804.094          49.000          46.750
        52.000
 135633583.854 7                 101284832.405 7  25810212.845
                                  25810215.694          43.000
        45.250
 128279378.447 7  99772859.189 5                  24005740.596
  24005745.543                                          42.500          35.250

 122589842.916 7  95347684.444 6                  22908837.095
  22908840.781                                          45.000          40.250

 129212084.863 6                  96489540.907 7  24588237.992
                                  24588238.662          40.750
        43.500
 128283754.579 5  99961373.34142                  24411586.372    24411585.541
                  24411583.725                          35.750          15.000

 108532264.710 8  84570603.026 8  81046830.857 8  20653000.138    20652999.705
  20653000.326    20653000.142    20653000.083          50.250          48.750
        53.750
 123126216.842 7                  91944950.085 7  23430140.597
                                  23430152.935          45.250
        47.250
 127742019.415 8                  95391782.484 8  24308496.254
                                  24308498.240          48.750
        50.750
 115535460.118 7  90027651.893 7  86276500.202 8  21985659.901    21985659.258
  21985660.651    21985660.151    21985660.047          46.250          44.000
        50.500
 108445264.942 8  84502816.798 7                  20636440.690    20636440.270
  20636438.221    20636437.975                          51.500          47.000

 130211454.525 6 101463485.18242                  24778412.091    24778411.389
                  24778410.722                          36.250          15.250

 116599308.833 7  90856623.238 7  87070944.963 8  22188103.548    22188102.958
  22188103.955    22188103.445    22188103.068          46.000          43.500
        48.750
 136884129.289 7                 102218694.817 7  26048178.149
                                  26048180.241          42.250
        45.250
 120594995.270 8                  90054727.691 8  22948458.051
                                  22948459.620          49.750
        52.500
 108933533.087 7  84726103.097 7                  20392580.276
  20392582.507                                          47.750          44.750

 110551398.603 8  85984460.471 8                  20651932.390
  20651935.814                                          52.000          49.500

 110705713.278 8  86104476.386 8                  20731617.104
  20731619.152                                          51.000          49.250

 129306418.782 6 100758235.415 5                  24606194.151    24606193.879
  24606192.657    24606193.269                          37.500          31.000

 113825319.411 7                                  21330815.219
                                                        45.000

 120972302.299 6  94264136.93844                  23020259.185    23020258.309
                  23020257.749                          41.750          26.000

 130821431.500 6                  97691357.457 6  24894488.020
                                  24894487.358          36.500
        39.500
 113935631.893 8  88616639.660 7                  21343975.985
  21343980.227                                          49.000          46.500

 133149918.907 6                  99430143.774 6  25337582.898
                                  25337581.977          36.500
        36.750
 121641253.776 6  94609893.873 6                  22739544.313
  22739548.345                                          40.000          40.750

 19  3 26 19  6  0.0000000  0 28R10R08G23G08E05R15R17E08G16G09E24E03
                                G30G07G11G27E02E25R16R07R09G05R06G28
                                E12R18E11R19
 128384087.084 5  99854324.471 6                  24084528.359
  24084537.678                                          34.000          36.750

 124618019.624 7  96925137.482 6                  23271535.698
  23271538.359                                          42.500          38.750

 118189861.263 7  92095980.04945                  22490782.104    22490781.438
                  22490778.446                          45.250          32.750

 111004440.355 8  86496994.346 7  82892958.682 8  21123433.552    21123433.061
  21123434.817    21123434.195    21123432.871          49.250          47.000
        52.250
 135720088.048 7                 101349429.635 7  25826674.294
                                  25826677.027          43.750
        44.750
 128366062.395 7  99840280.047 5                  24021962.085
  24021966.387                                          42.500          35.000

 122651826.348 7  95395893.764 6                  22920421.162
  22920424.388                                          45.250          41.000

 129157497.992 6                  96448777.994 7  24577850.500
                                  24577851.085          41.500
        43.500
 128389592.216 5 100043844.19242                  24431726.509    24431725.633
                  24431724.027                          35.250          15.000

 108587200.839 8  84613410.392 8  81087854.580 8  20663454.003    20663453.570
  20663454.472    20663454.150    20663454.095          50.500          48.500
        53.750
 123181053.002 7                  91985899.159 7  23440575.650
                                  23440587.969          45.500
        47.000
 127764899.324 8                  95408868.118 8  24312850.200
                                  24312852.145          49.000
        50.500
 115466961.677 7  89974276.508 7  86225348.793 8  21972625.029    21972624.386
  21972625.740    21972625.284    21972625.171          46.500          44.000
        51.000
 108418748.233 8  84482154.432 7                  20631394.672    20631394.257
  20631392.199    20631391.970                          51.750          47.000

 130117199.810 6 101390040.03242                  24760476.321    24760475.619
                  24760474.586                          37.000          16.000

 116651479.595 7  90897275.776 7  87109903.644 8  22198031.290    22198030.709
  22198031.415    22198031.187    22198030.855          46.000          43.250
        49.000
 136829468.545 7                 102177876.782 7  26037776.526
                                  26037778.650          42.750
        45.000
 120594666.889 8                  90054482.479 8  22948395.491
                                  22948397.185          50.000
        52.500
 108979462.955 7  84761826.319 7                  20401178.193
  20401180.500                                          47.750          44.500

 110551211.423 8  85984314.877 8                  20651897.549
  20651900.755                                          52.000          49.500

 110657065.365 8  86066639.137 8                  20722506.802
  20722509.073                                          51.000          49.500

 129309379.938 6 100760542.793 5                  24606757.671    24606757.408
  24606757.626    24606756.455                          37.750          31.750

 113932552.820 7                                  21350910.738
                                                        44.750

 120894755.251 6  94203710.72644                  23005502.417    23005501.537
                  23005500.802                          41.750          26.250

 130796356.385 6                  97672632.544 6  24889716.220
                                  24889715.679          36.750
        39.250
 113895704.741 8  88585585.232 7                  21336496.407
  21336500.604                                          49.000          46.500

 133071244.434 6                  99371393.388 6  25322611.371
                                  25322610.365          36.750
        36.250
 121521141.882 6  94516473.602 6                  22717090.840
  22717094.905                                          40.250          40.500

 19  3 26 19  6 30.0000000  0 28R10R08G23G08E05R15R17E08G16G09E24E03
                                G30G07G11G27E02E25R16R07R09G05R06G28
                                E12R18E11R19
 128299756.997 5  99788734.496 6                  24068708.608
  24068717.986                                          34.750          36.750

 124522507.588 7  96850850.370 6                  23253699.492
  23253702.765                                          43.250          39.250

 118288229.733 7  92172630.75145                  22509500.938    22509500.263
                  22509497.410                          45.250          32.750

 110992600.208 8  86487768.267 7  82884117.026 8  21121180.529    21121180.038
  21121181.857    21121181.048    21121179.737          49.250          47.000
        52.250
 135806741.634 7                 101414138.447 7  25843163.966
                                  25843166.716          43.750
        44.750
 128452729.993 7  99907688.149 5                  24038180.964
  24038184.757                                          43.500          34.250

 122714488.281 7  95444630.818 6                  22932130.885
  22932133.386                                          45.750          40.500

 129103236.400 6                  96408257.988 7  24567524.822
                                  24567525.595          41.250
        43.750
 128495424.942 5 100126311.19642                  24451865.333    24451864.479
                  24451863.477                          35.250          15.000

 108642649.756 8  84656617.323 8  81129261.221 8  20674005.691    20674005.258
  20674006.053    20674005.784    20674005.685          50.500          48.750
        53.750
 123235934.935 7                  92026882.411 7  23451019.339
                                  23451031.632          45.250
        46.750
 127788193.753 8                  95426263.299 8  24317282.996
                                  24317284.977          49.000
        50.500
 115398602.945 7  89921009.976 7  86174301.714 8  21959616.892    21959616.253
  21959617.549    21959617.003    21959616.904          46.500          44.250
        50.750
 108392481.029 8  84461686.484 7                  20626396.261    20626395.841
  20626393.658    20626393.493                          51.750          47.250

 130022931.117 6 101316583.98542                  24742537.375    24742536.656
                  24742535.917                          37.250          17.750

 116704213.725 7  90938367.300 7  87149283.020 8  22208066.332    22208065.747
  22208066.609    22208066.117    22208065.776          46.250          43.500
        48.750
 136774920.711 7                 102137143.051 7  26027396.317
                                  26027398.414          42.750
        45.250
 120594493.279 8                  90054352.840 8  22948362.477
                                  22948364.047          50.000
        52.250
 109025588.921 7  84797702.071 7                  20409813.201
  20409815.284                                          47.750          44.750

 110551848.105 8  85984810.064 8                  20652016.406
  20652019.727                                          51.750          49.250

 110608633.078 8  86028969.597 8                  20713436.876
  20713439.179                                          51.000          49.500

 129312859.578 6 100763254.138 5                  24607419.436    24607419.173
  24607418.881    24607418.644                          37.250          31.750

 114040208.261 7                                  21371085.242
                                                        44.750

 120817465.520 7  94143485.00944                  22990794.616    22990793.722
                  22990793.024                          42.000          26.500

 130771678.457 6                  97654204.249 6  24885020.257
                                  24885019.604          36.500
        39.000
 113856531.480 8  88555117.165 7                  21329158.042
  21329161.742                                          49.250          46.750

 132992677.672 6                  99312723.449 6  25307660.690
                                  25307659.487          36.500
        36.250
 121401232.699 6  94423210.939 6                  22694675.022
  22694678.759                                          40.750          40.000

 19  3 26 19  7  0.0000000  0 29R10R08G23G08G18E05R15R17E08G16G09E24
                                E03G30G07G11G27E02E25R16R07R09G05R06
                                G28E12R18E11R19
 128215485.898 6  99723190.403 5                  24052899.728
  24052909.110                                          38.000          35.750

 124427495.039 7  96776951.722 6                  23235956.260
  23235959.855                                          43.500          40.250

 118386886.424 7  92249506.04345                  22528274.626    22528273.960
                  22528271.379                          45.000          32.500

 110981380.242 8  86479025.453 7  82875738.496 8  21119045.424    21119044.933
  21119046.774    21119045.943    21119044.658          49.250          47.250
        52.250
 135666669.757 6 105714301.17042                  25816508.850    25816508.903
                  25816512.087                          36.000          15.750

 135893542.114 7                 101478956.941 7  25859681.429
                                  25859684.242          43.250
        45.000
 128539380.385 7  99975082.878 5                  24054396.307
  24054400.900                                          43.000          35.250

 122777825.367 7  95493892.956 6                  22943966.859
  22943969.812                                          45.000          41.500

 129049300.751 6                  96367981.384 7  24557261.268
                                  24557261.939          41.000
        44.000
 128601249.931 5 100208772.19442                  24472003.380    24472002.513
                  24472001.394                          35.750          15.750

 108698609.189 8  84700222.065 8  81171049.092 8  20684654.498    20684654.065
  20684654.731    20684654.503    20684654.408          50.500          48.750
        53.750
 123290861.420 7                  92067898.935 7  23461471.418
                                  23461483.858          45.000
        47.000
 127811901.391 8                  95443967.043 8  24321794.407
                                  24321796.415          48.750
        50.500
 115330384.137 7  89867852.494 7  86123359.124 8  21946635.057    21946634.418
  21946635.785    21946635.334    21946635.275          46.500          44.250
        51.000
 108366463.854 8  84441413.362 7                  20621445.380    20621444.960
  20621442.755    20621442.585                          51.750          47.500

 129928650.773 6 101243118.84442                  24724595.987    24724595.268
                  24724594.636                          37.250          17.500

 116757508.490 7  90979895.693 7  87189081.051 8  22218207.932    22218207.342
  22218208.182    22218207.780    22218207.542          46.250          43.500
        49.000
 136720484.805 7                 102096492.913 7  26017037.477
                                  26017039.579          42.500
        45.250
 120594473.097 8                  90054337.774 8  22948358.592
                                  22948360.269          49.750
        52.500
 109071909.853 7  84833729.450 7                  20418484.451
  20418486.946                                          47.750          44.500

 110553307.554 8  85985945.175 8                  20652288.947
  20652292.197                                          52.000          49.500

 110560415.606 8  85991467.131 8                  20704407.307
  20704409.533                                          51.250          49.500

 129316856.043 6 100766368.263 5                  24608180.221    24608179.944
  24608179.993    24608179.246                          37.750          32.250

 114148280.382 7                                  21391338.035
                                                        44.750

 120740432.970 6  94083459.69344                  22976135.739    22976134.836
                  22976134.057                          41.500          25.750

 130747397.964 6                  97636072.752 6  24880399.783
                                  24880399.041          36.500
        39.250
 113818113.848 8  88525236.813 7                  21321961.167
  21321964.577                                          49.500          46.500

 132914219.928 6                  99254134.921 6  25292730.613
                                  25292729.603          36.000
        36.500
 121281529.815 6  94330108.777 6                  22672298.111
  22672300.968                                          41.500          39.750

 19  3 26 19  7 30.0000000  0 29R10R08G23G08G18E05R15R17E08G16G09E24
                                E03G30G07G11G27E02E25R16R07R09G05R06
                                G28E12R18E11R19
 128131272.894 6  99657691.486 5                  24037101.502
  24037109.413                                          40.000          35.250

 124332985.463 7  96703444.310 6                  23218307.573
  23218310.328                                          44.500          41.000

 118485828.939 7  92326604.05645                  22547102.919    22547102.253
                  22547099.422                          45.000          32.250

 110970780.171 8  86470765.669 7  82867822.870 8  21117028.305    21117027.809
  21117029.480    21117028.863    21117027.530          49.500          47.000
        52.500
 135580246.469 6 105646958.29142                  25800063.066    25800062.789
                  25800065.252                          37.000          16.500

 135980487.304 7                 101543883.489 7  25876226.744
                                  25876229.472          43.500
        44.750
 128626013.082 7 100042463.830 6                  24070608.342
  24070612.413                                          43.250          36.000

 122841834.481 7  95543677.813 6                  22955928.215
  22955932.098                                          44.250          41.250

 128995692.031 6                  96327948.923 7  24547059.854
                                  24547060.489          41.250
        43.750
 128707064.983 6 100291225.44742                  24492140.029    24492139.180
                  24492137.230                          36.000          16.250

 108755077.226 8  84744223.114 8  81213216.766 8  20695399.935    20695399.502
  20695400.297    20695400.002    20695399.952          50.500          48.500
        53.750
 123345831.645 7                  92108948.108 7  23471931.842
                                  23471944.305          45.000
        46.750
 127836021.272 8                  95461978.629 8  24326384.249
                                  24326386.248          48.750
        50.500
 115262305.860 7  89814804.505 7  86072521.469 8  21933680.282    21933679.643
  21933681.099    21933680.447    21933680.392          46.500          44.250
        51.000
 108340697.407 8  84421335.616 7                  20616542.132    20616541.712
  20616539.601    20616539.386                          51.750          47.250

 129834360.731 6 101169646.13843                  24706653.872    24706653.162
                  24706651.882                          38.500          19.250

 116811361.429 7  91021859.023 7  87229295.910 8  22228455.874    22228455.289
  22228455.945    22228455.655    22228455.421          46.250          43.250
        49.000
 136666160.241 7                 102055925.894 7  26006699.894
                                  26006701.870          42.500
        45.250
 120594605.413 8                  90054436.586 8  22948383.765
                                  22948385.415          49.750
        52.500
 109118424.494 7  84869907.502 7                  20427192.009
  20427194.477                                          47.500          44.750

 110555589.065 8  85987719.675 8                  20652715.243
  20652718.453                                          51.750          49.500

 110512412.400 8  85954131.319 8                  20695417.752
  20695419.938                                          51.000          49.500

 129321368.335 6 100769884.318 5                  24609038.914    24609038.628
  24609038.359    24609038.068                          37.500          31.750

 114256764.214 7                                  21411668.149
                                                        44.500

 120663657.959 6  94023635.06144                  22961525.699    22961524.778
                  22961524.182                          41.500          25.750

 130723515.513 6                  97618238.476 6  24875855.097
                                  24875854.216          36.500
        39.250
 113780453.786 8  88495945.673 7                  21314905.942
  21314910.067                                          49.250          46.500

 132835873.002 5                  99195629.145 6  25277821.551
                                  25277820.639          35.750
        36.500
 121162037.626 6  94237170.453 6                  22649959.663
  22649963.713                                          41.500          39.250

 19  3 26 19  8  0.0000000  0 29R10R08G23G08G18E05R15R17E08G16G09E24
                                E03G30G07G11G27E02E25R16R07R09G05R06
                                G28E12R18E11R19
 128047118.797 6  99592238.342 5                  24021313.831
  24021322.635                                          41.500          34.750

 124238982.976 7  96630331.300 7                  23200753.959
  23200756.316                                          44.500          42.000

 118585055.289 7  92403923.23745                  22565985.173    22565984.507
                  22565981.657                          45.000          32.250

 110960800.841 8  86462989.578 7  82860370.787 8  21115129.265    21115128.774
  21115130.392    21115129.851    21115128.490          49.250          47.000
        52.500
 135493726.471 6 105579540.10842                  25783598.726    25783598.507
                  25783600.680                          36.750          16.000

 136067575.906 7                 101608917.143 7  25892799.092
                                  25892801.923          43.250
        44.750
 128712628.576 7 100109831.407 5                  24086817.845
  24086821.441                                          43.250          35.500

 122906513.377 7  95593983.584 6                  22968015.816
  22968018.505                                          44.250          40.750

 128942412.233 6                  96288162.075 7  24536920.906
                                  24536921.711          41.000
        43.750
 128812869.591 6 100373670.52342                  24512273.975    24512273.095
                  24512271.538                          36.250          17.000

 108812052.886 8  84788619.717 8  81255763.508 8  20706242.024    20706241.591
  20706242.435    20706242.144    20706242.058          50.250          48.500
        53.750
 123400845.657 7                  92150030.003 7  23482400.703
                                  23482413.076          44.750
        46.500
 127860553.369 8                  95480298.042 8  24331052.578
                                  24331054.586          48.750
        50.250
 115194369.637 7  89761867.206 7  86021789.898 8  21920752.342    21920751.703
  21920753.147    21920752.601    21920752.578          46.500          44.250
        51.000
 108315183.429 8  84401454.600 7                  20611686.916    20611686.496
  20611684.461    20611684.215                          51.750          47.250

 129740064.906 6 101096168.95543                  24688709.457    24688708.733
                  24688707.923                          39.000          20.000

 116865771.093 7  91064256.156 7  87269926.493 8  22238809.608    22238809.027
  22238809.948    22238809.514    22238809.267          46.000          43.000
        49.000
 136611947.279 7                 102015442.234 7  25996383.454
                                  25996385.457          42.500
        45.000
 120594890.215 8                  90054649.265 8  22948437.962
                                  22948439.612          49.750
        52.250
 109165132.845 7  84906236.212 7                  20435936.128
  20435938.118                                          47.500          44.750

 110558693.246 8  85990134.027 8                  20653295.065
  20653298.418                                          51.750          49.750

 110464623.916 8  85916962.501 8                  20686468.685
  20686470.728                                          51.250          49.500

 129326396.094 6 100773802.020 5                  24609995.483    24609995.233
  24609995.586    24609994.763                          37.500          31.750

 114365655.652 7                                  21432074.081
                                                        44.500

 120587141.560 6  93964011.94844                  22946965.090    22946964.169
                  22946963.551                          41.500          25.750

 130700032.630 6                  97600702.561 6  24871386.185
                                  24871385.581          36.250
        38.750
 113743554.244 8  88467246.050 7                  21307993.404
  21307997.386                                          49.250          46.250

 132757639.549 5                  99137208.084 6  25262934.371
                                  25262933.293          35.500
        36.750
 121042761.211 6  94144399.961 6                  22627663.196
  22627665.985                                          41.250          39.250

 19  3 26 19  8 30.0000000  0 29R10R08G23G08G18E05R15R17E08G16G09E24
                                E03G30G07G11G27E02E25R16R07R09G05R06
                                G28E12R18E11R19
 127963024.067 7  99526831.393 5                  24005538.054
  24005547.087                                          42.500          34.000

 124145492.367 7  96557616.411 6                  23183294.125
  23183297.953                                          44.250          41.750

 118684564.148 7  92481462.55245                  22584920.992    22584920.326
                  22584917.544                          45.000          32.250

 110951444.071 8  86455698.605 7  82853383.606 8  21113348.813    21113348.317
  21113350.020    21113349.247    21113347.962          49.250          47.250
        52.750
 135407114.194 6 105512050.02642                  25767117.556    25767117.333
                  25767119.201                          37.500          17.500

 136154807.496 7                 101674057.567 7  25909398.735
                                  25909401.592          43.500
        44.750
 128799228.073 7 100177186.520 6                  24103023.904
  24103028.739                                          42.250          37.750

 122971860.749 7  95644809.293 6                  22980226.297
  22980230.601                                          43.500          41.750

 128889464.050 6                  96248622.872 7  24526845.206
                                  24526846.019          41.500
        44.000
 128918662.993 6 100456106.89643                  24532405.574    24532404.694
                  24532403.722                          37.000          18.250

 108869535.927 8  84833411.684 8  81298689.140 9  20717180.709    20717180.276
  20717181.066    20717180.811    20717180.752          50.250          48.500
        54.000
 123455904.402 7                  92191145.283 7  23492878.117
                                  23492890.388          45.250
        46.500
 127885498.396 8                  95498925.809 8  24335799.443
                                  24335801.456          49.000
        50.500
 115126577.779 7  89709042.400 7  85971166.130 8  21907852.030    21907851.391
  21907852.718    21907852.163    21907852.176          46.500          44.250
        51.500
 108289924.064 8  84381771.979 7                  20606880.253    20606879.833
  20606877.802    20606877.521                          51.750          47.500

 129645767.060 6 101022690.16043                  24670765.266    24670764.560
                  24670764.058                          39.000          20.250

 116920736.759 7  91107086.540 7  87310972.272 8  22249269.284    22249268.703
  22249269.561    22249269.100    22249268.898          46.000          43.250
        49.250
 136557847.069 7                 101975042.767 7  25986088.532
                                  25986090.521          43.000
        45.250
 120595328.273 8                  90054976.397 8  22948521.322
                                  22948522.981          50.250
        52.500
 109212035.678 7  84942716.193 7                  20444716.522
  20444719.022                                          47.250          44.750

 110562620.857 8  85993188.825 8                  20654028.805
  20654031.930                                          52.000          49.750

 110417051.508 8  85879961.747 8                  20677559.930
  20677562.139                                          51.000          49.750

 129331939.913 6 100778121.850 5                  24611050.353    24611050.130
  24611049.329    24611049.772                          37.250          31.500

 114474951.643 7                                  21452556.470
                                                        44.750

 120510885.757 6  93904591.88744                  22932454.148    22932453.227
                  22932452.528                          41.500          25.750

 130676951.568 6                  97583466.736 6  24866994.108
                                  24866993.456          36.750
        39.250
 113707418.951 8  88439140.845 7                  21301224.057
  21301228.196                                          49.250          46.750

 132679522.985 5                  99078874.370 6  25248068.806
                                  25248068.305          35.500
        37.250
 120923706.648 6  94051802.021 6                  22605406.710
  22605409.321                                          41.250          39.000

 19  3 26 19  9  0.0000000  0 29R10R08G23G08G18E05R15R17E08G16G09E24
                                E03G30G07G11G27E02E25R16R07R09G05R06
                                G28E12R18E11R19
 127878985.678 7  99461468.282 5                  23989773.344
  23989782.041                                          43.250          32.000

 124052514.360 7  96485300.192 7                  23165931.637
  23165934.701                                          44.500          42.500

 118784349.599 7  92559217.40345                  22603909.755    22603909.089
                  22603906.164                          45.250          32.250

 110942706.885 8  86448890.421 7  82846859.100 8  21111686.027    21111685.531
  21111687.350    21111686.666    21111685.305          49.250          47.500
        52.250
 135320408.814 6 105444487.46543                  25750618.037    25750617.765
                  25750619.754                          37.500          18.000

 136242176.762 7                 101739300.800 7  25926024.522
                                  25926027.496          43.000
        45.000
 128885808.204 7 100244526.544 6                  24119225.943
  24119230.697                                          42.000          39.000

 123037870.158 7  95696149.923 6                  22992562.560
  22992565.678                                          43.000          41.500

 128836845.377 6                  96209329.713 7  24516832.178
                                  24516832.858          41.250
        44.000
 129024440.137 6 100538530.59643                  24552534.372    24552533.509
                  24552532.391                          37.500          19.750

 108927521.241 8  84878595.034 8  81341989.846 8  20728214.929    20728214.496
  20728215.358    20728215.067    20728214.999          50.250          48.750
        53.500
 123511003.910 7                  92232291.011 7  23503363.271
                                  23503375.502          44.750
        46.750
 127910852.283 8                  95517858.894 8  24340624.033
                                  24340626.121          48.500
        50.500
 115058927.797 7  89656328.142 7  85920648.305 8  21894978.586    21894977.947
  21894979.158    21894978.804    21894978.790          46.500          44.500
        51.000
 108264917.022 8  84362285.972 7                  20602121.619    20602121.199
  20602119.195    20602118.811                          51.750          47.750

 129551466.701 6 100949209.43443                  24652820.331    24652819.616
                  24652819.365                          39.500          21.750

 116976252.855 7  91150345.829 7  87352429.088 8  22259833.532    22259832.951
  22259833.898    22259833.415    22259833.209          46.000          43.500
        49.000
 136503855.848 7                 101934724.678 7  25975814.388
                                  25975816.253          42.750
        45.500
 120595915.516 8                  90055414.925 8  22948633.144
                                  22948634.713          49.750
        52.500
 109259128.812 7  84979344.179 7                  20453532.495
  20453534.311                                          47.250          44.750

 110567367.533 8  85996880.678 8                  20654915.586
  20654919.006                                          51.750          49.750

 110369691.305 8  85843126.046 8                  20668690.748
  20668692.823                                          51.250          49.750

 129337995.378 6 100782840.374 5                  24612203.146    24612202.954
  24612201.420    24612202.135                          38.000          31.250

 114584644.792 7                                  21473112.965
                                                        44.750

 120434887.545 7  93845372.54844                  22917992.289    22917991.368
                  22917990.442                          42.000          26.250

 130654269.805 6                  97566529.071 6  24862677.789
                                  24862677.253          36.000
        39.250
 113672046.675 8  88411629.085 7                  21294597.407
  21294601.613                                          49.500          46.750

 132601522.012 5                  99020626.932 6  25233225.930
                                  25233225.174          35.500
        37.750
 120804875.220 6  93959377.611 6                  22583192.427
  22583195.118                                          41.000          38.750

 19  3 26 19  9 30.0000000  0 29R10R08G23G08G18E05R15R17E08G16G09E24
                                E03G30G07G11G27E02E25R16R07R09G05R06
                                G28E12R18E11R19
 127795007.049 7  99396151.617 5                  23974019.163
  23974029.743                                          44.000          31.000

 123960056.225 7  96413388.371 7                  23148665.731
  23148668.830                                          43.750          42.750

 118884413.379 7  92637189.12845                  22622951.443    22622950.777
                  22622947.677                          45.000          32.000

 110934593.022 8  86442567.945 7  82840800.064 8  21110142.086    21110141.595
  21110143.310    21110142.590    21110141.257          49.000          47.250
        52.250
 135233616.634 6 105376857.27742                  25734101.776    25734101.441
                  25734102.965                          36.500          17.000

 136329685.683 7                 101804648.318 7  25942676.946
                                  25942680.112          42.750
        45.000
 128972372.720 6 100311854.450 6                  24135424.685
  24135429.935                                          40.250          39.000

 123104542.792 7  95748006.367 7                  23005021.053
  23005024.896                                          43.000          42.000

 128784561.349 6                  96170286.478 7  24506882.915
                                  24506883.666          41.000
        44.000
 129130203.678 6 100620943.69943                  24572660.871    24572660.040
                  24572658.429                          38.000          20.000

 108986011.021 8  84924171.470 8  81385667.265 8  20739345.239    20739344.806
  20739345.489    20739345.310    20739345.237          50.250          48.500
        53.500
 123566147.530 7                  92273469.671 7  23513856.616
                                  23513868.998          44.750
        46.500
 127936618.172 8                  95537099.647 8  24345527.224
                                  24345529.223          48.500
        50.500
 114991424.515 7  89603728.204 7  85870240.030 8  21882133.262    21882132.619
  21882133.875    21882133.365    21882133.292          46.500          44.500
        51.000
 108240167.081 8  84343000.309 7                  20597411.836    20597411.416
  20597409.251    20597409.086                          51.500          47.500

 129457170.189 6 100875731.70943                  24634876.405    24634875.712
                  24634875.381                          39.750          22.000

 117032321.024 7  91194035.304 7  87394298.165 8  22270503.086    22270502.510
  22270503.327    22270502.862    22270502.664          46.000          43.250
        49.000
 136449977.145 7                 101894490.632 7  25965561.555
                                  25965563.469          42.750
        45.250
 120596655.178 8                  90055967.274 8  22948773.878
                                  22948775.456          49.500
        52.500
 109306415.282 7  85016122.542 7                  20462384.330
  20462386.615                                          47.250          44.750

 110572937.209 8  86001212.631 8                  20655956.046
  20655959.399                                          52.000          49.750

 110322547.123 8  85806458.362 8                  20659862.033
  20659864.362                                          51.250          49.500

 129344565.303 6 100787959.826 5                  24613452.941    24613452.785
  24613452.905    24613452.489                          37.500          32.000

 114694733.433 7                                  21493743.407
                                                        44.500

 120359151.476 7  93786357.48144                  22903579.931    22903579.010
                  22903578.321                          42.000          26.500

 130631992.039 6                  97549893.102 6  24858438.551
                                  24858437.831          36.250
        39.250
 113637443.400 8  88384715.455 7                  21288115.355
  21288119.333                                          49.500          46.500

 132523642.523 5                  98962470.213 6  25218406.059
                                  25218405.102          35.250
        38.000
 120686275.327 6  93867133.296 6                  22561020.922
  22561024.579                                          41.250          39.250

 19  3 26 19 10  0.0000000  0 29R10R08G23G08G18E05R15R17E08G16G09E24
                                E03G30G07G11G27E02E25R16R07R09G05R06
                                G28E12R18E11R19
 127711086.092 7  99330879.776 4                  23958275.348
  23958285.714                                          43.750          29.750

 123868119.121 7  96341881.753 7                  23131496.667
  23131500.119                                          43.250          42.750

 118984750.709 7  92715374.01345                  22642044.805    22642044.135
                  22642041.308                          45.000          32.000

 110927100.776 8  86436729.850 7  82835205.219 8  21108716.393    21108715.897
  21108717.640    21108716.853    21108715.542          49.000          46.750
        52.500
 135146738.320 6 105309160.01643                  25717569.091    25717568.729
                  25717570.262                          37.250          19.250

 136417330.213 7                 101870097.095 7  25959355.189
                                  25959358.360          42.750
        45.000
 129058919.319 6 100379168.414 6                  24151621.379
  24151626.366                                          40.250          40.250

 123171873.637 7  95800374.762 7                  23017603.823
  23017607.679                                          42.750          42.000

 128732611.116 6                  96131492.483 7  24496996.961
                                  24496997.878          40.750
        44.000
 129235949.348 6 100703342.88043                  24592783.825    24592782.958
                  24592781.441                          37.750          20.750

 109045001.409 8  84970137.994 8  81429718.514 8  20750570.701    20750570.268
  20750570.844    20750570.812    20750570.749          50.000          48.250
        53.500
 123621332.581 7                  92314679.279 7  23524358.078
                                  23524370.411          44.750
        46.500
 127962793.184 8                  95556645.905 8  24350508.114
                                  24350510.203          48.500
        50.250
 114924066.673 7  89551241.587 7  85819940.365 8  21869315.333    21869314.685
  21869316.245    21869315.637    21869315.484          46.250          44.000
        51.250
 108215673.268 8  84323914.222 7                  20592750.795    20592750.375
  20592748.215    20592748.058                          51.500          47.000

 129362878.066 6 100802257.39443                  24616933.465    24616932.772
                  24616931.796                          39.750          22.750

 117088936.924 7  91238151.582 7  87436576.260 8  22281276.771    22281276.199
  22281277.030    22281276.556    22281276.345          45.750          42.750
        49.250
 136396208.557 7                 101854338.803 7  25955329.659
                                  25955331.618          42.750
        45.000
 120597544.480 8                  90056631.371 8  22948943.137
                                  22948944.738          49.750
        52.500
 109353892.540 7  85053049.306 7                  20471272.153
  20471274.295                                          47.500          44.250

 110579326.842 8  86006182.337 8                  20657149.687
  20657152.973                                          52.000          49.500

 110275616.783 8  85769957.002 8                  20651073.818
  20651075.611                                          51.250          49.750

 129351646.727 6 100793477.743 5                  24614801.304    24614801.103
  24614800.772    24614800.011                          37.750          31.000

 114805211.424 7                                  21514446.795
                                                        44.500

 120283675.440 7  93727545.03044                  22889217.454    22889216.529
                  22889215.803                          42.000          27.250

 130610116.980 6                  97533557.837 6  24854276.015
                                  24854275.116          36.000
        39.000
 113603609.153 8  88358399.933 7                  21281777.021
  21281780.901                                          49.500          46.500

 132445884.412 5                  98904404.127 6  25203609.070
                                  25203608.279          35.500
        38.250
 120567909.361 6  93775070.941 6                  22538893.043
  22538896.723                                          40.750          39.500

 19  3 26 19 10 30.0000000  0 29R10R08G23G08G18E05R15R17E08G16G09E24
                                E03G30G07G11G27E02E25R16R07R09G05R06
                                G28E12R18E11R19
 127627224.004 7  99265653.704 4                  23942542.896
  23942552.054                                          44.000          27.500

 123776708.596 7  96270784.725 7                  23114426.582
  23114429.650                                          42.500          42.500

 119085360.620 7  92793771.29545                  22661190.525    22661189.859
                  22661186.666                          45.000          31.500

 110920231.878 8  86431377.475 7  82830075.860 8  21107409.256    21107408.765
  21107410.476    21107409.774    21107408.396          49.250          47.250
        52.500
 135059778.248 6 105241399.06843                  25701020.688    25701020.322
                  25701022.601                          36.250          18.250

 136505110.290 7                 101935647.088 7  25976059.314
                                  25976062.387          42.500
        45.000
 129145449.633 6 100446469.690 6                  24167813.302
  24167818.911                                          37.250          41.000

 123239861.283 7  95853254.022 7                  23030308.560
  23030313.257                                          42.750          42.250

 128680997.780 6                  96092950.081 7  24487175.452
                                  24487176.105          40.750
        43.750
 129341677.353 6 100785728.28143                  24612903.035    24612902.168
                  24612901.130                          37.750          20.750

 109104492.490 8  85016494.663 8  81474143.654 8  20761891.596    20761891.163
  20761891.748    20761891.609    20761891.532          50.000          48.250
        53.750
 123676560.394 7                  92355920.819 7  23534867.579
                                  23534879.984          44.500
        46.250
 127989378.424 8                  95576498.505 8  24355567.195
                                  24355569.189          48.500
        50.250
 114856857.024 7  89498870.448 7  85769751.357 8  21856525.825    21856525.182
  21856526.795    21856526.004    21856525.927          46.500          44.500
        51.250
 108191438.330 8  84305029.860 7                  20588139.040    20588138.620
  20588136.522    20588136.285                          51.500          47.500

 129268595.165 6 100728790.26043                  24598991.516    24598990.828
                  24598990.460                          39.250          22.750

 117146100.187 7  91282694.382 7  87479263.101 8  22292154.537    22292153.965
  22292154.751    22292154.412    22292154.151          45.750          43.000
        49.000
 136342551.525 7                 101814270.279 7  25945119.137
                                  25945120.966          42.750
        45.000
 120598584.610 8                  90057408.095 8  22949141.040
                                  22949142.664          49.750
        52.250
 109401561.505 7  85090125.149 7                  20480195.762
  20480197.998                                          47.250          44.250

 110586537.656 8  86011790.740 8                  20658496.722
  20658500.133                                          52.000          49.500

 110228901.603 8  85733622.989 8                  20642325.606
  20642327.412                                          51.250          49.500

 129359240.401 6 100799394.842 5                  24616245.816    24616245.615
  24616245.699    24616244.908                          37.750          31.000

 114916075.692 7                                  21535222.449
                                                        44.250

 120208461.975 7  93668937.18044                  22874904.790    22874903.869
                  22874903.247                          42.000          27.500

 130588647.249 6                  97517525.259 6  24850190.096
                                  24850189.666          36.000
        39.000
 113570547.794 8  88332685.561 7                  21275583.416
  21275587.353                                          49.500          46.750

 132368251.521 5                  98846431.564 6  25188836.129
                                  25188835.293          35.750
        38.250
 120449783.930 6  93683195.631 6                  22516811.369
  22516814.942                                          40.500          40.000

 19  3 26 19 11  0.0000000  0 29R10R08G23G08G18E05R15R17E08G16G09E24
                                E03G30G07G11G27E02E25R16R07R09G05R06
                                G28E12R18E11R19
 127543420.760 7  99200473.413 4                  23926821.579
  23926827.272                                          43.750          27.250

 123685827.780 7  96200099.687 7                  23097454.794
  23097458.484                                          42.250          42.500

 119186240.038 7  92872378.58745                  22680387.238    22680386.581
                  22680383.401                          45.000          31.000

 110913986.115 8  86426510.655 7  82825411.828 8  21106220.664    21106220.168
  21106221.808    21106221.205    21106219.849          49.250          47.250
        52.500
 134972738.786 6 105173576.24542                  25684458.009    25684457.656
                  25684459.292                          36.000          17.750

 136593023.531 7                 102001296.546 7  25992788.679
                                  25992791.765          42.250
        45.250
 129231963.293 6 100513757.996 6                  24184004.632
  24184008.998                                          36.500          41.250

 123308502.677 7  95906641.741 7                  23043136.864
  23043139.973                                          43.500          42.500

 128629722.150 6                  96054659.847 7  24477417.948
                                  24477418.623          40.500
        44.000
 129447385.464 6 100868098.18043                  24633018.210    24633017.339
                  24633016.483                          37.250          20.000

 109164482.054 8  85063239.763 8  81518941.041 8  20773307.274    20773306.841
  20773307.416    20773307.246    20773307.170          50.250          48.250
        53.500
 123731830.010 7                  92397193.567 7  23545385.082
                                  23545397.393          44.250
        46.500
 128016372.659 8                  95596656.527 8  24360704.044
                                  24360706.052          48.250
        50.250
 114789796.048 7  89446615.162 7  85719673.378 8  21843764.625    21843763.982
  21843765.098    21843764.709    21843764.597          46.750          44.500
        51.250
 108167462.853 8  84286347.674 7                  20583576.693    20583576.273
  20583574.140    20583573.903                          51.750          47.500

 129174323.782 6 100655332.13143                  24581052.118    24581051.443
                  24581050.893                          39.000          22.750

 117203808.102 7  91327661.579 7  87522356.669 8  22303136.061    22303135.485
  22303136.306    22303135.931    22303135.643          46.000          43.250
        48.750
 136289005.273 7                 101774284.476 7  25934929.509
                                  25934931.525          42.500
        45.000
 120599774.476 8                  90058296.635 8  22949367.489
                                  22949369.009          49.250
        52.500
 109449421.076 7  85127349.265 7                  20489155.517
  20489157.503                                          47.250          44.250

 110594568.446 8  86018036.894 8                  20659997.162
  20660000.207                                          52.250          49.250

 110182401.206 8  85697456.027 8                  20633617.453
  20633619.219                                          51.500          49.750

 129367344.831 6 100805709.974 5                  24617788.455    24617788.245
  24617787.967    24617787.337                          38.500          31.750

 115027321.140 7                                  21556070.223
                                                        44.250

 120133511.058 7  93610533.92344                  22860642.113    22860641.197
                  22860640.436                          42.500          27.750

 130567583.228 5                  97501795.645 6  24846181.998
                                  24846181.439          35.750
        39.250
 113538260.993 8  88307573.621 7                  21269535.060
  21269538.971                                          49.750          46.750

 132290745.421 5                  98788553.699 6  25174087.078
                                  25174086.394          35.500
        39.000
 120331902.938 6  93591510.476 6                  22494775.009
  22494778.255                                          40.750          40.750

 19  3 26 19 11 30.0000000  0 29R10R08G23G08G18E05R15R17E08G16G09E24
                                E03G30G07G11G27E02E25R16R07R09G05R06
                                G28E12R18E11R19
 127459674.414 7  99135337.398 4                  23911110.796
  23911118.667                                          43.000          28.000

 123595478.534 7  96129828.106 7                  23080582.574
  23080586.121                                          42.000          42.250

 119287384.993 7  92951192.79345                  22699634.241    22699633.580
                  22699630.752                          44.750          31.000

 110908361.728 8  86422128.028 7  82821211.813 8  21105150.389    21105149.893
  21105151.654    21105150.885    21105149.543          49.250          47.000
        52.250
 134885620.852 5 105105692.34342                  25667879.498    25667879.141
                  25667881.018                          33.500          16.000

 136681066.595 7                 102067042.919 7  26009542.712
                                  26009545.896          42.250
        45.000
 129318458.538 5 100581031.959 7                  24200189.880
  24200195.551                                          35.500          42.000

 123377792.978 7  95960534.147 7                  23056084.669
  23056089.022                                          43.250          42.250

 128578784.006 6                  96016621.633 7  24467724.507
                                  24467725.499          40.750
        44.000
 129553071.006 6 100950450.51043                  24653129.684    24653128.821
                  24653127.828                          37.000          18.750

 109224966.877 8  85110370.782 8  81564108.260 8  20784817.082    20784816.649
  20784817.206    20784817.117    20784817.071          50.250          48.250
        53.250
 123787139.413 7                  92438496.030 7  23555910.091
                                  23555922.487          44.500
        46.500
 128043773.647 8                  95617118.285 8  24365918.277
                                  24365920.271          48.500
        50.250
 114722883.222 7  89394475.315 7  85669706.025 8  21831031.374    21831030.726
  21831032.121    21831031.642    21831031.525          46.750          44.500
        51.000
 108143746.399 8  84267867.319 7                  20579063.631    20579063.211
  20579060.984    20579060.854                          51.750          47.500

 129080064.947 6 100581883.75643                  24563115.017    24563114.365
                  24563113.984                          39.000          22.500

 117262056.921 7  91373050.258 7  87565854.152 8  22314220.385    22314219.809
  22314220.443    22314220.255    22314219.972          46.000          43.000
        48.500
 136235567.972 7                 101734380.043 7  25924760.859
                                  25924762.607          43.000
        45.000
 120601111.918 8                  90059295.379 8  22949621.932
                                  22949623.564          49.750
        52.250
 109497469.269 7  85164720.079 7                  20498150.342
  20498152.381                                          47.250          44.500

 110603417.030 8  86024919.119 8                  20661649.980
  20661653.096                                          52.250          49.250

 110136113.744 8  85661454.682 8                  20624949.078
  20624951.389                                          51.250          50.000

 129375957.633 6 100812421.203 5                  24619427.241    24619427.005
  24619426.154    24619426.056                          38.250          31.250

 115138941.535 7                                  21576987.922
                                                        44.250

 120058821.439 7  93552334.25944                  22846429.131    22846428.219
                  22846427.409                          42.500          28.000

 130546924.183 6                  97486368.441 6  24842250.842
                                  24842250.198          36.000
        39.250
 113506749.218 8  88283064.477 7                  21263632.052
  21263635.677                                          49.750          46.750

 132213366.717 6                  98730770.917 6  25159362.377
                                  25159361.720          36.500
        39.000
 120214269.569 6  93500017.928 6                  22472784.538
  22472787.977                                          41.000          40.750

 19  3 26 19 12  0.0000000  0 29R10R08G23G08G18E05R15R17E08G16G09E24
                                E03G30G07G11G27E02E25R16R07R09G05R06
                                G28E12R18E11R19
 127375985.774 7  99070246.305 5                  23895411.160
  23895419.164                                          42.250          30.500

 123505666.378 6  96059974.238 6                  23063811.367
  23063814.565                                          41.750          41.750

 119388794.935 7  93030213.47745                  22718932.120    22718931.468
                  22718928.368                          44.250          30.000

 110903361.380 8  86418231.663 7  82817477.800 8  21104198.879    21104198.383
  21104200.059    21104199.313    21104198.019          49.250          47.000
        52.500
 134798429.347 5 105037751.06642                  25651287.947    25651287.541
                  25651288.703                          31.750          12.000

 136769239.491 7                 102132886.261 7  26026321.409
                                  26026324.728          42.750
        45.250
 129404937.318 5 100648293.121 7                  24216373.533
  24216379.312                                          34.750          42.500

 123447731.316 7  96014930.618 7                  23069154.334
  23069158.606                                          43.250          43.000

 128528186.546 6                  95978837.844 7  24458096.426
                                  24458097.074          41.250
        44.000
 129658733.974 5 101032785.24342                  24673236.467    24673235.618
                  24673234.682                          35.750          17.000

 109285947.127 8  85157887.841 8  81609645.443 8  20796421.293    20796420.860
  20796421.610    20796421.275    20796421.220          50.000          48.000
        53.250
 123842490.079 7                  92479829.301 7  23566442.920
                                  23566455.401          45.000
        46.750
 128071582.578 8                  95637884.686 8  24371210.149
                                  24371212.144          48.750
        50.500
 114656121.457 7  89342453.176 7  85619851.479 8  21818327.121    21818326.473
  21818327.778    21818327.251    21818327.133          46.750          44.500
        51.250
 108120291.876 8  84249591.072 7                  20574600.297    20574599.877
  20574597.761    20574597.591                          51.750          47.500

 128985823.203 6 100508448.70243                  24545181.577    24545180.916
                  24545180.647                          38.000          21.500

 117320846.333 7  91418860.193 7  87609755.330 8  22325407.702    22325407.126
  22325407.944    22325407.456    22325407.272          45.750          43.000
        48.750
 136182241.267 7                 101694558.210 7  25914613.104
                                  25914614.785          43.500
        45.250
 120602598.302 8                  90060405.344 8  22949904.769
                                  22949906.397          50.000
        52.500
 109545707.183 7  85202238.450 7                  20507180.634
  20507182.489                                          47.250          44.500

 110613084.466 8  86032438.223 8                  20663455.852
  20663459.187                                          52.000          49.500

 110090041.223 8  85625620.517 8                  20616321.294
  20616323.226                                          51.250          49.750

 129385079.095 6 100819528.813 5                  24621163.141    24621162.860
  24621162.152    24621161.942                          38.500          31.500

 115250934.625 7                                  21597974.778
                                                        44.000

 119984395.786 7  93494340.28244                  22832266.360    22832265.444
                  22832264.607                          42.500          28.000

 130526672.884 6                  97471245.724 6  24838396.989
                                  24838396.363          36.250
        39.500
 113476016.442 8  88259161.214 7                  21257874.885
  21257878.438                                          49.750          46.750

 132136119.331 6                  98673086.243 6  25144662.828
                                  25144661.875          37.250
        39.000
 120096890.410 6  93408723.089 6                  22450841.046
  22450844.944                                          41.000          41.000

 19  3 26 19 12 30.0000000  0 29R10R08G23G08G18E05R15R17E08G16G09E24
                                E03G30G07G11G27E02E25R16R07R09G05R06
                                G28E12R18E11R19
 127292353.943 6  99005199.399 5                  23879721.412
  23879728.791                                          41.500          32.250

 123416393.093 7  95990539.501 7                  23047139.951
  23047143.314                                          42.500          42.000

 119490465.559 7  93109437.28345                  22738279.311    22738278.659
                  22738275.626                          44.500          30.000

 110898983.046 8  86414819.981 7  82814208.274 8  21103365.664    21103365.168
  21103366.880    21103366.178    21103364.862          49.500          47.000
        52.500
 134711165.175 5 104969753.20441                  25634681.455    25634680.955
                  25634682.818                          31.000          10.250

 136857538.607 7                 102198823.849 7  26043124.300
                                  26043127.507          42.500
        45.250
 129491397.817 6 100715540.021 7                  24232554.140
  24232558.631                                          36.000          42.250

 123518312.856 7  96069827.329 7                  23082344.311
  23082348.028                                          43.750          42.500

 128477929.298 6                  95941308.093 7  24448532.551
                                  24448533.365          41.000
        44.000
 129764371.078 5 101115099.80242                  24693339.035    24693338.204
                  24693336.665                          35.000          15.250

 109347419.208 8  85205788.152 8  81655549.904 8  20808119.018    20808118.589
  20808119.330    20808119.049    20808118.981          50.250          48.250
        53.250
 123897879.765 7                  92521191.723 7  23576983.286
                                  23576995.757          44.500
        46.750
 128099796.913 8                  95658953.812 8  24376579.222
                                  24376581.172          48.500
        50.500
 114589509.952 7  89290548.128 7  85570109.146 8  21805651.310    21805650.662
  21805652.043    21805651.470    21805651.367          47.250          44.500
        51.250
 108097098.535 8  84231518.349 7                  20570186.814    20570186.394
  20570184.252    20570184.010                          52.000          47.500

 128891599.586 6 100435027.78043                  24527251.180    24527250.528
                  24527250.183                          38.000          21.000

 117380172.300 7  91465088.207 7  87654057.175 8  22336697.154    22336696.582
  22336697.181    22336696.863    22336696.625          46.000          43.000
        48.500
 136129023.073 7                 101654817.388 7  25904485.966
                                  25904487.629          43.250
        45.250
 120604231.254 8                  90061624.759 8  22950215.511
                                  22950217.125          49.750
        52.750
 109594132.397 7  85239902.505 7                  20516245.605
  20516247.886                                          47.250          44.250

 110623568.542 8  86040592.491 8                  20665414.440
  20665417.941                                          52.000          49.500

 110044181.536 8  85589951.894 8                  20607733.087
  20607735.282                                          51.250          49.500

 129394706.789 6 100827030.911 5                  24622994.999    24622994.740
  24622994.400    24622994.055                          38.750          30.750

 115363293.724 7                                  21619031.251
                                                        44.250

 119910232.454 7  93436550.71044                  22818153.535    22818152.628
                  22818151.849                          43.000          28.250

 130506828.344 6                  97456426.773 6  24834620.753
                                  24834620.007          36.000
        39.750
 113446062.858 8  88235864.000 7                  21252263.401
  21252267.124                                          49.750          47.000

 132059003.608 6                  98615499.872 6  25129988.268
                                  25129987.338          37.250
        39.250
 119979768.285 6  93317628.156 6                  22428945.826
  22428950.557                                          41.500          41.000

 19  3 26 19 13  0.0000000  0 29R10R08G23G08G18E05R15R17E08G16G09E24
                                E03G30G07G11G27E02E25R16R07R09G05R06
                                G28E12R18E11R19
 127208779.825 6  98940197.392 5                  23864044.428
  23864050.273                                          40.250          33.250

 123327663.824 7  95921527.893 6                  23030570.659
  23030573.329                                          42.750          41.500

 119592396.053 7  93188863.59645                  22757676.124    22757675.472
                  22757672.555                          44.500          30.000

 110895228.555 8  86411894.419 7  82811404.609 8  21102651.225    21102650.729
  21102652.396    21102651.676    21102650.388          49.500          47.250
        52.750
 134623833.236 4 104901702.43441                  25618062.478    25618061.987
                  25618063.971                          29.250           8.000

 136945963.928 7                 102264855.680 7  26059950.954
                                  26059954.291          42.250
        44.750
 129577841.915 6 100782774.228 7                  24248731.939
  24248736.019                                          37.250          42.000

 123589536.489 7  96125223.472 7                  23095654.588
  23095658.288                                          44.500          42.500

 128428015.338 6                  95904034.692 7  24439034.325
                                  24439035.094          41.000
        43.750
 129869982.762 5 101197394.57642                  24713435.246    24713434.451
                  24713434.007                          34.000          12.750

 109409383.235 8  85254071.792 8  81701821.724 8  20819910.415    20819909.982
  20819910.772    20819910.419    20819910.391          50.250          48.250
        53.500
 123953309.879 7                  92562584.330 7  23587531.259
                                  23587543.833          44.500
        46.500
 128128417.708 8                  95680326.464 8  24382025.471
                                  24382027.538          48.500
        50.000
 114523051.550 7  89238762.372 7  85520481.133 8  21793004.775    21793004.127
  21793005.414    21793004.918    21793004.734          47.250          44.750
        51.500
 108074169.225 8  84213651.350 7                  20565823.531    20565823.111
  20565821.036    20565820.714                          52.000          47.750

 128797398.717 6 100361624.56643                  24509325.520    24509324.903
                  24509324.437                          38.000          20.250

 117440034.402 7  91511733.993 7  87698759.381 8  22348088.359    22348087.787
  22348088.739    22348088.278    22348087.987          46.000          43.250
        48.750
 136075914.955 7                 101615158.773 7  25894379.715
                                  25894381.495          43.500
        45.000
 120606012.025 8                  90062954.560 8  22950554.340
                                  22950555.937          49.750
        52.250
 109642746.311 7  85277713.323 7                  20525346.458
  20525348.376                                          47.250          44.250

 110634869.660 8  86049382.234 8                  20667525.571
  20667529.120                                          52.000          49.500

 109998536.638 8  85554450.327 8                  20599185.287
  20599187.343                                          51.250          49.750

 129404841.469 6 100834928.002 5                  24624923.736    24624923.500
  24624922.949    24624922.309                          39.000          31.250

 115476016.427 7                                  21640155.573
                                                        44.250

 119836333.789 7  93378967.37244                  22804091.124    22804090.212
                  22804089.361                          43.000          28.250

 130487393.172 5                  97441913.524 6  24830922.226
                                  24830921.632          35.750
        39.000
 113416892.107 8  88213175.655 7                  21246798.556
  21246802.660                                          49.750          47.000

 131982023.491 6                  98558014.749 6  25115339.234
                                  25115338.492          37.500
        39.000
 119862909.906 7  93226738.353 6                  22407101.853
  22407104.410                                          42.000          41.000

 19  3 26 19 13 30.0000000  0 29R10R08G23G08G18E05R15R17E08G16G09E24
                                E03G30G07G11G27E02E25R16R07R09G05R06
                                G28E12R18E11R19
 127125264.751 6  98875241.314 5                  23848376.019
  23848384.819                                          38.000          35.000

 123239483.483 7  95852943.198 6                  23014103.376
  23014106.333                                          43.250          40.500

 119694585.037 7  93268491.31745                  22777122.088    22777121.440
                  22777118.640                          44.000          30.250

 110892098.638 8  86409455.531 7  82809067.341 8  21102055.600    21102055.104
  21102056.906    21102056.052    21102054.754          49.500          47.000
        52.750
                                                  25601431.490
                                                        26.500

 137034514.573 7                 102330981.099 7  26076801.754
                                  26076805.077          42.750
        45.000
 129664270.457 6 100849996.330 6                  24264904.295
  24264909.640                                          38.250          41.500

 123661400.123 7  96181117.345 7                  23109083.931
  23109087.858                                          43.500          42.250

 128378446.990 6                  95867019.376 7  24429601.732
                                  24429602.385          41.000
        43.750
 129975568.369 5 101279669.02842                  24733527.579    24733526.801
                  24733526.210                          32.250          12.750

 109471838.417 8  85302738.154 8  81748460.319 8  20831795.267    20831794.838
  20831795.486    20831795.289    20831795.275          50.250          48.000
        53.500
 124008780.989 7                  92604007.536 7  23598087.074
                                  23598099.594          44.500
        46.750
 128157445.219 8                  95702002.833 8  24387549.352
                                  24387551.337          48.750
        50.250
 114456748.287 7  89187097.509 7  85470968.974 8  21780387.623    21780386.980
  21780388.284    21780387.792    21780387.630          47.250          44.750
        51.500
 108051506.017 8  84195991.709 7                  20561510.799    20561510.379
  20561508.187    20561508.035                          52.000          47.500

 128703224.770 6 100288242.34943                  24491404.947    24491404.348
                  24491403.466                          37.750          21.000

 117500431.342 7  91558796.535 7  87743860.987 8  22359581.761    22359581.189
  22359581.792    22359581.502    22359581.089          45.750          43.250
        48.750
 136022917.587 7                 101575582.861 7  25884294.784
                                  25884296.269          43.750
        45.250
 120607941.047 8                  90064395.068 8  22950921.496
                                  22950923.034          50.000
        52.500
 109691549.258 7  85315671.171 7                  20534482.171
  20534484.720                                          47.250          44.250

 110646988.452 8  86058807.950 8                  20669789.642
  20669792.727                                          52.000          49.500

 109953107.272 8  85519116.393 8                  20590677.627
  20590679.835                                          51.250          49.750

 129415483.029 6 100843220.149 5                  24626948.773    24626948.559
  24626947.574    24626947.731                          38.750          31.250

 115589099.205 7                                  21661347.137
                                                        44.000

 119762701.431 7  93321591.54444                  22790079.281    22790078.369
                  22790077.425                          43.000          28.500

 130468369.197 6                  97427707.310 6  24827301.978
                                  24827301.397          36.000
        39.250
 113388507.169 8  88191098.501 7                  21241481.198
  21241484.823                                          49.500          47.000

 131905182.063 6                  98500633.204 6  25100716.639
                                  25100715.973          37.500
        39.000
 119746320.823 6  93136058.008 6                  22385305.483
  22385309.386                                          41.750          41.000

 19  3 26 19 14  0.0000000  0 29R10R08G23G08G18E05R15R17E08G16G09E24
                                E03G30G07G11G27E02E25R16R07R09G05R06
                                G28E12R18E11R19
 127041805.506 6  98810328.664 6                  23832718.392
  23832726.670                                          36.000          36.000

 123151851.857 7  95784785.302 6                  22997738.558
  22997741.117                                          43.750          40.500

 119797026.640 7  93348315.88444                  22796616.168    22796615.516
                  22796612.653                          44.250          29.750

 110889590.274 8  86407500.963 7  82807194.215 8  21101578.243    21101577.747
  21101579.373    21101578.730    21101577.387          49.500          47.000
        52.500
                                                  25584788.438
                                                        24.250

 137123185.307 7                 102397196.200 7  26093675.396
                                  26093678.500          42.500
        44.750
 129750680.040 6 100917203.690 6                  24281075.110
  24281080.746                                          40.500          40.750

 123733897.177 7  96237503.960 7                  23122631.857
  23122636.071                                          44.500          42.500

 128329222.128 6                  95830260.563 7  24420234.561
                                  24420235.205          40.750
        43.750
 130081122.836 5 101361919.21641                  24753614.448    24753613.653
                  24753612.552                          32.500          11.000

 109534779.551 8  85351783.180 8  81795461.800 8  20843772.523    20843772.090
  20843772.948    20843772.608    20843772.553          50.250          48.000
        53.250
 124064289.268 7                  92645458.519 7  23608649.924
                                  23608662.516          44.250
        47.000
 128186875.286 8                  95723979.820 8  24393149.676
                                  24393151.679          48.500
        50.250
 114390597.796 7  89135551.688 7  85421570.894 8  21767799.653    21767799.010
  21767800.252    21767799.729    21767799.612          47.500          44.500
        51.250
 108029106.927 8  84178537.876 7                  20557248.423    20557248.008
  20557245.780    20557245.623                          52.000          47.250

 128609077.038 6 100214880.56343                  24473488.891    24473488.301
                  24473487.451                          38.000          20.250

 117561357.464 7  91606271.432 7  87789357.756 8  22371175.517    22371174.945
  22371175.620    22371175.387    22371174.975          46.000          43.000
        48.250
 135970027.349 7                 101536086.947 7  25874229.977
                                  25874231.614          43.250
        45.250
 120610014.352 8                  90065943.320 8  22951316.024
                                  22951317.585          49.500
        52.500
 109740537.233 7  85353772.916 7                  20543653.153
  20543655.241                                          47.250          44.500

 110659920.477 8  86068866.175 8                  20672205.478
  20672208.617                                          52.250          49.500

 109907889.821 8  85483947.285 8                  20582210.146
  20582212.072                                          51.250          50.000

 129426627.288 6 100851903.934 5                  24629069.620    24629069.384
  24629068.278    24629068.453                          39.250          31.000

 115702533.960 7                                  21682604.973
                                                        44.000

 119689332.412 7  93264420.91944                  22776117.696    22776116.784
                  22776115.795                          43.250          28.500

 130449753.763 5                  97413806.204 6  24823759.408
                                  24823758.983          35.750
        39.250
 113360906.391 8  88169631.239 7                  21236310.457
  21236314.434                                          49.500          47.000

 131828477.963 6                  98443354.215 6  25086120.366
                                  25086119.556          37.500
        38.750
 119630002.284 6  93045588.080 6                  22363561.799
  22363564.321                                          41.750          40.750

 19  3 26 19 14 30.0000000  0 29R10R08G23G08G18E05R15R17E08G16G09E24
                                E03G30G07G11G27E02E25R16R07R09G05R06
                                G28E12R18E11R19
 126958403.147 5  98745460.328 6                  23817072.469
  23817081.685                                          35.250          38.000

 123064774.653 7  95717058.599 7                  22981477.943
  22981481.213                                          44.000          43.000

 119899719.939 7  93428336.56545                  22816158.024    22816157.363
                  22816154.647                          45.000          30.250

 110887704.996 8  86406031.938 7  82805786.397 8  21101219.469    21101218.973
  21101220.837    21101219.960    21101218.689          48.750          46.250
        52.250
                                                  25568132.326
                                                        25.500

 137211976.088 7                 102463500.941 7  26110571.679
                                  26110574.850          43.750
        43.750
 129837072.602 7 100984397.872 6                  24297242.689
  24297247.117                                          43.250          39.000

 123807026.366 7  96294382.144 6                  23136297.447
  23136300.950                                          43.500          40.500

 128280343.850 6                  95793760.521 7  24410933.302
                                  24410933.973          41.750
        44.000
 130186646.670 5 101444145.58042                  24773695.108    24773694.299
                  24773693.055                          33.250          12.750

 109598206.654 8  85401206.884 7  81842826.183 8  20855842.293    20855841.864
  20855842.669    20855842.432    20855842.368          49.250          47.250
        53.000
 124119836.123 7                  92686938.269 7  23619220.113
                                  23619232.781          45.000
        47.250
 128216708.918 7                  95746258.183 8  24398826.846
                                  24398828.970          47.500
        49.750
 114324602.899 7  89084127.117 7  85372289.028 8  21755241.247    21755240.599
  21755241.792    21755241.246    21755241.308          47.250          43.000
        50.750
 108006974.642 8  84161291.948 7                  20553036.827    20553036.407
  20553034.278    20553033.961                          52.000          47.250

 128514960.150 6 100141542.75843                  24455578.945    24455578.373
                  24455577.800                          38.000          20.000

 117622812.283 7  91654158.267 7  87835249.313 8  22382869.832    22382869.256
  22382870.239    22382869.926    22382869.317          46.750          43.750
        48.500
 135917245.711 7                 101496672.100 7  25864186.062
                                  25864187.623          44.750
        44.250
 120612233.229 8                  90067600.273 8  22951738.327
                                  22951739.834          49.750
        52.500
 109789711.444 7  85392019.518 7                  20552858.638
  20552860.655                                          47.500          43.500

 110673666.506 8  86079557.521 8                  20674772.970
  20674776.605                                          51.750          48.000

 109862886.204 8  85448944.499 8                  20573782.459
  20573784.519                                          51.000          48.750

 129438274.284 6 100860979.465 5                  24631286.107    24631285.879
  24631284.614    24631285.222                          39.250          33.250

 115816317.436 7                                  21703928.507
                                                        45.250

 119616228.869 7  93207457.12144                  22762206.485    22762205.582
                  22762204.535                          44.500          29.000

 130431549.515 5                  97400212.126 6  24820295.602
                                  24820294.940          35.750
        40.500
 113334093.645 8  88148776.878 7                  21231287.704
  21231291.588                                          50.500          46.750

 131751915.180 6                  98386180.712 6  25071551.164
                                  25071549.863          38.750
        38.500
 119513960.735 7  92955333.569 6                  22341868.919
  22341872.205                                          42.500          41.250

 19  3 26 19 15  0.0000000  0 29R10R08G23G08G18E05R15R17E08G16G09E24
                                E03G30G07G11G27E02E25R16R07R09G05R06
                                G28E12R18E11R19
 126875059.130 6  98680637.351 6                  23801437.896
  23801445.677                                          36.000          38.500

 122978257.261 7  95649767.322 7                  22965321.899
  22965324.788                                          44.500          42.500

 120002664.876 7  93508553.34945                  22835747.781    22835747.129
                  22835744.606                          44.750          30.500

 110886445.111 8  86405050.221 7  82804845.583 8  21100979.704    21100979.204
  21100980.902    21100980.231    21100978.925          48.250          46.500
        52.250
                                                  25551469.066
                                                        28.250

 137300887.255 7                 102529895.577 7  26127491.011
                                  26127494.146          43.750
        44.000
 129923450.288 7 101051580.447 6                  24313407.116
  24313411.840                                          43.500          38.000

 123880786.903 7  96351751.478 7                  23150081.196
  23150085.741                                          43.250          42.000

 128231815.569 6                  95757521.889 7  24401698.466
                                  24401699.244          41.250
        43.500
 130292140.332 5 101526348.36141                  24793769.808    24793768.928
                  24793767.697                          34.500          11.750

 109662120.051 8  85451009.520 7  81890553.705 8  20868004.619    20868004.186
  20868004.954    20868004.735    20868004.667          48.750          47.500
        53.000
 124175423.314 7                  92728448.173 7  23629798.129
                                  23629810.717          45.000
        47.250
 128246947.515 7                  95768838.934 8  24404581.126
                                  24404583.160          47.250
        49.750
 114258766.875 7  89032826.324 7  85323125.779 8  21742713.123    21742712.475
  21742713.718    21742713.110    21742713.073          47.000          43.500
        50.750
 107985112.190 8  84144256.269 7                  20548876.568    20548876.148
  20548873.817    20548873.683                          51.750          47.500

 128420878.787 6 100068232.66243                  24437675.681    24437675.109
                  24437674.375                          38.500          19.750

 117684795.624 7  91702456.974 7  87881535.569 8  22394665.046    22394664.470
  22394665.296    22394664.957    22394664.379          46.250          43.750
        48.500
 135864574.605 7                 101457339.828 7  25854163.018
                                  25854164.538          44.500
        44.500
 120614599.244 8                  90069367.107 8  22952188.556
                                  22952190.090          49.500
        52.750
 109839073.683 7  85430412.374 7                  20562099.152
  20562101.226                                          47.250          43.250

 110688227.676 8  86090882.862 8                  20677493.268
  20677496.621                                          51.500          48.000

 109818098.343 8  85414109.518 8                  20565394.897
  20565397.172                                          51.000          48.750

 129450425.177 6 100870447.664 5                  24633598.338    24633598.119
  24633597.806    24633597.211                          39.500          33.000

 115930447.362 7                                  21725315.906
                                                        45.250

 119543393.305 7  93150702.16944                  22748346.149    22748345.242
                  22748344.306                          44.000          28.750

 130413759.300 5                  97386927.262 6  24816910.060
                                  24816909.528          35.500
        40.250
 113308072.746 8  88128538.408 7                  21226413.014
  21226416.956                                          50.500          46.750

 131675497.930 6                  98329115.906 6  25057009.451
                                  25057008.132          38.250
        38.500
 119398203.175 7  92865299.971 6                  22320228.885
  22320231.921                                          42.000          40.500

 19  3 26 19 15 30.0000000  0 29R10R08G23G08G18E05R15R17E08G16G09E24
                                E03G30G07G11G27E02E25R16R07R09G05R06
                                G28E12R18E11R19
 126791771.900 6  98615858.495 6                  23785814.472
  23785822.669                                          38.000          38.750

 122892300.614 7  95582912.154 7                  22949269.924
  22949272.084                                          44.500          42.250

 120105855.907 7  93588961.88345                  22855384.604    22855383.947
                  22855381.174                          45.500          30.750

 110885807.994 8  86404553.763 7  82804369.818 8  21100858.506    21100858.006
  21100859.780    21100859.020    21100857.700          48.250          46.500
        52.250
                                                  25534792.651
                                                        30.250

 137389914.350 7                 102596376.786 7  26144432.326
                                  26144435.563          43.750
        43.500
 130009810.584 7 101118749.516 6                  24329568.473
  24329573.478                                          43.250          37.000

 123955172.970 7  96409607.241 6                  23163983.252
  23163985.436                                          45.000          40.750

 128183635.971 7                  95721543.622 7  24392530.500
                                  24392530.979          42.000
        43.500
 130397599.786 6 101608524.51642                  24813838.813    24813837.852
                  24813836.067                          36.250          14.250

 109726515.332 8  85501187.644 7  81938641.074 8  20880258.676    20880258.243
  20880258.998    20880258.805    20880258.724          48.750          47.500
        53.000
 124231047.848 7                  92769985.960 7  23640383.050
                                  23640395.562          44.750
        46.500
 128277587.674 7                  95791719.558 8  24410411.773
                                  24410413.786          47.250
        49.500
 114193088.160 7  88981648.135 7  85274080.010 8  21730214.765    21730214.117
  21730215.408    21730214.818    21730214.821          47.000          43.500
        50.750
 107963518.241 8  84127429.820 7                  20544767.250    20544766.830
  20544764.723    20544764.459                          51.750          47.500

 128326833.606 6  99994950.74843                  24419779.372    24419778.827
                  24419778.339                          39.000          21.000

 117747302.595 7  91751163.699 7  87928212.849 8  22406559.778    22406559.202
  22406560.122    22406559.589    22406559.128          46.500          43.250
        48.500
 135812011.216 7                 101418087.982 7  25844160.504
                                  25844162.194          44.500
        44.500
 120617109.300 8                  90071241.502 8  22952666.161
                                  22952667.758          49.500
        52.500
 109888620.817 7  85468949.032 7                  20571374.532
  20571376.709                                          46.750          43.250

 110703600.631 8  86102839.591 7                  20680365.199
  20680368.516                                          51.500          47.750

 109773523.769 8  85379440.427 8                  20557047.420
  20557049.745                                          50.500          48.750

 129463076.262 6 100880305.628 5                  24636005.695    24636005.467
  24636004.872    24636004.322                          39.250          33.000

 116044917.101 7                                  21746767.858
                                                        45.000

 119470823.705 7  93094154.46944                  22734536.456    22734535.549
                  22734534.778                          44.000          28.750

 130396381.362 5                  97373950.238 6  24813602.960
                                  24813602.589          35.500
        39.750
 113282842.807 8  88108915.140 7                  21221686.715
  21221690.429                                          50.500          46.500

 131599225.753 6                  98272159.453 6  25042495.169
                                  25042493.975          37.750
        38.250
 119282731.682 6  92775488.863 6                  22298642.454
  22298646.617                                          41.750          40.750

 19  3 26 19 16  0.0000000  0 29R10R08G23G08G18E05R15R17E08G16G09E24
                                E03G30G07G11G27E02E25R16R07R09G05R06
                                G28E12R18E11R19
 126708541.172 6  98551123.595 6                  23770198.447
  23770208.128                                          38.500          39.000

 122806908.904 7  95516496.391 7                  22933323.325
  22933325.995                                          45.000          42.750

 120209291.541 7  93669561.02845                  22875067.715    22875067.063
                  22875064.231                          45.750          30.750

 110885794.237 8  86404543.055 7  82804359.552 8  21100855.857    21100855.357
  21100857.037    21100856.385    21100855.065          48.750          46.750
        52.250
 134098561.943 5                                  25518107.434
                                                        33.500

 137479056.272 7                 102662943.752 7  26161395.577
                                  26161398.752          44.000
        43.750
 130096154.036 7 101185905.541 6                  24345725.803
  24345730.974                                          44.000          36.000

 124030182.186 7  96467947.721 6                  23177999.381
  23178003.716                                          43.500          41.750

 128135807.105 7                  95685827.271 7  24383428.927
                                  24383429.437          42.250
        43.500
 130503024.700 6 101690673.79142                  24833900.321    24833899.302
                  24833897.705                          37.000          14.750

 109791391.346 8  85551740.371 7  81987087.433 8  20892604.145    20892603.712
  20892604.551    20892604.261    20892604.233          49.000          47.500
        52.750
 124286710.093 7                  92811551.906 7  23650975.259
                                  23650987.712          45.250
        46.500
 128308629.328 7                  95814899.999 8  24416318.718
                                  24416320.824          47.500
        49.750
 114127568.561 7  88930593.914 7  85225153.054 8  21717746.860    21717746.212
  21717747.423    21717746.971    21717746.792          47.500          44.000
        50.750
 107942194.676 8  84110814.052 7                  20540709.640    20540709.220
  20540706.908    20540706.702                          52.250          47.750

 128232827.947 6  99921699.62443                  24401891.074    24401890.524
                  24401889.267                          40.250          21.500

 117810331.608 7  91800277.208 7  87975279.957 8  22418553.719    22418553.143
  22418553.875    22418553.566    22418553.132          46.500          43.500
        48.250
 135759555.954 7                 101378916.897 7  25834178.419
                                  25834180.145          44.750
        44.750
 120619763.571 8                  90073223.589 8  22953171.221
                                  22953172.853          50.000
        52.500
 109938353.047 7  85507629.662 7                  20580684.668
  20580686.961                                          47.000          43.250

 110719784.991 8  86115427.405 8                  20683388.578
  20683391.801                                          51.500          48.000

 109729163.064 8  85344937.679 8                  20548740.239
  20548742.282                                          50.750          48.750

 129476227.087 6 100890552.990 5                  24638508.407    24638508.193
  24638507.785    24638506.913                          40.000          33.250

 116159722.697 7                                  21768282.282
                                                        44.750

 119398521.063 7  93037814.78644                  22720777.857    22720776.950
                  22720776.037                          44.000          28.750

 130379417.132 5                  97361282.161 6  24810374.877
                                  24810374.421          35.750
        40.000
 113258406.197 8  88089908.896 7                  21217108.733
  21217112.783                                          50.250          46.750

 131523101.420 6                  98215313.414 6  25028008.975
                                  25028007.978          37.500
        38.250
 119167551.561 6  92685904.401 6                  22277111.228
  22277114.192                                          41.500          40.500

 19  3 26 19 16 30.0000000  0 29R10R08G23G08G18E05R15R17E08G16G09E24
                                E03G30G07G11G27E02E25R16R07R09G05R06
                                G28E12R18E11R19
 126625366.894 6  98486432.601 6                  23754596.206
  23754604.595                                          40.500          38.250

 122722085.470 7  95450522.638 7                  22917482.814
  22917486.347                                          45.000          43.250

 120312969.127 7  93750348.70245                  22894797.069    22894796.412
                  22894793.568                          45.250          30.750

 110886403.282 8  86405017.640 7  82804814.363 8  21100971.679    21100971.183
  21100972.921    21100972.286    21100971.007          48.000          46.500
        52.000
 134010831.660 5                                  25501412.713
                                                        35.250

 137568311.181 7                 102729595.081 7  26178380.272
                                  26178383.496          43.750
        44.000
 130182480.673 7 101253048.494 5                  24361881.348
  24361886.004                                          43.000          35.250

 124105811.402 7  96526770.406 6                  23192133.256
  23192136.643                                          44.250          40.750

 128088330.150 7                  95650373.707 7  24374394.440
                                  24374394.784          42.250
        44.000
 130608413.278 6 101772794.73142                  24853954.938    24853953.959
                  24853952.970                          37.000          16.000

 109856746.281 8  85602666.276 7  82035891.422 8  20905040.623    20905040.190
  20905041.173    20905040.918    20905040.819          48.500          47.250
        52.500
 124342409.652 7                  92853145.718 7  23661574.548
                                  23661587.007          44.750
        46.500
 128340071.646 7                  95838379.642 8  24422301.970
                                  24422304.094          47.250
        49.500
 114062209.148 7  88879664.529 7  85176345.723 8  21705309.365    21705308.722
  21705310.027    21705309.481    21705309.257          47.000          43.750
        50.250
 107921142.375 8  84094409.665 7                  20536703.484    20536703.064
  20536700.756    20536700.608                          51.750          47.500

 128138865.071 6  99848481.85643                  24384010.483    24384009.920
                  24384008.739                          40.500          22.500

 117873880.286 7  91849795.643 7  88022735.131 8  22430646.701    22430646.129
  22430646.946    22430646.494    22430646.087          46.000          43.000
        48.000
 135707208.554 7                 101339826.349 7  25824217.023
                                  25824218.807          44.500
        45.000
 120622561.533 8                  90075312.980 8  22953703.533
                                  22953705.282          49.500
        52.750
 109988269.820 7  85546453.805 7                  20590029.149
  20590031.263                                          46.750          43.250

 110736779.608 8  86128645.421 8                  20686563.289
  20686566.646                                          51.500          48.000

 109685016.077 8  85310601.161 8                  20540472.837
  20540474.862                                          50.750          48.500

 129489876.684 6 100901189.025 5                  24641105.845    24641105.617
  24641105.531    24641104.163                          39.250          33.500

 116274859.437 7                                  21789858.520
                                                        44.500

 119326485.941 7  92981683.56144                  22707069.957    22707069.054
                  22707068.222                          43.750          29.000

 130362867.365 6                  97348923.584 6  24807225.595
                                  24807225.014          36.000
        40.250
 113234764.768 8  88071521.129 7                  21212679.723
  21212683.929                                          50.250          46.500

 131447127.069 6                  98158579.356 6  25013551.389
                                  25013550.665          37.000
        38.750
 119052667.592 7  92596550.265 6                  22255634.241
  22255637.867                                          42.000          40.500

 19  3 26 19 17  0.0000000  0 29R10R08G23G08G18E05R15R17E08G16G09E24
                                E03G30G07G11G27E02E25R16R07R09G05R06
                                G28E12R18E11R19
 126542248.744 7  98421785.265 6                  23739003.947
  23739011.884                                          42.000          38.000

 122637833.253 7  95384993.146 7                  22901749.864
  22901752.109                                          45.000          44.000

 120416885.667 7  93831322.57945                  22914571.790    22914571.138
                  22914568.257                          45.250          30.500

 110887635.006 8  86405977.428 7  82805734.163 8  21101206.101    21101205.601
  21101207.286    21101206.700    21101205.420          48.500          46.500
        52.250
 133923055.369 6                                  25484709.872
                                                        38.000

 137657676.760 7                 102796329.057 7  26195386.007
                                  26195389.240          43.750
        44.250
 130268790.230 7 101320178.090 5                  24378032.869
  24378036.702                                          42.500          34.250

 124182056.846 7  96586072.401 6                  23206381.632
  23206385.153                                          44.500          41.250

 128041205.916 7                  95615183.530 7  24365426.836
                                  24365427.538          42.500
        44.250
 130713763.518 6 101854885.81242                  24874002.686    24874001.685
                  24874000.884                          37.500          15.750

 109922577.727 8  85653963.493 7  82085051.255 8  20917568.001    20917567.572
  20917568.515    20917568.251    20917568.157          48.750          47.000
        52.250
 124398145.669 7                  92894766.764 7  23672180.801
                                  23672193.291          45.000
        46.500
 128371913.304 7                  95862157.488 8  24428361.244
                                  24428363.315          47.500
        49.500
 113997010.537 7  88828860.429 7  85127658.463 8  21692902.372    21692901.729
  21692903.038    21692902.533    21692902.322          47.250          43.750
        50.250
 107900362.114 8  84078217.257 7                  20532749.159    20532748.739
  20532746.431    20532746.256                          52.000          47.500

 128044946.864 6  99775298.87443                  24366138.313    24366137.755
                  24366137.056                          41.250          22.750

 117937945.787 7  91899716.802 7  88070576.244 8  22442837.902    22442837.330
  22442838.139    22442837.821    22442837.413          46.250          43.000
        48.000
 135654968.266 7                 101300815.793 7  25814276.072
                                  25814277.704          44.750
        45.250
 120625502.149 8                  90077508.901 8  22954263.249
                                  22954264.863          49.750
        52.750
 110038369.892 7  85585420.534 7                  20599408.044
  20599410.253                                          46.500          43.250

 110754582.630 8  86142492.192 8                  20689889.190
  20689892.489                                          51.750          48.000

 109641082.318 8  85276430.479 8                  20532245.510
  20532247.544                                          50.750          48.500

 129504022.975 6 100912212.065 5                  24643797.504    24643797.232
  24643796.949    24643796.619                          39.000          34.000

 116390322.045 7                                  21811496.328
                                                        44.250

 119254718.181 7  92925760.67644                  22693412.837    22693411.934
                  22693411.281                          44.000          29.250

 130346732.293 6                  97336874.672 6  24804155.270
                                  24804154.621          36.250
        40.250
 113211919.523 8  88053752.620 7                  21208400.306
  21208404.096                                          50.500          46.750

 131371304.280 6                  98101958.520 6  24999122.892
                                  24999121.904          36.750
        38.750
 118938084.087 6  92507429.814 6                  22234214.872
  22234218.292                                          41.750          41.000

 19  3 26 19 17 30.0000000  0 29R10R08G23G08G18E05R15R17E08G16G09E24
                                E03G30G07G11G27E02E25R16R07R09G05R06
                                G28E12R18E11R19
 126459188.987 7  98357183.306 6                  23723421.890
  23723429.725                                          43.000          37.500

 122554157.323 7  95319911.885 7                  22886123.824
  22886126.383                                          45.000          43.750

 120521040.249 7  93912481.94245                  22934391.766    22934391.114
                  22934388.143                          44.750          30.000

 110889490.980 8  86407423.648 7  82807120.125 8  21101559.401    21101558.901
  21101560.536    21101559.847    21101558.581          48.500          46.750
        52.500
 133835238.208 6 104287199.75041                  25467997.618    25467997.180
                  25467999.258                          37.250          10.000

 137747153.075 7                 102863145.728 7  26212412.913
                                  26212415.999          43.000
        44.250
 130355084.460 6 101387295.794 5                  24394182.045
  24394186.093                                          41.500          33.000

 124258917.240 6  96645852.654 6                  23220744.302
  23220748.565                                          41.250          41.500

 127994437.562 7                  95580259.120 7  24356527.181
                                  24356527.789          42.000
        44.250
 130819075.984 6 101936947.44442                  24894043.225    24894042.193
                  24894041.194                          37.000          17.000

 109988885.752 8  85705632.068 7  82134566.969 8  20930186.085    20930185.656
  20930186.469    20930186.272    20930186.169          48.500          47.250
        52.500
 124453919.694 7                  92936416.189 7  23682794.314
                                  23682806.737          44.750
        46.250
 128404155.388 7                  95886234.357 8  24434496.785
                                  24434498.807          47.250
        49.500
 113931975.770 7  88778184.003 7  85079093.557 8  21680526.787    21680526.144
  21680527.216    21680526.782    21680526.566          47.250          44.250
        50.500
 107879857.181 8  84062239.390 8                  20528847.106    20528846.686
  20528844.561    20528844.328                          52.000          48.000

 127951078.523 6  99702154.74644                  24348275.984    24348275.399
                  24348274.392                          41.500          24.000

 118002527.670 7  91950040.346 7  88118802.966 8  22455127.433    22455126.861
  22455127.630    22455127.294    22455126.953          46.000          42.750
        48.000
 135602836.774 7                 101261886.474 7  25804355.720
                                  25804357.437          44.250
        45.500
 120628586.852 8                  90079812.416 8  22954850.320
                                  22954851.872          49.500
        53.000
 110088655.095 7  85624531.238 7                  20608821.257
  20608824.150                                          46.500          43.500

 110773194.895 8  86156968.370 8                  20693365.971
  20693369.449                                          51.750          48.000

 109597363.672 8  85242427.109 8                  20524058.287
  20524060.509                                          51.000          48.500

 129518667.025 6 100923622.974 5                  24646584.520    24646584.252
  24646583.330    24646583.227                          39.500          33.500

 116506108.316 7                                  21833194.788
                                                        44.250

 119183220.037 7  92870047.87444                  22679807.367    22679806.473
                  22679805.659                          44.000          29.750

 130331014.529 6                  97325137.384 6  24801164.131
                                  24801163.500          36.000
        40.000
 113189874.073 8  88036606.175 7                  21204270.518
  21204274.214                                          50.500          46.750

 131295637.139 6                  98045453.871 6  24984723.575
                                  24984722.922          36.000
        39.000
 118823807.454 7  92418548.059 6                  22212852.112
  22212854.584                                          42.250          40.500

 19  3 26 19 18  0.0000000  0 29R10R08G23G08G18E05R15R17E08G16G09E24
                                E03G30G07G11G27E02E25R16R07R09G05R06
                                G28E12R18E11R19
 126376185.697 7  98292625.280 6                  23707850.331
  23707857.723                                          43.750          37.000

 122471060.244 7  95255280.841 7                  22870605.665
  22870608.510                                          44.500          43.500

 120625429.493 7  93993824.15845                  22954256.389    22954255.732
                  22954252.910                          44.750          30.000

 110891969.978 8  86409355.337 7  82808971.325 8  21102031.022    21102030.522
  21102032.345    21102031.504    21102030.274          48.500          46.750
        52.500
 133747381.839 6 104218740.43542                  25451279.848    25451279.222
                  25451280.871                          38.250          13.500

 137836737.058 7                 102930042.786 7  26229460.083
                                  26229463.522          43.000
        44.250
 130441362.466 6 101454400.921 4                  24410328.018
  24410332.397                                          41.500          29.000

 124336388.200 7  96706107.847 6                  23235222.793
  23235225.647                                          43.500          40.000

 127948025.067 7                  95545600.455 7  24347695.207
                                  24347695.667          42.500
        44.500
 130924348.122 6 102018977.65542                  24914075.726    24914074.680
                  24914073.535                          36.750          16.500

 110055667.175 8  85757669.526 7  82184436.199 8  20942894.270    20942893.837
  20942894.587    20942894.341    20942894.300          48.500          47.250
        52.250
 124509730.123 7                  92978092.806 7  23693414.739
                                  23693427.032          45.250
        46.500
 128436795.810 7                  95910608.682 8  24440708.034
                                  24440710.109          47.500
        49.500
 113867104.662 7  88727635.107 7  85030650.868 8  21668182.255    21668181.616
  21668182.643    21668182.281    21668181.972          47.250          44.500
        50.500
 107859627.150 8  84046475.732 8                  20524997.435    20524997.015
  20524994.904    20524994.685                          52.000          48.000

 127857261.367 6  99629050.50444                  24330423.115    24330422.534
                  24330421.514                          41.500          24.000

 118067622.292 7  92000763.416 7  88167412.581 8  22467514.479    22467513.898
  22467514.689    22467514.354    22467514.071          46.250          42.750
        48.000
 135550812.526 7                 101223037.237 7  25794455.837
                                  25794457.505          44.500
        46.000
 120631813.848 8                  90082222.187 8  22955464.331
                                  22955465.900          49.750
        53.000
 110139123.528 7  85663784.458 7                  20618269.245
  20618271.226                                          46.500          43.000

 110792614.131 8  86172072.208 8                  20696993.646
  20696996.990                                          51.750          48.000

 109553858.804 8  85208590.009 8                  20515911.442
  20515913.337                                          51.000          48.500

 129533806.201 6 100935419.709 5                  24649465.246    24649464.996
  24649464.449    24649464.364                          40.000          33.750

 116622211.974 7                                  21854952.316
                                                        44.250

 119111990.735 7  92814544.55845                  22666252.903    22666252.018
                  22666251.106                          44.250          30.000

 130315713.518 6                  97313711.323 6  24798252.616
                                  24798251.851          36.250
        40.250
 113168628.584 8  88020081.917 7                  21200290.433
  21200293.919                                          50.750          47.000

 131220126.484 6                  97989066.088 6  24970354.386
                                  24970353.657          36.000
        39.250
 118709841.347 7  92329907.821 6                  22191547.240
  22191549.993                                          42.750          40.750

 19  3 26 19 18 30.0000000  0 29R10R08G23G08G18E05R15R17E08G16G09E24
                                E03G30G07G11G27E02E25R16R07R09G05R06
                                G28E12R18E11R19
 126293237.172 7  98228109.852 6                  23692289.553
  23692297.034                                          44.250          36.250

 122388544.204 7  95191101.716 7                  22855195.947
  22855199.319                                          44.500          43.000

 120730049.571 7  94075346.24244                  22974164.860    22974164.203
                  22974161.578                          44.250          29.750

 110895070.437 8  86411771.288 7  82811286.610 8  21102621.019    21102620.523
  21102622.061    21102621.547    21102620.298          48.500          46.750
        52.250
 133659487.771 6 104150251.66842                  25434554.279    25434553.859
                  25434555.302                          38.750          15.000

 137926425.552 7                 102997017.905 7  26246527.116
                                  26246530.287          43.000
        43.500
 130527622.948 6 101521492.503 5                  24426469.764
  24426474.684                                          41.000          30.500

 124414465.189 6  96766834.297 6                  23249811.541
  23249816.720                                          40.000          41.250

 127901968.376 7                  95511207.488 7  24338930.892
                                  24338931.514          42.250
        44.250
 131029577.203 6 102100974.30942                  24934100.174    24934099.164
                  24934098.421                          36.750          17.000

 110122918.774 8  85810073.352 7  82234656.524 8  20955691.824    20955691.395
  20955692.003    20955691.891    20955691.877          48.250          47.000
        52.250
 124565575.317 7                  93019795.370 7  23704041.696
                                  23704054.074          45.250
        46.000
 128469832.390 7                  95935278.847 8  24446994.744
                                  24446996.770          47.500
        49.250
 113802397.044 7  88677213.591 7  84982330.255 8  21655868.697    21655868.058
  21655869.323    21655868.737    21655868.548          47.500          44.000
        50.500
 107839671.892 8  84030926.181 8                  20521200.083    20521199.663
  20521197.534    20521197.310                          52.000          48.000

 127763497.298 6  99555987.64644                  24312580.727    24312580.137
                  24312578.629                          41.000          24.750

 118133225.938 7  92051883.138 7  88216402.303 8  22479998.408    22479997.832
  22479998.532    22479998.166    22479998.058          45.750          42.500
        48.000
 135498893.991 7                 101184266.943 7  25784575.938
                                  25784577.713          44.500
        45.500
 120635181.321 8                  90084736.865 8  22956105.108
                                  22956106.709          49.500
        52.750
 110189773.399 7  85703178.792 7                  20627751.113
  20627753.304                                          46.750          43.250

 110812837.384 8  86187801.385 8                  20700771.597
  20700774.727                                          51.750          48.000

 109510566.502 8  85174918.247 8                  20507804.031
  20507805.908                                          51.000          48.750

 129549437.950 6 100947600.289 5                  24652439.843    24652439.607
  24652439.687    24652438.931                          39.750          34.000

 116738627.352 7                                  21876768.985
                                                        44.500

 119041029.355 7  92759250.02145                  22652749.116    22652748.231
                  22652747.493                          44.500          30.250

 130300828.658 6                  97302596.021 6  24795420.105
                                  24795419.305          36.000
        40.250
 113148183.312 8  88004180.051 7                  21196460.402
  21196464.165                                          50.750          47.250

 131144773.156 6                  97932795.785 6  24956015.300
                                  24956014.472          36.250
        39.000
 118596189.130 7  92241511.702 6                  22170301.106
  22170304.008                                          43.000          41.000

 19  3 26 19 19  0.0000000  0 29R10R08G23G08G18E05R15R17E08G16G09E24
                                E03G30G07G11G27E02E25R16R07R09G05R06
                                G28E12R18E11R19
 126210345.002 7  98163638.249 5                  23676738.495
  23676746.803                                          44.500          35.250

 122306613.291 7  95127377.716 7                  22839896.664
  22839899.526                                          43.250          43.250

 120834898.875 7  94157046.94944                  22994116.925    22994116.259
                  22994113.624                          43.250          28.000

 110898793.130 8  86414672.091 7  82814066.548 8  21103329.447    21103328.947
  21103330.681    21103329.957    21103328.623          49.250          47.500
        52.750
 133571559.941 6 104081736.57442                  25417821.527    25417821.107
                  25417822.837                          38.750          15.250

 138016217.805 6                 103064070.532 7  26263613.980
                                  26263617.427          41.500
        43.250
 130613866.929 6 101588571.153 5                  24442609.905
  24442613.349                                          39.750          32.250

 124493145.756 7  96828030.324 6                  23264516.107
  23264518.219                                          42.500          36.250

 127856269.802 6                  95477081.968 7  24330234.729
                                  24330235.270          41.750
        43.250
 131134762.695 6 102182936.95843                  24954116.169    24954115.128
                  24954114.613                          36.750          18.750

 110190639.689 8  85862842.867 8  82285227.307 8  20968578.743    20968578.314
  20968579.078    20968578.805    20968578.710          49.500          48.000
        53.000
 124621456.001 7                  93061524.443 7  23714675.485
                                  23714687.965          44.250
        46.250
 128503265.352 8                  95960244.986 8  24453356.748
                                  24453358.827          48.250
        50.000
 113737855.136 7  88626921.210 7  84934133.379 8  21643586.699    21643586.060
  21643587.387    21643586.752    21643586.711          47.750          45.500
        52.250
 107819993.644 8  84015592.477 8                  20517455.472    20517455.052
  20517452.972    20517452.682                          52.000          48.000

 127669790.060 6  99482969.07543                  24294748.211    24294747.617
                  24294746.646                          40.000          22.500

 118199337.294 7  92103398.489 7  88265771.175 8  22492579.056    22492578.484
  22492579.400    22492578.859    22492578.496          45.250          42.750
        48.000
 135447081.938 7                 101145576.187 7  25774716.477
                                  25774718.087          43.750
        45.500
 120638689.849 8                  90087356.872 8  22956772.773
                                  22956774.369          50.000
        52.250
 110240605.289 7  85742714.694 7                  20637267.135
  20637268.673                                          46.750          44.000

 110833864.470 8  86204155.762 8                  20704699.781
  20704702.982                                          52.000          49.500

 109467487.830 8  85141412.618 8                  20499736.989
  20499738.804                                          51.500          50.250

 129565561.756 6 100960164.300 5                  24655508.371    24655508.117
  24655506.676    24655507.293                          40.250          32.250

 116855351.113 7                                  21898643.002
                                                        43.500

 118970337.435 7  92704165.47544                  22639297.158    22639296.269
                  22639295.016                          43.250          28.750

 130286361.648 6                  97291792.795 6  24792667.001
                                  24792666.134          36.000
        38.500
 113128540.758 8  87988902.537 7                  21192780.424
  21192784.402                                          50.000          47.500

 131069580.271 6                  97876645.310 6  24941706.548
                                  24941705.470          36.500
        38.000
 118482856.525 7  92153364.182 6                  22149113.778
  22149117.860                                          42.000          41.750

 19  3 26 19 19 30.0000000  0 29R10R08G23G08G18E05R15R17E08G16G09E24
                                E03G30G07G11G27E02E25R16R07R09G05R06
                                G28E12R18E11R19
 126127509.304 7  98099210.538 5                  23661199.116
  23661206.776                                          44.500          35.000

 122225271.987 7  95064112.266 7                  22824706.595
  22824709.708                                          43.500          43.250

 120939975.749 7  94238924.97944                  23014112.726    23014112.065
                  23014109.019                          43.000          27.750

 110903138.821 8  86418058.349 7  82817311.710 8  21104156.359    21104155.859
  21104157.607    21104156.878    21104155.594          49.500          47.250
        52.750
 133483602.319 6 104013198.28942                  25401083.950    25401083.530
                  25401085.202                          38.500          17.000

 138106113.049 6                 103131200.046 7  26280720.683
                                  26280723.814          41.750
        43.500
 130700095.640 6 101655637.863 5                  24458744.853
  24458751.531                                          37.000          35.000

 124572428.095 6  96889694.238 6                  23279331.685
  23279336.167                                          41.250          41.000

 127810931.634 6                  95443225.551 7  24321607.016
                                  24321607.531          41.750
        43.250
 131239904.389 5 102264865.51643                  24974123.936    24974122.930
                  24974122.192                          35.000          18.000

 110258829.059 8  85915977.423 7  82336147.924 8  20981554.727    20981554.294
  20981555.031    20981554.843    20981554.775          49.750          47.750
        52.750
 124677372.923 7                  93103280.576 7  23725315.999
                                  23725328.564          44.500
        46.250
 128537094.870 8                  95985507.272 8  24459794.289
                                  24459796.387          48.500
        50.000
 113673481.125 7  88576759.651 7  84886061.888 8  21631336.624    21631335.985
  21631337.397    21631336.748    21631336.707          47.750          45.250
        52.000
 107800594.435 8  84000476.213 8                  20513763.890    20513763.470
  20513761.332    20513761.109                          52.000          48.000

 127576143.771 6  99409997.98543                  24276927.769    24276927.161
                  24276926.650                          39.750          22.500

 118265955.004 7  92155308.386 7  88315518.160 7  22505256.090    22505255.509
  22505256.407    22505255.875    22505255.391          45.000          42.750
        47.750
 135395377.250 7                 101106965.586 7  25764877.277
                                  25764878.945          43.750
        45.750
 120642340.050 8                  90090082.675 8  22957467.423
                                  22957468.962          50.000
        52.500
 110291619.863 7  85782392.690 7                  20646816.765
  20646818.844                                          46.500          44.000

 110855695.516 8  86221135.444 8                  20708777.934
  20708781.090                                          52.000          49.500

 109424623.795 8  85108073.952 8                  20491709.856
  20491711.791                                          51.500          50.250

 129582177.687 6 100973111.732 5                  24658670.052    24658669.816
  24658669.340    24658669.439                          40.250          31.500

 116972379.398 7                                  21920573.934
                                                        43.250

 118899916.421 7  92649292.00544                  22625896.244    22625895.346
                  22625894.366                          43.250          28.750

 130272314.320 6                  97281302.920 6  24789993.760
                                  24789993.075          36.000
        38.750
 113109703.468 8  87974251.324 7                  21189251.904
  21189255.775                                          50.000          47.250

 130994551.075 6                  97820617.082 6  24927428.958
                                  24927427.943          36.750
        38.250
 118369849.499 7  92065469.876 6                  22127988.900
  22127992.057                                          42.250          41.750

 19  3 26 19 20  0.0000000  0 29R10R08G23G08G18E05R15R17E08G16G09E24
                                E03G30G07G11G27E02E25R16R07R09G05R06
                                G28E12R18E11R19
 126044729.840 7  98034826.614 5                  23645669.726
  23645676.876                                          43.750          33.500

 122144523.270 7  95001307.754 7                  22809626.675
  22809630.073                                          42.750          43.250

 121045277.218 7  94320978.01644                  23034150.599    23034149.942
                  23034147.455                          43.000          27.500

 110908106.429 8  86421929.225 7  82821021.301 8  21105101.786    21105101.286
  21105102.966    21105102.184    21105100.886          49.750          47.500
        52.750
 133395617.545 6 103944638.82442                  25384340.667    25384340.243
                  25384341.999                          37.500          17.500

 138196108.932 6                 103198404.708 7  26297846.189
                                  26297849.717          41.750
        43.500
 130786308.667 5 101722692.365 5                  24474878.736
  24474884.685                                          32.500          35.250

 124652307.966 6  96951823.004 6                  23294258.704
  23294261.085                                          40.750          36.000

 127765954.535 7                  95409638.755 7  24313048.300
                                  24313048.841          42.000
        43.500
 131345000.465 5 102346758.50042                  24994122.821    24994121.820
                  24994121.318                          34.750          15.750

 110327484.406 8  85969475.075 8  82387416.503 8  20994619.431    20994619.002
  20994619.860    20994619.543    20994619.461          50.000          48.000
        52.750
 124733325.193 7                  93145063.100 7  23735963.384
                                  23735975.918          44.500
        46.000
 128571319.519 8                  96011064.623 8  24466307.069
                                  24466309.176          48.500
        50.000
 113609275.618 8  88526729.396 7  84838116.241 8  21619118.926    21619118.283
  21619119.485    21619118.836    21619118.773          48.000          45.250
        52.000
 107781474.992 8  83985577.946 8                  20510125.533    20510125.113
  20510123.015    20510122.791                          52.250          48.000

 127482560.830 6  99337076.25743                  24259119.528    24259118.916
                  24259118.324                          39.250          22.500

 118333076.083 7  92207610.511 7  88365641.032 8  22518028.636    22518028.055
  22518028.774    22518028.466    22518028.143          45.250          42.500
        48.000
 135343779.099 7                 101068434.522 7  25755058.484
                                  25755060.134          44.000
        45.750
 120646130.840 8                  90092913.465 8  22958188.701
                                  22958190.329          50.000
        52.250
 110342816.183 7  85822212.050 7                  20656401.004
  20656403.169                                          46.500          44.000

 110878328.003 8  86238738.468 8                  20713005.863
  20713009.234                                          52.000          49.250

 109381973.757 8  85074901.735 8                  20483722.943
  20483724.709                                          51.250          50.250

 129599283.807 6 100986441.120 5                  24661925.340    24661925.112
  24661924.288    24661924.338                          40.500          32.000

 117089707.535 7                                  21942561.917
                                                        43.500

 118829766.176 7  92594629.52144                  22612547.074    22612546.171
                  22612545.231                          43.750          29.250

 130258686.719 6                  97271126.472 6  24787401.028
                                  24787399.879          36.250
        38.500
 113091672.315 8  87960227.102 7                  21185873.902
  21185877.688                                          50.000          47.250

 130919687.133 6                  97764712.203 6  24913182.964
                                  24913181.721          37.250
        38.250
 118257172.146 7  91977831.979 7                  22106925.948
  22106928.363                                          42.250          42.000

 19  3 26 19 20 30.0000000  0 29R10R08G23G08G18E05R15R17E08G16G09E24
                                E03G30G07G11G27E02E25R16R07R09G05R06
                                G28E12R18E11R19
 125962006.218 7  97970486.074 5                  23630151.098
  23630158.696                                          43.000          33.000

 122064369.712 7  94938966.109 7                  22794658.875
  22794662.117                                          43.500          43.250

 121150800.338 7  94403203.75444                  23054231.314    23054230.644
                  23054227.871                          43.500          27.500

 110913695.280 8  86426284.180 7  82825194.798 8  21106165.236    21106164.736
  21106166.309    21106165.723    21106164.434          49.500          47.250
        52.500
 133307608.164 6 103876060.21043                  25367593.174    25367592.732
                  25367593.912                          36.750          18.000

 138286203.080 6                 103265682.740 7  26314990.318
                                  26314994.172          41.000
        44.000
 130872505.605 5 101789734.360 6                  24491009.555
  24491015.168                                          34.000          37.250

 124732781.774 7  97014413.736 6                  23309298.349
  23309301.735                                          42.750          41.000

 127721339.227 6                  95376322.145 7  24304558.267
                                  24304558.785          41.750
        43.750
 131450049.438 5 102428614.77142                  25014112.816    25014111.851
                  25014111.823                          33.250          15.750

 110396603.202 8  86023333.854 7  82439031.164 8  21007772.297    21007771.864
  21007772.708    21007772.422    21007772.332          49.750          47.500
        52.500
 124789311.981 7                  93186871.408 7  23746617.351
                                  23746629.791          44.250
        46.250
 128605937.876 8                  96036915.970 8  24472894.753
                                  24472896.810          48.250
        50.000
 113545239.261 8  88476830.960 7  84790296.906 8  21606933.079    21606932.436
  21606933.620    21606933.105    21606933.020          48.000          45.250
        52.000
 107762636.215 8  83970898.380 8                  20506540.686    20506540.266
  20506538.150    20506537.931                          52.250          48.000

 127389043.424 6  99264205.61343                  24241323.552    24241322.935
                  24241322.563                          39.000          22.500

 118400697.573 7  92260302.569 7  88416137.585 7  22530896.669    22530896.093
  22530896.767    22530896.436    22530896.082          45.250          42.250
        47.750
 135292286.723 7                 101029982.452 7  25745259.813
                                  25745261.414          43.750
        46.000
 120650061.230 8                  90095848.500 8  22958936.637
                                  22958938.225          49.750
        52.500
 110394193.265 7  85862171.989 7                  20666018.932
  20666021.052                                          46.500          44.000

 110901760.386 8  86256963.633 8                  20717383.143
  20717386.719                                          52.000          49.250

 109339537.273 8  85041895.596 8                  20475775.730
  20475777.737                                          51.500          50.250

 129616877.991 6 101000150.875 5                  24665273.391    24665273.146
  24665273.247    24665272.411                          40.250          32.000

 117207330.064 7                                  21964603.841
                                                        43.250

 118759886.134 7  92540177.58444                  22599249.295    22599248.406
                  22599247.488                          43.750          29.250

 130245478.987 6                  97261263.581 6  24784887.350
                                  24784886.460          36.000
        38.750
 113074447.998 8  87946830.428 7                  21182646.987
  21182650.996                                          50.000          47.250

 130844990.031 6                  97708931.942 6  24898968.422
                                  24898967.331          37.500
        38.750
 118144828.610 7  91890453.723 7                  22085923.636
  22085926.837                                          42.250          42.000

 19  3 26 19 21  0.0000000  0 29R10R08G23G08G18E05R15R17E08G16G09E24
                                E03G30G07G11G27E02E25R16R07R09G05R06
                                G28E12R18E11R19
 125879339.884 7  97906190.111 5                  23614642.720
  23614650.162                                          42.000          31.000

 121984816.336 7  94877091.266 7                  22779802.759
  22779805.528                                          43.750          43.500

 121256543.890 7  94485601.28044                  23074353.514    23074352.857
                  23074350.236                          43.250          27.750

 110919906.799 8  86431124.327 7  82829833.274 8  21107347.158    21107346.662
  21107348.321    21107347.708    21107346.392          49.250          47.250
        52.500
 133219578.628 6 103807465.91242                  25350841.243    25350840.774
                  25350842.423                          36.750          17.250

 138376395.239 6                 103333033.966 7  26332153.506
                                  26332157.008          41.000
        44.000
 130958688.201 5 101856765.181 6                  24507138.824
  24507142.921                                          33.500          38.000

 124813847.501 6  97077464.799 6                  23324445.654
  23324450.677                                          38.750          39.750

 127677088.439 7                  95343277.732 7  24296137.599
                                  24296137.997          42.000
        43.750
 131555050.848 5 102510434.00042                  25034093.815    25034092.885
                  25034092.858                          31.250          14.000

 110466185.026 8  86077553.441 7  82490991.600 8  21021013.287    21021012.854
  21021013.752    21021013.394    21021013.362          49.500          47.500
        52.750
 124845334.555 7                  93228706.429 7  23757278.169
                                  23757290.605          44.250
        46.000
 128640950.607 8                  96063061.819 8  24479557.427
                                  24479559.520          48.250
        50.000
 113481374.739 8  88427066.412 7  84742605.883 8  21594780.042    21594779.403
  21594780.479    21594780.086    21594779.964          48.000          45.250
        52.000
 107744080.294 8  83956439.225 7                  20503009.644    20503009.224
  20503007.175    20503006.844                          52.000          47.750

 127295596.200 6  99191389.64943                  24223541.488    24223540.867
                  24223540.003                          38.500          22.250

 118468818.574 7  92313383.867 7  88467007.152 7  22543859.778    22543859.197
  22543859.926    22543859.407    22543859.075          45.000          42.250
        47.750
 135240901.428 7                 100991610.355 7  25735481.542
                                  25735483.009          43.750
        46.000
 120654132.291 8                  90098888.579 8  22959711.374
                                  22959712.935          49.750
        52.500
 110445752.218 7  85902273.393 7                  20675670.850
  20675672.875                                          46.250          43.750

 110925992.230 8  86275810.599 8                  20721910.103
  20721913.223                                          52.000          49.250

 109297316.060 8  85009056.896 8                  20467869.303
  20467871.153                                          51.500          50.250

 129634960.572 6 101014241.162 5                  24668714.609    24668714.377
  24668713.035    24668713.357                          40.750          32.250

 117325244.317 7                                  21986700.880
                                                        43.000

 118690278.294 7  92485937.76444                  22586003.340    22586002.455
                  22586001.591                          43.750          29.500

 130232693.301 5                  97251715.849 6  24782454.279
                                  24782453.487          35.750
        38.750
 113058033.419 8  87934063.541 7                  21179572.273
  21179576.041                                          49.750          47.250

 130770463.388 6                  97653278.974 6  24884786.659
                                  24884785.487          38.000
        39.000
 118032825.118 7  91803339.942 6                  22064985.591
  22064988.997                                          42.250          41.750

 19  3 26 19 21 30.0000000  0 29R10R08G23G08G18E05R15R17E08G16G09E24
                                E03G30G07G11G27E02E25R16R07R09G05R06
                                G28E12R18E11R19
 125796726.866 7  97841935.534 5                  23599145.089
  23599153.120                                          42.000          33.250

 121905862.533 7  94815682.774 7                  22765058.931
  22765061.601                                          44.250          43.500

 121362502.113 7  94568166.06644                  23094516.754    23094516.093
                  23094513.539                          42.750          27.750

 110926737.126 8  86436446.673 7  82834933.858 8  21108646.890    21108646.390
  21108648.205    21108647.395    21108646.156          48.500          46.500
        51.750
 133131528.526 5 103738855.54942                  25334086.066    25334085.601
                  25334087.125                          35.500          16.250

 138466680.349 6                 103400454.586 7  26349334.147
                                  26349338.163          40.500
        44.250
 131044852.809 5 101923782.064 5                  24523263.528
  24523267.289                                          31.250          35.000

 124895498.870 7  97140971.392 6                  23339705.358
  23339708.369                                          43.500          39.750

 127633200.117 7                  95310503.957 7  24287786.036
                                  24287786.527          43.250
        42.500
 131660000.461 4 102592212.93241                  25054064.901    25054064.003
                  25054064.083                          28.000           9.500

 110536224.637 8  86132129.747 7  82543293.893 8  21034341.371    21034340.938
  21034341.764    21034341.460    21034341.459          48.750          46.500
        52.000
 124901389.318 7                  93270565.489 7  23767945.106
                                  23767957.528          45.250
        46.000
 128676353.503 7                  96089499.049 8  24486294.446
                                  24486296.477          47.250
        48.750
 113417680.003 7  88377434.186 7  84695041.672 8  21582659.366    21582658.723
  21582659.960    21582659.477    21582659.221          46.500          44.250
        50.750
 107725805.254 8  83942198.935 8                  20499532.028    20499531.608
  20499529.345    20499529.229                          52.250          48.000

 127202218.955 6  99118628.22943                  24205771.230    24205770.609
                  24205771.046                          37.250          21.250

 118537433.392 7  92366849.917 7  88518245.445 7  22556916.399    22556915.818
  22556916.868    22556916.412    22556916.098          45.250          42.250
        47.500
 135189619.719 7                 100953315.600 7  25725722.844
                                  25725724.360          44.500
        44.000
 120658340.311 8                  90102030.937 8  22960512.028
                                  22960513.701          50.000
        52.500
 110497489.359 7  85942513.376 7                  20685356.126
  20685358.429                                          46.250          43.000

 110951019.173 8  86295275.994 7                  20726585.132
  20726588.440                                          51.000          47.500

 109255306.627 8  84976382.924 8                  20460002.074
  20460004.198                                          50.250          49.250

 129653527.266 6 101028708.617 5                  24672247.729    24672247.501
  24672246.776    24672246.665                          40.750          33.250

 117443442.363 7                                  22008851.403
                                                        43.750

 118620939.873 7  92431907.85144                  22572808.763    22572807.887
                  22572806.648                          44.250          29.500

 130220327.052 5                  97242481.301 6  24780100.896
                                  24780100.539          35.500
        40.750
 113042426.623 8  87921924.908 7                  21176648.437
  21176652.567                                          50.250          47.500

 130696106.138 6                  97597752.508 6  24870636.756
                                  24870635.701          37.250
        39.250
 117921163.377 6  91716491.986 7                  22044111.660
  22044114.548                                          41.250          42.000

 19  3 26 19 22  0.0000000  0 29R10R08G23G08G18E05R15R17E08G16G09E24
                                E03G30G07G11G27E02E25R16R07R09G05R06
                                G28E12R18E11R19
 125714170.981 6  97777725.554 5                  23583657.258
  23583665.111                                          39.750          30.500

 121827515.865 7  94754746.531 7                  22750427.654
  22750430.673                                          43.750          43.250

 121468675.847 7  94650898.79144                  23114721.246    23114720.576
                  23114717.995                          43.750          28.000

 110934189.270 8  86442253.545 7  82840498.774 8  21110065.080    21110064.580
  21110066.176    21110065.554    21110064.216          49.500          47.250
        52.750
 133043464.451 5 103670234.33542                  25317328.058    25317327.585
                  25317328.639                          34.250          15.250

 138557059.895 6                 103467945.754 7  26366533.172
                                  26366536.481          41.500
        44.250
 131131003.396 5 101990788.011 6                  24539385.065
  24539389.046                                          33.500          38.500

 124977735.465 6  97204933.152 7                  23355072.265
  23355077.900                                          41.000          42.500

 127589678.844 7                  95278004.341 7  24279504.163
                                  24279504.744          42.000
        44.000
 131764900.186 5 102673939.79141                  25074027.657    25074027.581
                  25074025.465                          31.750          11.500

 110606723.360 8  86187063.799 7  82595939.012 8  21047756.839    21047756.406
  21047757.353    21047756.973    21047756.963          49.500          47.500
        52.750
 124957479.336 7                  93312450.890 7  23778618.638
                                  23778631.038          44.250
        46.000
 128712149.048 8                  96116229.460 8  24493106.084
                                  24493108.186          48.500
        50.000
 113354159.538 8  88327937.720 7  84647607.562 8  21570571.802    21570571.159
  21570572.343    21570571.828    21570571.702          48.000          45.500
        52.250
 107707815.734 8  83928181.131 8                  20496108.681    20496108.261
  20496106.185    20496105.908                          52.250          48.000

 127108917.923 6  99045926.17543                  24188017.553    24188016.936
                  24188016.153                          39.250          22.750

 118606542.826 7  92420701.441 7  88569853.160 8  22570067.657    22570067.076
  22570067.634    22570067.487    22570067.208          44.750          42.000
        48.000
 135138444.709 7                 100915100.534 7  25715984.577
                                  25715986.227          43.750
        46.250
 120662688.102 8                  90105277.667 8  22961339.414
                                  22961341.028          50.000
        52.500
 110549407.724 7  85982894.324 7                  20695075.392
  20695077.511                                          46.750          43.750

 110976843.073 8  86315361.217 8                  20731409.271
  20731412.759                                          51.750          49.000

 109213512.427 8  84943876.335 8                  20452175.404
  20452177.353                                          51.750          50.250

 129672579.550 6 101043554.567 5                  24675872.987    24675872.742
  24675872.588    24675872.110                          40.750          32.250

 117561923.113 7                                  22031054.732
                                                        43.250

 118551874.572 7  92378090.80745                  22559666.044    22559665.173
                  22559664.081                          44.000          30.000

 130208384.168 6                  97233562.940 6  24777828.222
                                  24777827.471          36.250
        38.750
 113027632.056 8  87910418.067 7                  21173876.860
  21173880.663                                          49.750          47.250

 130621923.675 6                  97542356.532 6  24856520.230
                                  24856519.174          38.000
        39.250
 117809851.254 6  91629915.929 6                  22023302.997
  22023305.702                                          41.750          41.000

 19  3 26 19 22 30.0000000  0 29R10R08G23G08G18E05R15R17E08G16G09E24
                                E03G30G07G11G27E02E25R16R07R09G05R06
                                G28E12R18E11R19
 125631670.008 6  97713558.177 5                  23568180.726
  23568187.925                                          38.750          30.750

 121749777.519 7  94694283.400 7                  22735910.879
  22735914.229                                          43.250          43.000

 121575061.038 7  94733796.28544                  23134965.765    23134965.095
                  23134962.460                          43.500          28.500

 110942261.123 8  86448543.306 7  82846526.462 8  21111601.100    21111600.595
  21111602.307    21111601.560    21111600.253          49.250          47.250
        52.750
 132955387.635 5 103601603.18742                  25300567.105    25300566.685
                  25300567.972                          32.250          14.000

 138647530.408 6                 103535504.839 7  26383749.369
                                  26383752.683          41.750
        44.500
 131217138.672 5 102057781.967 6                  24555502.992
  24555508.082                                          34.000          41.000

 125060552.467 7  97269346.365 6                  23370549.448
  23370553.009                                          44.750          39.250

 127546524.122 7                  95245778.411 7  24271292.157
                                  24271292.581          42.250
        44.250
 131869747.435 5 102755638.86341                  25093979.020    25093978.636
                  25093977.200                          32.500          11.750

 110677677.550 8  86242352.755 7  82648924.263 8  21061258.960    21061258.527
  21061259.331    21061259.152    21061259.116          49.250          47.500
        52.750
 125013602.691 7                  93354361.175 7  23789298.539
                                  23789310.912          44.250
        46.000
 128748334.590 8                  96143251.119 8  24499992.028
                                  24499994.027          48.500
        50.000
 113290812.919 8  88278576.742 7  84600303.291 8  21558517.272    21558516.624
  21558517.706    21558517.308    21558517.249          48.000          45.500
        52.250
 107690111.106 8  83914385.316 8                  20492739.638    20492739.218
  20492737.125    20492736.839                          52.000          48.000

 127015694.296 6  98973284.46143                  24170277.807    24170277.190
                  24170276.259                          39.000          23.000

 118676142.787 7  92474935.172 7  88621827.148 8  22583311.998    22583311.417
  22583312.369    22583311.890    22583311.626          44.750          42.250
        48.000
 135087374.495 7                 100876963.714 7  25706266.238
                                  25706267.852          44.000
        46.250
 120667173.607 8                  90108627.239 8  22962192.978
                                  22962194.566          50.000
        52.500
 110601505.205 7  86023414.570 7                  20704827.999
  20704830.356                                          46.500          43.750

 111003460.683 8  86336063.789 8                  20736381.827
  20736384.943                                          51.750          49.250

 109171931.914 8  84911535.957 8                  20444388.559
  20444390.665                                          51.750          50.250

 129692114.673 6 101058776.701 5                  24679590.639    24679590.411
  24679590.500    24679589.995                          40.500          32.500

 117680680.023 7                                  22053309.572
                                                        43.250

 118483081.039 7  92324485.50345                  22546575.011    22546574.140
                  22546573.065                          44.000          30.250

 130196863.597 6                  97224959.932 6  24775636.174
                                  24775635.284          36.250
        39.250
 113013649.327 8  87899542.621 7                  21171257.427
  21171261.383                                          50.000          47.250

 130547916.505 6                  97487091.465 6  24842437.359
                                  24842435.995          38.250
        40.000
 117698891.950 7  91543614.295 6                  22002560.199
  22002562.867                                          42.000          41.000

 19  3 26 19 23  0.0000000  0 29R10R08G23G08G18E05R15R17E08G16G09E24
                                E03G30G07G11G27E02E25R16R07R09G05R06
                                G28E12R18E11R19
 125549225.431 6  97649434.719 5                  23552713.783
  23552721.953                                          38.500          32.750

 121672651.686 7  94634296.682 7                  22721508.773
  22721511.479                                          44.000          43.250

 121681655.800 7  94816857.07644                  23155249.735    23155249.069
                  23155246.886                          43.500          29.000

 110950953.177 8  86455316.348 7  82853017.293 8  21113255.056    21113254.556
  21113256.259    21113255.597    21113254.277          49.250          47.250
        52.750
 132867302.174 5 103532965.32342                  25283804.041    25283803.536
                  25283805.578                          30.000          12.500

 138738090.994 6                 103603131.187 7  26400982.235
                                  26400986.046          41.750
        44.250
 131303259.265 6 102124764.627 6                  24571619.857
  24571624.988                                          37.000          40.750

 125143947.374 7  97334209.073 7                  23386132.715
  23386138.132                                          42.000          42.750

 127503738.049 7                  95213827.775 7  24263150.099
                                  24263150.604          42.000
        44.250
 131974541.585 5 102837296.64042                  25113921.108    25113920.684
                  25113918.841                          34.250          12.500

 110749086.060 8  86297995.729 7  82702248.777 8  21074847.633    21074847.200
  21074847.995    21074847.789    21074847.726          49.500          47.500
        52.750
 125069760.002 7                  93396296.813 7  23799984.776
                                  23799997.269          43.750
        45.750
 128784910.105 8                  96170563.987 8  24506952.164
                                  24506954.190          48.250
        50.000
 113227642.239 8  88229352.853 7  84553130.398 8  21546496.381    21546495.733
  21546496.739    21546496.310    21546496.228          48.000          45.500
        52.500
 107672693.422 8  83900813.096 8                  20489425.126    20489424.706
  20489422.479    20489422.344                          52.000          48.000

 126922552.053 6  98900706.14243                  24152553.160    24152552.543
                  24152551.872                          39.500          23.250

 118746231.684 7  92529549.888 7  88674166.247 8  22596649.482    22596648.906
  22596649.611    22596649.446    22596649.217          44.750          42.250
        48.000
 135036409.724 7                 100838905.643 7  25696567.903
                                  25696569.576          44.000
        46.250
 120671797.261 8                  90112079.971 8  22963072.808
                                  22963074.413          49.750
        52.500
 110653782.184 7  86064074.437 7                  20714614.532
  20714616.589                                          46.500          43.750

 111030870.992 8  86357382.889 8                  20741502.400
  20741505.579                                          52.000          49.000

 109130565.998 8  84879362.492 8                  20436642.235
  20436644.158                                          51.750          50.250

 129712131.909 6 101074374.511 5                  24683399.846    24683399.636
  24683398.558    24683398.898                          40.750          32.250

 117799709.674 7                                  22075615.409
                                                        42.750

 118414560.556 7  92271092.97045                  22533535.676    22533534.805
                  22533533.927                          43.750          30.500

 130185766.846 6                  97216673.430 6  24773524.510
                                  24773523.634          36.000
        39.000
 113000480.457 8  87889300.180 7                  21168790.583
  21168794.476                                          50.000          47.250

 130474087.611 6                  97431959.534 6  24828388.171
                                  24828386.990          38.250
        40.000
 117588290.995 7  91457591.353 6                  21981884.505
  21981887.393                                          42.250          41.000

 19  3 26 19 23 30.0000000  0 29R10R08G23G08G18E05R15R17E08G16G09E24
                                E03G30G07G11G27E02E25R16R07R09G05R06
                                G28E12R18E11R19
 125466834.099 6  97585352.611 5                  23537257.145
  23537266.880                                          38.500          33.000

 121596139.056 7  94574786.867 7                  22707220.243
  22707222.815                                          44.500          42.750

 121788455.170 7  94900077.29544                  23175573.348    23175572.682
                  23175570.173                          43.500          28.750

 110960262.625 8  86462570.472 7  82859969.162 8  21115026.596    21115026.096
  21115027.767    21115027.145    21115025.825          49.250          47.250
        52.750
 132779208.677 4 103464321.18942                  25267040.736    25267040.271
                  25267042.010                          28.500          12.000

 138828737.390 6                 103670821.610 7  26418231.675
                                  26418235.225          41.500
        44.250
 131389362.997 6 102191734.157 7                  24587732.458
  24587737.933                                          40.000          42.000

 125227914.111 7  97399516.455 6                  23401825.453
  23401828.647                                          45.000          41.750

 127461319.339 7                  95182151.473 7  24255078.125
                                  24255078.716          42.000
        44.500
 132079278.758 5 102918909.97342                  25133851.585    25133851.103
                  25133849.859                          34.750          12.000

 110820944.410 8  86353989.235 7  82755909.211 8  21088521.728    21088521.295
  21088522.229    21088521.987    21088521.928          49.250          47.500
        52.750
 125125948.521 7                  93438255.754 7  23810677.193
                                  23810689.647          43.750
        45.750
 128821872.196 8                  96198165.531 8  24513985.730
                                  24513987.814          48.250
        50.000
 113164646.249 8  88180265.077 7  84506087.960 8  21534508.541    21534507.893
  21534509.028    21534508.541    21534508.455          48.000          45.500
        52.500
 107655561.690 8  83887463.693 8                  20486165.057    20486164.637
  20486162.588    20486162.280                          52.000          48.000

 126829491.739 6  98828191.67443                  24134844.563    24134843.955
                  24134843.051                          40.000          23.500

 118816804.556 7  92584541.732 7  88726866.751 8  22610079.257    22610078.672
  22610079.355    22610078.993    22610078.750          44.750          42.000
        48.000
 134985547.746 7                 100800924.316 7  25686889.187
                                  25686890.819          43.750
        46.250
 120676556.164 8                  90115633.697 8  22963978.449
                                  22963980.032          49.750
        52.500
 110706236.180 7  86104871.985 7                  20724433.700
  20724436.266                                          46.500          44.000

 111059070.164 8  86379315.562 8                  20746770.341
  20746773.439                                          51.750          49.250

 109089412.163 8  84847353.969 8                  20428935.276
  20428937.252                                          51.750          50.250

 129732627.406 6 101090344.996 5                  24687300.151    24687299.941
  24687299.448    24687298.782                          40.750          32.500

 117919005.146 7                                  22097971.991
                                                        43.000

 118346311.064 7  92217911.60045                  22520548.576    22520547.705
                  22520546.564                          44.000          30.250

 130175092.064 5                  97208701.977 6  24771493.283
                                  24771492.344          35.750
        39.500
 112988124.050 8  87879689.654 7                  21166475.703
  21166479.560                                          50.000          47.500

 130400436.707 6                  97376960.512 6  24814372.888
                                  24814371.690          38.250
        40.500
 117478050.636 7  91371848.893 6                  21961276.396
  21961279.534                                          42.250          41.250

 19  3 26 19 24  0.0000000  0 29R10R08G23G08G18E05R15R17E08G16G09E24
                                E03G30G07G11G27E02E25R16R07R09G05R06
                                G28E12R18E11R19
 125384500.007 6  97521315.085 5                  23521811.653
  23521819.447                                          39.250          33.750

 121520246.506 7  94515759.350 7                  22693047.464
  22693051.015                                          44.750          42.500

 121895460.678 7  94983458.14644                  23195935.997    23195935.340
                  23195932.549                          43.000          28.750

 110970192.821 8  86470308.298 7  82867384.578 8  21116916.243    21116915.743
  21116917.441    21116916.752    21116915.473          49.500          47.250
        52.750
 132691113.905 4 103395676.09241                  25250276.736    25250276.218
                  25250278.033                          29.000          11.250

 138919471.531 6                 103738577.565 7  26435498.056
                                  26435501.468          41.500
        44.250
 131475453.952 6 102258693.739 7                  24603844.217
  24603849.226                                          41.250          42.000

 125312453.079 7  97465269.019 6                  23417622.405
  23417626.771                                          43.000          41.500

 127419272.927 6                  95150753.187 7  24247076.865
                                  24247077.469          41.750
        44.500
 132183961.788 6 103000481.18042                  25153772.066    25153771.512
                  25153770.349                          36.250          12.250

 110893254.277 8  86410334.567 7  82809906.818 8  21102281.951    21102281.522
  21102282.442    21102282.125    21102282.061          49.500          47.500
        52.500
 125182171.761 7                  93480240.630 7  23821376.200
                                  23821388.582          43.750
        46.000
 128859223.654 8                  96226057.836 8  24521093.564
                                  24521095.559          48.000
        50.000
 113101829.924 8  88131317.314 7  84459179.686 8  21522554.930    21522554.287
  21522555.641    21522555.033    21522554.907          48.250          45.750
        52.250
 107638720.584 8  83874340.758 8                  20482960.395    20482959.975
  20482957.779    20482957.528                          52.250          48.000

 126736520.082 6  98755746.28043                  24117152.488    24117151.867
                  24117150.886                          40.500          23.750

 118887862.639 7  92639911.659 7  88779929.594 8  22623601.056    22623600.471
  22623601.539    22623600.958    22623600.769          44.750          42.000
        48.000
 134934792.075 7                 100763022.389 7  25677230.726
                                  25677232.322          43.750
        46.250
 120681453.629 8                  90119290.897 8  22964910.404
                                  22964911.960          49.750
        52.750
 110758870.281 7  86145809.603 7                  20734286.949
  20734289.587                                          46.500          44.000

 111088060.107 8  86401863.274 8                  20752185.760
  20752189.162                                          51.750          49.000

 109048474.196 8  84815513.341 8                  20421269.012
  20421270.890                                          52.000          50.250

 129753603.495 6 101106689.983 5                  24691291.957    24691291.716
  24691291.702    24691290.575                          41.000          32.750

 118038565.838 7                                  22120377.237
                                                        42.750

 118278336.563 7  92164944.50545                  22507613.189    22507612.318
                  22507611.409                          44.000          30.750

 130164843.495 6                  97201048.860 6  24769542.933
                                  24769542.209          36.000
        39.500
 112976584.945 8  87870714.807 7                  21164314.069
  21164317.935                                          50.000          47.500

 130326969.670 6                  97322098.787 6  24800392.738
                                  24800391.513          38.250
        40.250
 117368179.457 7  91286393.567 6                  21940737.480
  21940740.095                                          42.500          41.500

 19  3 26 19 24 30.0000000  0 29R10R08G23G08G18E05R15R17E08G16G09E24
                                E03G30G07G11G27E02E25R16R07R09G05R06
                                G28E12R18E11R19
 125302220.585 6  97457320.085 5                  23506376.646
  23506384.632                                          40.500          35.000

 121444975.490 7  94457215.243 7                  22678991.559
  22678994.211                                          44.750          42.500

 122002667.607 7  95066995.93744                  23216336.671    23216336.014
                  23216333.577                          42.750          27.750

 110980741.050 8  86478527.703 7  82875261.513 8  21118923.609    21118923.109
  21118924.798    21118924.011    21118922.723          49.500          47.000
        52.750
 132603019.170 4 103327031.02741                  25233512.763    25233512.187
                  25233514.051                          29.500          11.750

 139010289.837 7                 103806396.364 7  26452780.511
                                  26452784.049          42.000
        44.000
 131561530.311 6 102325642.006 6                  24619952.206
  24619957.336                                          40.750          41.000

 125397559.044 7  97531462.480 7                  23433527.368
  23433531.350                                          45.500          43.750

 127377598.179 7                  95119632.434 7  24239146.547
                                  24239147.016          42.000
        44.250
 132288587.379 6 103082007.61941                  25173681.922    25173681.319
                  25173679.936                          36.500          11.000

 110966011.811 8  86467028.732 7  82864238.725 8  21116127.258    21116126.825
  21116127.709    21116127.468    21116127.391          49.250          47.250
        52.500
 125238427.682 7                  93522249.908 7  23832081.409
                                  23832093.809          44.000
        45.750
 128896961.719 8                  96254238.839 8  24528274.848
                                  24528276.945          48.250
        49.750
 113039192.692 8  88082509.093 7  84412405.140 8  21510635.473    21510634.830
  21510636.237    21510635.508    21510635.436          48.250          45.500
        52.250
 107622169.507 8  83861443.814 8                  20479810.773    20479810.353
  20479808.192    20479807.969                          52.250          48.000

 126643638.823 6  98683371.32843                  24099477.690    24099477.073
                  24099475.995                          40.500          23.500

 118959401.623 7  92695656.302 7  88833351.544 8  22637214.644    22637214.063
  22637214.993    22637214.340    22637214.227          44.750          42.000
        48.000
 134884140.664 7                 100725198.318 7  25667592.046
                                  25667593.580          43.750
        46.250
 120686487.411 8                  90123049.892 8  22965868.285
                                  22965869.846          50.000
        52.500
 110811682.548 7  86186885.810 7                  20744173.587
  20744176.010                                          46.500          43.750

 111117837.336 8  86425023.328 8                  20757748.352
  20757751.674                                          51.500          49.000

 109007750.644 8  84783839.482 8                  20413642.773
  20413644.584                                          51.750          50.000

 129775057.141 6 101123407.078 5                  24695374.143    24695373.893
  24695373.659    24695373.315                          40.750          32.500

 118158385.138 7                                  22142831.348
                                                        42.750

 118210635.389 7  92112190.38745                  22494730.262    22494729.391
                  22494728.303                          44.250          30.750

 130155019.966 6                  97193713.107 6  24767673.649
                                  24767672.853          36.250
        39.000
 112965862.341 8  87862375.012 7                  21162305.386
  21162309.172                                          50.000          47.250

 130253686.787 6                  97267374.584 6  24786447.094
                                  24786446.084          38.250
        40.250
 117258680.454 7  91201227.711 6                  21920267.640
  21920270.050                                          42.750          41.500

 19  3 26 19 25  0.0000000  0 29R10R08G23G08G18E05R15R17E08G16G09E24
                                E03G30G07G11G27E02E25R16R07R09G05R06
                                G28E12R18E11R19
 125219995.178 6  97393367.040 5                  23490951.597
  23490959.382                                          41.250          35.750

 121370327.822 7  94399155.964 7                  22665051.009
  22665054.484                                          45.250          42.250

 122110071.797 7  95150687.44844                  23236774.728    23236774.076
                  23236771.821                          42.250          27.250

 110991905.667 8  86487227.416 7  82883598.734 8  21121048.006    21121047.510
  21121049.289    21121048.552    21121047.285          49.250          47.000
        52.750
 132514925.994 5 103258387.09642                  25216749.796    25216749.233
                  25216750.489                          32.250          14.500

 139101188.961 6                 103874275.509 7  26470077.754
                                  26470081.171          41.750
        43.750
 131647590.794 7 102392577.906 6                  24636057.140
  24636062.140                                          43.750          41.250

 125483227.010 7  97598093.070 7                  23449536.462
  23449540.211                                          44.000          42.000

 127336294.740 7                  95088788.961 7  24231286.558
                                  24231287.287          42.000
        44.750
 132393152.652 6 103163487.02741                  25193580.147    25193579.486
                  25193578.041                          37.000          11.250

 111039213.454 8  86524068.952 7  82918902.267 8  21130057.052    21130056.619
  21130057.565    21130057.297    21130057.202          49.250          47.250
        52.750
 125294714.485 7                  93564282.250 7  23842792.314
                                  23842804.795          44.000
        45.750
 128935083.864 8                  96282706.661 8  24535529.247
                                  24535531.322          48.250
        50.000
 112976734.265 8  88033840.198 7  84365764.128 8  21498750.093    21498749.445
  21498750.473    21498750.071    21498749.967          48.250          45.500
        52.500
 107605907.931 8  83848772.457 8                  20476716.313    20476715.893
  20476713.799    20476713.518                          52.000          48.000

 126550848.146 6  98611066.95843                  24081820.514    24081819.897
                  24081818.698                          41.000          23.750

 119031417.449 7  92751772.529 6  88887129.578 8  22650918.751    22650918.175
  22650919.010    22650918.540    22650918.307          44.500          41.750
        48.000
 134833591.784 7                 100687450.807 7  25657972.889
                                  25657974.477          44.000
        46.500
 120691655.573 8                  90126909.235 8  22966851.752
                                  22966853.322          49.750
        52.500
 110864671.052 7  86228099.075 7                  20754092.974
  20754095.836                                          46.500          43.500

 111148398.310 8  86448792.954 8                  20763457.417
  20763460.698                                          51.500          48.750

 108967239.950 8  84752331.182 8                  20406056.429
  20406058.325                                          52.000          50.250

 129796984.890 6 101140493.566 5                  24699546.852    24699546.598
  24699547.370    24699546.619                          40.500          32.750

 118278457.177 7                                  22165333.148
                                                        42.750

 118143206.328 7  92059648.30445                  22481898.853    22481897.982
                  22481896.746                          44.000          30.750

 130145620.482 6                  97186694.021 6  24765884.817
                                  24765884.057          36.250
        39.250
 112955955.631 8  87854669.809 7                  21160449.498
  21160453.360                                          50.000          47.500

 130180588.706 6                  97212788.395 6  24772536.924
                                  24772535.810          38.500
        40.250
 117149556.710 7  91116353.720 6                  21899867.782
  21899870.898                                          43.000          41.500

 19  3 26 19 25 30.0000000  0 29R10R08G23G08G18E05R15R17E08G16G09E24
                                E03G30G07G11G27E02E25R16R07R09G05R06
                                G28E12R18E11R19
 125137827.661 7  97329459.053 6                  23475536.825
  23475544.857                                          42.500          36.250

 121296310.560 7  94341586.992 7                  22651229.494
  22651231.874                                          45.250          42.000

 122217675.063 7  95234534.07144                  23257251.149    23257250.501
                  23257248.148                          42.000          27.000

 111003690.280 8  86496410.238 7  82892398.945 8  21123290.599    21123290.099
  21123291.824    21123291.046    21123289.842          49.500          47.500
        52.750
 132426841.782 5 103189750.18242                  25199987.948    25199987.452
                  25199988.909                          34.000          14.000

 139192171.414 6                 103942216.886 7  26487391.034
                                  26487394.536          41.000
        42.750
 131733640.014 7 102459505.045 7                  24652159.951
  24652165.050                                          44.250          42.000

 125569457.810 7  97665161.457 7                  23465651.231
  23465654.671                                          44.500          42.000

 127295368.074 7                  95058226.851 7  24223498.693
                                  24223499.234          42.000
        44.500
 132497661.048 6 103244922.14042                  25213467.311    25213466.605
                  25213465.343                          37.500          12.000

 111112861.378 8  86581456.926 7  82973899.070 8  21144071.817    21144071.384
  21144072.179    21144072.049    21144072.021          49.250          47.500
        52.750
 125351036.273 7                  93606340.715 7  23853510.022
                                  23853522.521          43.750
        45.500
 128973593.456 8                  96311463.808 8  24542857.457
                                  24542859.491          48.250
        49.750
 112914460.201 8  87985314.970 7  84319260.784 8  21486899.652    21486899.009
  21486900.103    21486899.737    21486899.530          48.500          46.000
        52.500
 107589941.773 8  83836331.300 8                  20473678.035    20473677.615
  20473675.410    20473675.227                          52.250          48.250

 126458156.252 6  98538839.53943                  24064181.423    24064180.793
                  24064179.764                          41.000          23.500

 119103911.898 7  92808261.688 7  88941265.022 8  22664714.134    22664713.553
  22664714.111    22664713.794    22664713.515          44.750          42.250
        48.000
 134783149.540 7                 100649782.933 7  25648374.129
                                  25648375.542          44.000
        46.250
 120696961.988 8                  90130871.817 8  22967861.590
                                  22967863.106          49.750
        52.250
 110917839.709 7  86269452.469 7                  20764046.599
  20764048.807                                          46.750          43.750

 111179745.539 8  86473174.111 8                  20769313.358
  20769316.599                                          51.750          48.750

 108926946.524 8  84720991.862 8                  20398510.855
  20398512.679                                          52.000          50.250

 129819389.668 6 101157951.843 5                  24703810.095    24703809.836
  24703809.522    24703809.808                          41.000          33.250

 118398781.776 7                                  22187881.705
                                                        42.500

 118076054.444 7  92007322.19745                  22469120.027    22469119.151
                  22469118.166                          44.500          30.750

 130136649.880 6                  97179995.197 6  24764177.827
                                  24764177.022          36.500
        39.000
 112946870.070 8  87847603.278 7                  21158747.530
  21158751.190                                          49.750          47.500

 130107681.829 6                  97158344.993 6  24758663.400
                                  24758662.058          38.250
        40.000
 117040817.476 7  91031778.804 7                  21879540.365
  21879542.716                                          43.000          42.000

 19  3 26 19 26  0.0000000  0 29R10R08G23G08G18E05R15R17E08G16G09E24
                                E03G30G07G11G27E02E25R16R07R09G05R06
                                G28E12R18E11R19
 125055711.455 7  97265590.971 6                  23460132.055
  23460139.657                                          43.000          36.500

 121222920.626 7  94284505.945 7                  22637524.008
  22637527.049                                          45.250          42.000

 122325468.519 7  95318528.88344                  23277763.521    23277762.869
                  23277760.699                          42.000          26.250

 111016087.602 8  86506070.500 7  82901656.695 8  21125649.596    21125649.100
  21125650.915    21125650.164    21125648.951          49.500          47.250
        52.750
 132338763.242 5 103121117.64842                  25183227.543    25183227.052
                  25183227.829                          35.750          15.750

 139283228.814 6                 104010214.247 7  26504718.971
                                  26504722.669          41.000
        42.750
 131819671.541 7 102526418.435 6                  24668259.690
  24668264.462                                          42.750          39.500

 125656241.256 7  97732659.661 7                  23481868.841
  23481872.850                                          44.000          43.000

 127254812.770 6                  95027942.049 7  24215781.179
                                  24215781.769          41.750
        44.500
 132602104.680 6 103326306.79342                  25233342.480    25233341.743
                  25233340.526                          37.000          13.000

 111186946.929 8  86639185.913 7  83029222.675 8  21158169.950    21158169.517
  21158170.343    21158170.070    21158170.016          49.250          47.250
        52.500
 125407386.243 7                  93648420.219 7  23864233.100
                                  23864245.518          43.750
        45.250
 129012482.905 8                  96340504.616 8  24550257.837
                                  24550259.907          48.250
        49.750
 112852365.194 8  87936929.272 7  84272891.153 8  21475083.400    21475082.757
  21475083.838    21475083.408    21475083.220          48.500          45.750
        52.500
 107574265.331 8  83824115.891 8                  20470694.928    20470694.508
  20470692.307    20470692.106                          52.250          48.000

 126365559.843 6  98466686.54943                  24046560.853    24046560.223
                  24046559.023                          40.500          22.750

 119176875.850 7  92865116.705 7  88995751.084 8  22678598.545    22678597.955
  22678598.585    22678598.424    22678598.075          44.750          42.000
        48.000
 134732807.139 7                 100612189.624 7  25638794.189
                                  25638795.660          44.000
        46.250
 120702399.689 8                  90134932.438 8  22968896.316
                                  22968897.859          49.750
        52.250
 110971181.613 7  86310940.611 7                  20774032.220
  20774034.308                                          46.500          43.500

 111211870.826 8  86498160.425 8                  20775314.715
  20775317.992                                          51.750          48.500

 108886863.721 8  84689816.360 8                  20391004.473
  20391006.547                                          52.250          50.250

 129842263.309 6 101175775.434 5                  24708163.015    24708162.787
  24708162.697    24708162.357                          41.000          33.500

 118519347.587 7                                  22210475.653
                                                        42.500

 118009173.274 7  91955207.03845                  22456393.088    22456392.208
                  22456391.085                          44.250          31.000

 130128102.146 6                  97173612.150 6  24762551.218
                                  24762550.471          36.000
        39.000
 112938599.988 8  87841170.995 7                  21157198.087
  21157201.971                                          49.750          47.500

 130034961.743 6                  97104041.050 6  24744824.981
                                  24744823.912          37.750
        40.000
 116932460.698 7  90947501.341 7                  21859284.126
  21859286.697                                          42.750          42.500

 19  3 26 19 26 30.0000000  0 28R10R08G23G08G18E05R17E08G16G09E24E03
                                G30G07G11G27E02E25R16R07R09G05R06G28
                                E12R18E11R19
 124973652.915 7  97201767.714 6                  23444738.294
  23444745.167                                          43.750          37.000

 121150167.572 7  94227920.251 7                  22623937.722
  22623941.000                                          44.750          42.500

 122433456.190 6  95402675.04844                  23298313.113    23298312.447
                  23298309.862                          41.750          25.750

 111029103.816 8  86516213.013 7  82911376.605 8  21128126.616    21128126.116
  21128127.747    21128127.036    21128125.833          49.000          47.250
        52.750
 132250700.015 6 103052497.02842                  25166469.115    25166468.601
                  25166469.740                          36.750          16.250

 139374366.059 6                 104078271.219 7  26522061.865
                                  26522065.196          41.000
        42.500
 125743580.838 7  97800590.365 6                  23498189.853
  23498193.928                                          42.750          41.000

 127214636.618 7                  94997940.387 7  24208135.935
                                  24208136.552          42.250
        44.750
 132706489.301 6 103407645.44342                  25253205.889    25253205.147
                  25253204.136                          36.000          12.750

 111261474.699 8  86697259.476 7  83084876.502 8  21172351.903    21172351.470
  21172352.417    21172352.260    21172352.188          48.750          47.250
        52.250
 125463770.837 7                  93690525.585 7  23874962.754
                                  23874975.114          43.750
        45.500
 129051757.860 8                  96369833.301 8  24557731.676
                                  24557733.720          48.250
        50.000
 112790457.171 8  87888689.261 7  84226661.149 8  21463302.678    21463302.035
  21463303.138    21463302.673    21463302.529          48.250          45.750
        52.250
 107558886.471 8  83812132.365 8                  20467768.457    20467768.037
  20467765.716    20467765.635                          52.000          48.000

 126273068.390 6  98394615.33143                  24028960.583    24028959.931
                  24028958.400                          40.500          23.000

 119250313.422 7  92922340.785 7  89050590.806 7  22692573.176    22692572.591
  22692573.408    22692573.127    22692572.853          44.250          42.250
        47.750
 134682571.031 7                 100574675.678 7  25629234.603
                                  25629235.993          44.250
        46.250
 120707974.920 8                  90139095.768 8  22969957.240
                                  22969958.823          50.000
        52.500
 111024703.275 7  86352568.552 7                  20784051.759
  20784054.209                                          46.500          43.500

 111244778.754 8  86523755.457 8                  20781462.047
  20781465.633                                          51.500          48.750

 108846998.514 8  84658810.113 8                  20383539.100
  20383541.139                                          52.000          50.500

 129865611.118 6 101193968.493 5                  24712606.006    24712605.756
  24712605.787    24712605.317                          41.000          33.750

 118640156.850 7                                  22233114.986
                                                        42.750

 117942569.435 7  91903307.98545                  22443718.718    22443717.842
                  22443716.674                          44.000          30.750

 130119984.426 6                  97167550.230 6  24761006.394
                                  24761005.531          36.500
        39.250
 112931152.894 8  87835378.825 7                  21155802.968
  21155806.995                                          49.750          47.750

 129962437.245 6                  97049883.192 6  24731024.043
                                  24731022.992          38.000
        40.000
 116824497.908 7  90863530.327 7                  21839102.040
  21839104.557                                          43.000          42.500

 19  3 26 19 27  0.0000000  0 28R10R08G23G08G18E05R17E08G16G09E24E03
                                G30G07G11G27E02E25R16R07R09G05R06G28
                                E12R18E11R19
 124891647.158 7  97137985.542 6                  23429353.733
  23429361.398                                          44.250          37.000

 121078049.523 7  94171828.444 7                  22610470.811
  22610473.544                                          44.750          42.250

 122541630.472 7  95486966.62544                  23318898.109    23318897.452
                  23318894.854                          42.500          25.500

 111042733.823 8  86526833.799 7  82921554.859 8  21130720.343    21130719.843
  21130721.394    21130720.692    21130719.510          49.500          47.000
        52.500
 132162650.410 6 102983887.05742                  25149714.256    25149713.715
                  25149714.287                          37.750          16.250

 139465576.485 6                 104146382.833 7  26539418.264
                                  26539421.543          40.000
        42.000
 125831467.733 7  97868946.859 6                  23514613.598
  23514617.065                                          43.000          40.250

 127174835.912 7                  94968219.086 7  24200562.006
                                  24200562.614          42.000
        45.000
 132810808.485 5 103488933.09642                  25273057.486    25273056.673
                  25273055.321                          35.750          13.250

 111336437.665 8  86755672.155 7  83140855.317 8  21186617.025    21186616.587
  21186617.521    21186617.257    21186617.149          49.250          47.000
        52.250
 125520184.962 7                  93732653.007 7  23885697.875
                                  23885710.423          43.500
        45.500
 129091412.458 8                  96399445.482 8  24565277.680
                                  24565279.746          48.250
        50.000
 112728732.529 8  87840592.149 7  84180568.090 8  21451556.842    21451556.199
  21451557.409    21451556.895    21451556.693          48.500          45.750
        52.250
 107543801.459 8  83800377.810 8                  20464897.754    20464897.334
  20464895.160    20464895.071                          52.250          48.000

 126180679.601 6  98322624.11343                  24011379.315    24011378.667
                  24011377.217                          41.000          23.000

 119324217.169 7  92979928.101 7  89105778.655 7  22706636.597    22706636.016
  22706636.932    22706636.619    22706636.260          44.500          42.000
        47.500
 134632436.143 7                 100537237.320 7  25619694.255
                                  25619695.597          44.250
        46.500
 120713682.433 8                  90143357.873 8  22971043.337
                                  22971044.912          49.750
        52.750
 111078399.595 7  86394332.349 7                  20794104.157
  20794106.178                                          46.750          43.500

 111278462.677 8  86549954.044 8                  20787754.406
  20787757.987                                          51.500          48.750

 108807346.063 8  84627969.324 8                  20376113.289
  20376115.176                                          52.000          50.500

 129889426.454 6 101212525.864 5                  24717138.213    24717137.985
  24717137.622    24717137.189                          41.500          33.500

 118761200.600 7                                  22255798.900
                                                        42.750

 117876238.272 7  91851621.40845                  22431096.269    22431095.384
                  22431094.368                          44.500          30.750

 130112292.363 6                  97161806.157 6  24759542.758
                                  24759541.935          36.250
        39.250
 112924524.636 8  87830223.518 7                  21154561.353
  21154565.264                                          50.000          47.500

 129890105.507 6                  96995869.263 6  24717259.627
                                  24717258.683          38.000
        40.000
 116716928.908 7  90779865.602 7                  21818992.829
  21818995.494                                          42.750          42.250

 19  3 26 19 27 30.0000000  0 28R10R08G23G08G18E05R17E08G16G09E24E03
                                G30G07G11G27E02E25R16R07R09G05R06G28
                                E12R18E11R19
 124809696.139 7  97074245.914 6                  23413979.493
  23413987.091                                          44.000          37.000

 121006570.798 7  94116233.890 7                  22597122.257
  22597124.936                                          44.500          42.250

 122649990.593 7  95571403.02644                  23339518.678    23339518.008
                  23339515.136                          42.750          25.500

 111056977.994 8  86537933.158 7  82932191.745 8  21133431.080    21133430.584
  21133432.117    21133431.326    21133430.068          49.500          47.250
        52.750
 132074619.070 6 102915291.30442                  25132961.719    25132961.125
                  25132962.429                          38.000          15.250

 139556859.821 6                 104214548.909 7  26556789.059
                                  26556792.664          39.750
        42.000
 125919900.045 6  97937727.469 6                  23531137.937
  23531143.586                                          39.750          41.250

 127135413.279 7                  94938780.114 7  24193060.107
                                  24193060.938          42.000
        45.000
 132915062.822 5 103570170.19842                  25292896.710    25292895.906
                  25292894.367                          34.000          13.250

 111411835.221 8  86814423.474 7  83197158.657 8  21200964.708    21200964.275
  21200965.070    21200964.958    21200964.903          49.000          47.000
        52.250
 125576629.944 7                  93774803.464 7  23896439.105
                                  23896451.612          43.500
        45.750
 129131447.193 8                  96429341.542 8  24572896.072
                                  24572898.138          48.000
        50.000
 112667194.102 8  87792640.140 7  84134614.083 8  21439846.493    21439845.845
  21439847.074    21439846.542    21439846.322          48.500          46.000
        52.500
 107529013.212 8  83788854.508 8                  20462083.698    20462083.278
  20462081.203    20462080.948                          52.250          48.250

 126088398.238 6  98250716.61743                  23993818.518    23993817.857
                  23993816.805                          40.500          22.750

 119398586.061 7  93037877.867 7  89161313.849 7  22720788.418    22720787.833
  22720788.852    22720788.566    22720788.198          44.500          42.250
        47.250
 134582403.786 7                 100499875.528 7  25610173.329
                                  25610174.765          44.000
        46.500
 120719523.330 8                  90147719.585 8  22972154.897
                                  22972156.390          49.750
        52.500
 111132271.518 7  86436232.731 7                  20804188.698
  20804191.425                                          46.500          43.500

 111312921.906 8  86576755.648 8                  20794191.998
  20794195.320                                          51.750          48.500

 108767908.077 8  84597295.340 8                  20368727.911
  20368729.686                                          51.750          50.250

 129913709.365 6 101231447.590 5                  24721759.030    24721758.789
  24721758.471    24721758.296                          41.250          33.750

 118882475.522 7                                  22278525.572
                                                        42.500

 117810181.823 7  91800148.89245                  22418526.210    22418525.330
                  22418524.153                          44.500          30.750

 130105027.966 6                  97156381.451 6  24758160.104
                                  24758159.465          36.000
        39.250
 112918717.633 8  87825706.970 7                  21153473.353
  21153477.335                                          50.000          47.250

 129817970.317 6                  96942002.107 6  24703532.836
                                  24703531.669          37.750
        40.000
 116609759.974 7  90696512.039 7                  21798958.206
  21798961.273                                          42.750          42.750

 19  3 26 19 28  0.0000000  0 28R10R08G23G08G18E05R17E08G16G09E24E03
                                G30G07G11G27E02E25R16R07R09G05R06G28
                                E12R18E11R19
 124727800.469 7  97010549.365 6                  23398616.724
  23398623.955                                          44.250          37.000

 120935736.051 7  94061140.211 7                  22583894.607
  22583896.620                                          44.500          42.250

 122758534.803 7  95655982.86844                  23360174.132    23360173.480
                  23360170.330                          43.000          26.000

 111071836.790 8  86549511.446 7  82943287.606 8  21136258.483    21136257.987
  21136259.609    21136258.903    21136257.632          49.250          47.250
        52.500
 131986610.293 6 102846713.09842                  25116214.361    25116213.731
                  25116214.540                          38.500          14.000

 139648215.351 6                 104282768.881 7  26574173.776
                                  26574177.317          40.250
        42.000
 126008875.437 6  98006930.475 6                  23547765.804
  23547770.792                                          40.000          38.750

 127096370.917 7                  94909625.113 7  24185630.681
                                  24185631.280          42.250
        45.000
 133019251.900 5 103651356.48542                  25312723.160    25312722.302
                  25312721.085                          33.000          13.000

 111487666.317 8  86873512.620 7  83253785.756 8  21215394.871    21215394.438
  21215395.403    21215395.148    21215395.062          49.000          47.000
        52.250
 125633106.647 7                  93816977.609 7  23907186.341
                                  23907198.822          43.500
        45.750
 129171862.115 8                  96459521.502 8  24580586.704
                                  24580588.819          48.000
        50.000
 112605844.203 8  87744835.040 7  84088800.859 8  21428172.061    21428171.418
  21428172.557    21428171.972    21428171.832          48.500          46.000
        52.250
 107514523.568 8  83777563.873 8                  20459326.429    20459326.009
  20459323.844    20459323.656                          52.250          48.250

 125996228.573 6  98178896.13443                  23976279.219    23976278.571
                  23976277.367                          40.250          23.250

 119473418.551 7  93096188.880 7  89217195.236 7  22735028.855    22735028.265
  22735029.351    22735028.694    22735028.344          44.250          42.250
        47.250
 134532474.799 7                 100462590.930 7  25600672.066
                                  25600673.515          44.250
        46.500
 120725498.294 8                  90152181.413 8  22973291.865
                                  22973293.381          49.750
        52.500
 111186320.111 7  86478270.521 7                  20814306.826
  20814309.120                                          46.500          43.500

 111348155.682 8  86604159.675 8                  20800773.869
  20800777.298                                          51.500          48.750

 108728685.473 8  84566788.879 8                  20361382.641
  20361384.872                                          51.750          50.500

 129938459.352 6 101250733.270 5                  24726468.677    24726468.449
  24726468.351    24726468.042                          41.000          33.750

 119003978.683 7                                  22301295.047
                                                        42.500

 117744401.586 7  91748891.60445                  22406008.381    22406007.505
                  22406006.454                          44.500          31.250

 130098192.782 6                  97151277.286 6  24756859.873
                                  24756858.858          36.000
        39.250
 112913733.512 8  87821830.436 7                  21152539.799
  21152543.857                                          50.000          47.250

 129746034.757 6                  96888284.032 6  24689843.844
                                  24689842.870          38.000
        39.750
 116502996.821 7  90613474.081 7                  21779000.004
  21779003.264                                          43.000          42.750

 19  3 26 19 28 30.0000000  0 28R10R08G23G08G18E05R17E08G16G09E24E03
                                G30G07G11G27E02E25R16R07R09G05R06G28
                                E12R18E11R19
 124645959.882 7  96946895.636 6                  23383263.199
  23383270.193                                          43.750          36.750

 120865547.633 7  94006549.207 7                  22570787.254
  22570789.879                                          44.500          42.250

 122867260.208 7  95740703.90244                  23380863.556    23380862.922
                  23380860.216                          43.250          26.000

 111087308.951 8  86561567.681 7  82954841.500 8  21139202.748    21139202.252
  21139203.820    21139203.110    21139201.866          49.750          47.250
        52.500
 131898626.668 6 102778154.52342                  25099471.641    25099471.011
                  25099471.650                          38.750          12.500

 139739640.659 6                 104351040.969 6  26591571.085
                                  26591574.855          40.000
        41.750
 126098389.732 6  98076552.745 6                  23564494.395
  23564497.353                                          38.500          36.500

 127057709.313 7                  94880754.450 7  24178273.753
                                  24178274.254          42.500
        45.000
 133123374.401 5 103732490.82441                  25332537.104    25332536.282
                  25332535.150                          33.000          11.750

 111563928.198 8  86932937.443 7  83310734.539 8  21229907.134    21229906.701
  21229907.478    21229907.272    21229907.222          49.000          47.000
        52.250
 125689614.275 7                  93859174.854 7  23917939.302
                                  23917951.881          43.500
        45.500
 129212655.567 8                  96489984.129 8  24588349.504
                                  24588351.588          48.250
        50.000
 112544683.570 8  87697177.417 7  84043128.971 8  21416533.480    21416532.832
  21416533.918    21416533.484    21416533.344          48.750          46.000
        52.250
 107500333.342 8  83766506.550 8                  20456626.102    20456625.682
  20456623.651    20456623.329                          52.250          48.250

 125904172.981 6  98107164.54543                  23958762.045    23958761.406
                  23958760.032                          40.250          23.500

 119548711.500 7  93154858.704 7  89273420.473 7  22749356.547    22749355.962
  22749356.976    22749356.502    22749356.157          44.500          42.250
        47.000
 134482648.406 7                 100425382.940 7  25591190.492
                                  25591191.843          44.500
        46.500
 120731606.332 8                  90156742.611 8  22974454.206
                                  22974455.718          50.000
        52.500
 111240544.337 7  86520444.897 7                  20824457.388
  20824459.851                                          46.500          43.500

 111384161.113 8  86632163.877 8                  20807499.928
  20807503.272                                          51.750          49.000

 108689678.258 8  84536449.944 8                  20354077.893
  20354079.918                                          52.000          50.250

 129963674.253 6 101270381.192 5                  24731267.172    24731266.953
  24731266.765    24731266.429                          41.500          33.750

 119125704.362 7                                  22324106.682
                                                        42.000

 117678896.875 7  91697849.00645                  22393543.404    22393542.533
                  22393541.288                          44.750          31.250

 130091786.663 6                  97146493.504 6  24755640.440
                                  24755639.667          36.250
        38.750
 112909572.425 8  87818594.046 7                  21151760.289
  21151764.177                                          50.000          47.500

 129674300.384 6                  96834716.210 6  24676193.261
                                  24676192.013          38.500
        39.500
 116396643.705 7  90530755.042 7                  21759118.304
  21759121.518                                          43.250          42.500

 19  3 26 19 29  0.0000000  0 28R10R08G23G08G18E05R17E08G16G09E24E03
                                G30G07G11G27E02E25R16R07R09G05R06G28
                                E12R18E11R19
 124564173.176 7  96883283.828 6                  23367919.969
  23367929.100                                          44.000          37.000

 120796007.511 7  93952462.478 7                  22557800.927
  22557803.972                                          44.250          42.750

 122976163.254 7  95825563.35844                  23401587.379    23401586.731
                  23401583.810                          43.000          26.250

 111103393.177 8  86574100.848 7  82966852.449 8  21142263.469    21142262.973
  21142264.510    21142263.830    21142262.586          49.250          47.250
        52.750
 131810670.497 6 102709617.27741                  25082733.891    25082733.279
                  25082733.850                          38.250          11.250

 139831133.297 6                 104419363.342 6  26608981.909
                                  26608984.990          40.000
        41.750
 126188438.548 6  98146590.607 6                  23581322.053
  23581326.343                                          38.500          38.000

 127019428.925 7                  94852168.444 7  24170989.058
                                  24170989.742          42.000
        45.000
 133227428.628 5 103813571.97841                  25352336.973    25352336.178
                  25352336.159                          30.500          11.000

 111640617.994 8  86992695.702 7  83368002.871 8  21244500.684    21244500.251
  21244501.117    21244500.871    21244500.817          48.500          47.000
        52.250
 125746151.967 7                  93901394.533 7  23928698.091
                                  23928710.701          43.500
        45.500
 129253825.802 8                  96520728.117 8  24596183.893
                                  24596186.070          48.000
        49.750
 112483712.809 8  87649667.742 7  83997598.873 8  21404931.115    21404930.472
  21404931.531    21404931.142    21404930.998          48.500          46.000
        52.500
 107486443.435 8  83755683.254 8                  20453982.946    20453982.526
  20453980.375    20453980.160                          52.000          48.250

 125812233.920 6  98035523.78943                  23941266.480    23941265.828
                  23941264.570                          40.250          23.750

 119624461.581 7  93213884.726 7  89329987.074 7  22763771.187    22763770.602
  22763771.361    22763771.232    22763770.793          44.250          42.000
        47.000
 134432923.683 7                 100388250.875 7  25581728.318
                                  25581729.583          44.500
        46.500
 120737846.398 8                  90161402.406 8  22975641.536
                                  22975643.124          49.750
        52.500
 111294943.213 7  86562755.130 7                  20834641.301
  20834643.406                                          46.500          43.500

 111420935.757 8  86660766.356 8                  20814369.685
  20814373.118                                          51.500          48.500

 108650885.731 8  84506277.980 8                  20346813.240
  20346815.260                                          52.000          50.250

 129989351.782 6 101290389.648 5                  24736153.218    24736153.008
  24736153.741    24736152.636                          41.000          34.250

 119247647.919 6                                  22346959.032
                                                        41.750

 117613667.405 7  91647020.89145                  22381130.651    22381129.775
                  22381128.523                          44.500          31.500

 130085809.418 6                  97142029.974 6  24754503.162
                                  24754502.316          36.000
        39.000
 112906234.346 8  87815997.774 7                  21151134.922
  21151138.899                                          50.000          47.500

 129602768.651 6                  96781299.693 6  24662581.112
                                  24662580.007          38.500
        39.250
 116290704.663 7  90448358.067 7                  21739314.018
  21739317.290                                          43.250          42.750

 19  3 26 19 29 30.0000000  0 28R10R08G23G08G18E05R17E08G16G09E24E03
                                G30G07G11G27E02E25R16R07R09G05R06G28
                                E12R18E11R19
 124482443.220 7  96819716.176 6                  23352588.019
  23352595.733                                          43.750          36.750

 120727121.501 7  93898884.497 7                  22544936.897
  22544939.804                                          43.750          42.500

 123085244.377 7  95910561.57144                  23422344.942    23422344.294
                  23422341.579                          42.500          26.250

 111120091.470 8  86587112.514 7  82979321.960 8  21145441.049    21145440.549
  21145442.117    21145441.362    21145440.153          49.250          47.250
        52.750
 131722747.967 6 102641106.26142                  25066002.838    25066002.163
                  25066002.833                          38.000          12.500

 139922694.200 6                 104487736.672 7  26626405.403
                                  26626408.757          40.500
        42.250
 126279021.072 6  98217043.638 5                  23598249.645
  23598253.210                                          40.250          35.500

 126981533.516 7                  94823869.938 7  24163777.923
                                  24163778.523          42.000
        45.250
 133331415.689 5 103894600.77441                  25372125.146    25372124.355
                  25372124.431                          30.500          11.000

 111717736.252 8  87052787.828 7  83425591.153 8  21259175.772    21259175.339
  21259176.330    21259176.035    21259175.949          48.500          47.000
        52.250
 125802722.243 7                  93943638.555 7  23939463.022
                                  23939475.512          43.250
        45.750
 129295374.479 8                  96551754.711 8  24604090.455
                                  24604092.588          48.250
        50.000
 112422935.937 8  87602309.151 7  83952213.556 8  21393365.693    21393365.050
  21393366.212    21393365.622    21393365.504          48.250          46.000
        52.500
 107472857.382 8  83745096.720 8                  20451397.589    20451397.169
  20451394.995    20451394.781                          51.750          48.250

 125720417.030 6  97963978.21244                  23923793.964    23923793.321
                  23923792.363                          40.000          24.250

 119700668.908 7  93273267.046 7  89386895.128 7  22778273.049    22778272.459
  22778273.509    22778273.134    22778272.614          43.750          42.000
        46.750
 134383303.173 7                 100351196.634 7  25572285.759
                                  25572287.145          44.500
        46.750
 120744220.807 8                  90166162.516 8  22976854.568
                                  22976856.146          49.750
        52.750
 111349519.407 7  86605203.271 7                  20844858.033
  20844860.045                                          46.500          43.500

 111458479.973 8  86689967.385 8                  20821383.439
  20821386.841                                          51.500          48.750

 108612310.638 8  84476275.137 8                  20339589.343
  20339591.279                                          51.750          50.500

 130015493.170 6 101310759.521 5                  24741127.930    24741127.702
  24741127.496    24741127.232                          41.250          34.000

 119369807.123 6                                  22369851.956
                                                        41.500

 117548716.156 7  91596409.56845                  22368770.792    22368769.916
                  22368768.757                          44.250          31.750

 130080264.123 6                  97137889.009 6  24753447.953
                                  24753446.956          36.250
        39.500
 112903722.530 8  87814044.147 7                  21150664.329
  21150668.271                                          50.000          47.250

 129531444.371 6                  96728038.110 6  24649008.772
                                  24649007.127          38.500
        39.250
 116185186.973 7  90366288.805 7                  21719588.708
  21719591.515                                          43.500          42.500

 19  3 26 19 30  0.0000000  0 28R10R08G23G08G18E05R17E08G16G09E24E03
                                G30G07G11G27E02E25R16R07R09G05R06G28
                                E12R18E11R19
 124400764.373 7  96756188.249 6                  23337264.816
  23337271.837                                          42.750          36.000

 120658886.706 7  93845812.997 7                  22532194.044
  22532197.233                                          43.750          43.000

 123194495.204 7  95995692.01444                  23443134.760    23443134.130
                  23443131.469                          42.250          26.000

 111137396.860 8  86600597.230 7  82992244.817 8  21148734.137    21148733.641
  21148735.214    21148734.476    21148733.286          49.250          47.000
        52.750
 131634856.149 6 102572619.18242                  25049277.137    25049276.386
                  25049277.455                          37.500          12.250

 140014315.680 6                 104556155.247 7  26643840.136
                                  26643844.223          40.500
        42.750
 126370127.495 6  98287904.206 5                  23615274.459
  23615277.274                                          39.250          33.750

 126944018.307 7                  94795855.347 7  24156638.846
                                  24156639.637          42.000
        45.250
 133435329.046 5 103975572.18141                  25391900.183    25391899.374
                  25391898.609                          30.250          11.250

 111795274.931 8  87113207.562 7  83483493.392 8  21273930.947    21273930.514
  21273931.577    21273931.256    21273931.107          48.500          46.750
        52.250
 125859319.044 7                  93985902.387 7  23950233.007
                                  23950245.631          43.250
        45.750
 129337294.626 8                  96583058.698 8  24612067.586
                                  24612069.701          48.250
        50.000
 112362348.384 8  87555098.081 7  83906969.620 8  21381836.207    21381835.559
  21381836.640    21381836.211    21381836.098          48.500          46.000
        52.500
 107459570.419 8  83734743.246 8                  20448869.152    20448868.732
  20448866.549    20448866.362                          52.000          48.000

 125628719.380 6  97892525.56244                  23906344.514    23906343.871
                  23906342.689                          40.000          24.000

 119777325.005 7  93332999.062 7  89444138.300 7  22792860.373    22792859.779
  22792860.789    22792860.328    22792859.822          44.000          42.000
        46.500
 134333780.778 7                 100314215.660 7  25562861.905
                                  25562863.224          44.750
        46.750
 120750723.317 8                  90171018.286 8  22978091.983
                                  22978093.540          50.000
        52.750
 111404266.658 7  86647784.454 7                  20855106.627
  20855109.529                                          46.500          43.250

 111496785.561 8  86719760.593 8                  20828539.177
  20828542.570                                          51.500          48.500

 108573947.234 8  84446436.944 8                  20332405.317
  20332406.979                                          51.750          50.750

 130042090.556 6 101331484.710 5                  24746189.330    24746189.102
  24746188.789    24746188.436                          41.000          34.250

 119492172.154 6                                  22392782.832
                                                        41.500

 117484037.400 7  91546010.58145                  22356462.733    22356461.853
                  22356460.900                          44.500          31.500

 130075145.359 6                  97134066.566 6  24752473.647
                                  24752472.806          36.250
        39.250
 112902031.552 8  87812728.952 7                  21150347.713
  21150351.682                                          49.750          47.500

 129460323.744 6                  96674928.591 6  24635474.854
                                  24635473.423          38.750
        39.500
 116080089.530 7  90284546.408 7                  21699941.509
  21699944.473                                          43.500          42.750

 19  3 26 19 30 30.0000000  0 28R10R08G23G08G18E05R17E08G16G09E24E03
                                G30G07G11G27E02E25R16R07R09G05R06G28
                                E12R18E11R19
 124319140.310 7  96692702.931 5                  23321952.183
  23321960.048                                          42.500          35.000

 120591310.491 7  93793253.732 7                  22519575.232
  22519578.099                                          44.000          43.250

 123303917.014 7  96080955.68344                  23463956.941    23463956.324
                  23463954.026                          42.000          26.000

 111155313.358 8  86614558.140 7  83005624.019 8  21152143.516    21152143.020
  21152144.504    21152143.914    21152142.665          49.250          47.250
        52.500
 131547002.627 6 102504161.95842                  25032559.524    25032558.800
                  25032559.497                          37.500          13.000

 140106000.131 6                 104624620.837 7  26661287.740
                                  26661291.318          40.750
        43.000
 126461758.749 6  98359172.947 6                  23632399.159
  23632402.040                                          41.250          37.500

 126906888.575 7                  94768128.594 7  24149573.368
                                  24149574.137          42.000
        45.250
 133539171.475 5 104056488.28742                  25411659.930    25411659.005
                  25411659.156                          31.750          12.000

 111873235.971 8  87173956.397 7  83541711.027 8  21288766.440    21288766.007
  21288767.003    21288766.806    21288766.627          48.500          47.000
        52.000
 125915946.374 7                  94028189.010 7  23961008.933
                                  23961021.436          43.000
        45.750
 129379589.360 8                  96614642.402 8  24620116.036
                                  24620118.183          48.000
        50.000
 112301955.648 8  87508038.825 7  83861871.169 8  21370343.895    21370343.252
  21370344.332    21370343.832    21370343.701          48.500          46.000
        52.500
 107446588.019 8  83724627.091 8                  20446398.750    20446398.330
  20446396.116    20446395.910                          52.250          48.250

 125537148.472 6  97821171.65444                  23888919.012    23888918.373
                  23888917.581                          40.500          24.500

 119854431.417 7  93393081.952 7  89501717.745 7  22807533.050    22807532.456
  22807533.434    22807533.215    22807532.615          44.000          42.000
        46.500
 134284360.475 7                 100277310.925 7  25553457.528
                                  25553458.851          44.500
        46.750
 120757357.698 8                  90175972.534 8  22979354.483
                                  22979355.967          49.750
        52.500
 111459188.872 7  86690501.719 7                  20865388.483
  20865391.072                                          46.250          43.000

 111535854.574 8  86750147.582 8                  20835837.544
  20835840.767                                          51.500          48.500

 108535800.071 8  84416766.941 8                  20325261.470
  20325263.320                                          52.000          50.500

 130069146.395 6 101352567.141 5                  24751338.086    24751337.850
  24751337.656    24751337.361                          41.250          34.750

 119614742.327 6                                  22415752.926
                                                        41.750

 117419635.601 7  91495827.39945                  22344207.495    22344206.619
                  22344205.492                          44.750          31.750

 130070457.758 6                  97130566.080 6  24751581.794
                                  24751580.980          36.250
        39.250
 112901166.052 8  87812055.789 7                  21150185.433
  21150189.428                                          50.000          47.250

 129389413.169 6                  96621975.935 6  24621980.874
                                  24621979.599          38.500
        39.500
 115975421.217 7  90203137.768 7                  21680374.663
  21680377.980                                          43.750          42.750

 19  3 26 19 31  0.0000000  0 28R10R08G23G08G18E05R17E08G16G09E24E03
                                G30G07G11G27E02E25R16R07R09G05R06G28
                                E12R18E11R19
 124237572.248 6  96629261.187 5                  23306650.567
  23306657.037                                          41.500          35.000

 120524395.853 7  93741209.040 7                  22507079.085
  22507082.368                                          43.750          43.500

 123413508.285 6  96166351.39544                  23484811.171    23484810.545
                  23484808.456                          41.250          25.500

 111173840.093 8  86628994.564 7  83019458.922 8  21155669.072    21155668.576
  21155670.091    21155669.474    21155668.168          49.250          47.250
        52.750
 131459190.893 6 102435737.29242                  25015849.446    25015848.820
                  25015849.195                          36.500          14.000

 140197746.443 6                 104693132.622 7  26678746.059
                                  26678750.110          40.750
        43.000
 126553911.502 7  98430847.288 6                  23649619.547
  23649623.148                                          42.250          38.250

 126870146.013 7                  94740690.971 7  24142581.400
                                  24142582.147          42.250
        45.000
 133642942.819 5 104137349.04142                  25431407.410    25431406.539
                  25431406.135                          32.750          12.500

 111951617.823 8  87235033.138 7  83600242.899 8  21303682.064    21303681.631
  21303682.605    21303682.430    21303682.246          48.500          47.000
        52.250
 125972604.694 7                  94070498.787 7  23971790.636
                                  23971803.286          43.250
        45.500
 129422258.215 8                  96646505.490 8  24628235.621
                                  24628237.781          48.000
        49.750
 112241759.719 8  87461132.923 7  83816919.674 8  21358888.818    21358888.175
  21358889.461    21358888.902    21358888.789          48.500          46.250
        52.750
 107433911.858 8  83714749.566 8                  20443986.510    20443986.090
  20443983.912    20443983.737                          52.250          48.500

 125445708.241 6  97749919.57844                  23871518.506    23871517.854
                  23871517.133                          40.500          25.250

 119931986.143 7  93453514.174 7  89559631.960 7  22822291.353    22822290.763
  22822291.720    22822291.447    22822290.829          44.000          42.000
        46.500
 134235042.707 7                 100240482.760 7  25544072.615
                                  25544073.970          44.750
        46.500
 120764124.275 8                  90181025.497 8  22980642.081
                                  22980643.642          49.750
        52.250
 111514286.550 7  86733355.462 7                  20875703.000
  20875705.056                                          46.250          43.000

 111575685.448 8  86781127.123 8                  20843278.466
  20843281.676                                          51.500          48.500

 108497869.834 8  84387265.654 8                  20318158.247
  20318160.156                                          52.000          50.750

 130096659.764 6 101374006.090 5                  24756573.353    24756573.108
  24756573.420    24756572.830                          41.000          35.000

 119737514.257 7                                  22438760.027
                                                        42.000

 117355511.593 7  91445860.68345                  22332005.148    22332004.272
                  22332003.041                          45.000          32.250

 130066202.281 6                  97127388.313 6  24750772.126
                                  24750771.142          36.750
        39.000
 112901127.188 8  87812025.562 7                  21150178.201
  21150182.063                                          49.750          47.500

 129318715.290 6                  96569182.115 6  24608527.616
                                  24608526.181          38.750
        39.500
 115871187.342 7  90122067.030 7                  21660889.558
  21660892.218                                          43.500          42.250

 19  3 26 19 31 30.0000000  0 28R10R08G23G08G18E05R17E08G16G09E24E03
                                G30G07G11G27E02E25R16R07R09G05R06G28
                                E12R18E11R19
 124156056.481 6  96565860.132 5                  23291357.616
  23291365.701                                          40.750          35.000

 120458142.491 7  93689678.674 7                  22494706.685
  22494710.156                                          44.000          43.750

 123523262.782 6  96251874.27844                  23505696.714    23505696.080
                  23505694.456                          40.250          25.250

 111192973.472 8  86643903.688 7  83033746.833 8  21159310.067    21159309.567
  21159311.086    21159310.389    21159309.131          49.000          47.000
        52.750
 131371421.310 5 102367345.50542                  24999147.500    24999146.892
                  24999147.549                          35.250          14.500

 140289549.559 6                 104761686.844 7  26696216.033
                                  26696219.553          41.250
        43.000
 126646579.125 7  98502922.072 6                  23666936.677
  23666941.056                                          43.750          38.000

 126833788.450 7                  94713540.852 7  24135662.788
                                  24135663.467          42.250
        44.750
 133746638.885 5 104218151.12442                  25451139.860    25451138.935
                  25451138.760                          33.500          13.250

 112030414.839 8  87296433.393 7  83659084.807 8  21318676.625    21318676.187
  21318677.134    21318676.991    21318676.820          48.250          46.750
        52.250
 126029290.658 7                  94112829.191 7  23982577.614
                                  23982590.215          43.250
        45.500
 129465296.885 8                  96678644.746 8  24636425.584
                                  24636427.798          48.000
        49.750
 112181758.701 8  87414378.899 7  83772113.740 8  21347471.105    21347470.457
  21347471.533    21347471.091    21347470.951          48.500          46.250
        52.750
 107421540.264 8  83705109.367 8                  20441632.235    20441631.815
  20441629.704    20441629.489                          52.000          48.250

 125354398.141 6  97678768.90444                  23854142.682    23854142.025
                  23854141.193                          40.500          25.500

 120009983.317 7  93514291.173 7  89617876.581 7  22837133.727    22837133.128
  22837134.142    22837133.843    22837133.144          43.500          42.000
        46.500
 134185824.047 7                 100203728.604 7  25534706.671
                                  25534707.909          44.750
        46.250
 120771019.464 8                  90186174.503 8  22981954.210
                                  22981955.753          49.750
        52.250
 111569556.162 7  86776342.928 7                  20886049.716
  20886051.517                                          46.250          43.500

 111616272.559 8  86812694.859 8                  20850860.575
  20850863.977                                          51.250          48.500

 108460153.316 8  84357930.585 8                  20311095.260
  20311097.164                                          52.000          50.750

 130124625.846 6 101395797.818 5                  24761895.472    24761895.218
  24761895.557    24761894.618                          41.250          35.500

 119860479.958 7                                  22461803.803
                                                        42.000

 117291662.185 7  91396107.93945                  22319855.077    22319854.201
                  22319852.943                          44.750          32.250

 130062376.138 6                  97124531.120 6  24750043.920
                                  24750042.928          36.750
        38.750
 112901912.184 8  87812636.128 7                  21150325.356
  21150329.182                                          50.000          47.500

 129248229.037 6                  96516546.328 6  24595114.424
                                  24595113.037          38.750
        39.750
 115767389.431 7  90041335.371 7                  21641484.758
  21641488.384                                          43.500          42.250

 19  3 26 19 32  0.0000000  0 28R10R08G23G08G18E05R17E08G16G09E24E03
                                G30G07G11G27E02E25R16R07R09G05R06G28
                                E12R18E11R19
 124074595.352 6  96502501.529 5                  23276075.977
  23276084.733                                          40.750          34.500

 120392556.333 7  93638667.223 7                  22482459.217
  22482462.003                                          44.000          44.000

 123633180.974 6  96337524.73044                  23526613.584    23526612.950
                  23526610.982                          39.750          25.000

 111212715.014 8  86659286.703 7  83048488.891 8  21163066.679    21163066.179
  21163067.792    21163067.050    21163065.832          49.000          47.250
        52.500
 131283699.538 5 102298990.93742                  24982454.134    24982453.491
                  24982454.581                          33.750          14.250

 140381410.469 6                 104830284.205 7  26713696.565
                                  26713699.990          41.000
        43.500
 126739760.625 7  98575396.566 6                  23684350.501
  23684354.240                                          44.750          39.750

 126797819.615 7                  94686681.014 7  24128818.126
                                  24128818.873          42.000
        45.000
 133850260.904 5 104298895.51442                  25470859.194    25470858.278
                  25470857.388                          35.000          14.000

 112109627.843 8  87358157.791 7  83718237.351 8  21333750.323    21333749.890
  21333750.855    21333750.680    21333750.581          48.250          46.750
        52.000
 126086006.768 7                  94155182.115 7  23993370.449
                                  23993383.006          43.000
        45.750
 129508706.912 7                  96711061.303 8  24644686.148
                                  24644688.474          47.750
        49.750
 112121956.617 8  87367779.888 7  83727456.357 8  21336091.077    21336090.429
  21336091.551    21336091.126    21336091.027          48.500          46.250
        52.500
 107409476.898 8  83695709.342 8                  20439336.698    20439336.278
  20439334.158    20439333.921                          52.000          48.500

 125263224.057 6  97607724.21344                  23836793.021    23836792.364
                  23836791.451                          41.000          26.000

 120088423.002 7  93575412.986 7  89676451.644 7  22852060.157    22852059.558
  22852060.594    22852060.317    22852059.739          43.750          42.000
        46.000
 134136707.012 7                 100167050.331 7  25525359.908
                                  25525361.160          44.500
        46.500
 120778045.585 8                  90191421.286 8  22983291.232
                                  22983292.748          49.500
        52.500
 111625000.286 7  86819466.114 7                  20896428.461
  20896430.808                                          46.250          43.250

 111657616.726 8  86844851.411 8                  20858583.941
  20858587.428                                          51.250          48.500

 108422653.574 8  84328764.134 8                  20304072.775
  20304074.585                                          52.250          50.750

 130153045.315 6 101417942.810 5                  24767303.378    24767303.119
  24767302.886    24767302.832                          41.000          35.500

 119983637.840 7                                  22484883.691
                                                        42.000

 117228090.533 7  91346571.63445                  22307757.667    22307756.791
                  22307755.538                          45.000          32.500

 130058982.374 6                  97121996.848 6  24749398.345
                                  24749397.133          36.500
        39.000
 112903523.943 8  87813889.728 7                  21150626.987
  21150631.063                                          49.750          47.500

 129177959.205 6                  96464072.162 6  24581742.405
                                  24581741.282          38.500
        40.000
 115664034.918 7  89960948.579 7                  21622164.645
  21622167.600                                          43.500          42.500

 19  3 26 19 32 30.0000000  0 29R10R08G23G08G18E05G13R17E08G16G09E24
                                E03G30G07G11G27E02E25R16R07R09G05R06
                                G28E12R18E11R19
 123993189.841 6  96439186.166 5                  23260803.928
  23260811.848                                          40.500          34.250

 120327639.928 7  93588176.717 7                  22470336.567
  22470339.291                                          43.750          44.250

 123743260.463 6  96423300.84844                  23547561.030    23547560.391
                  23547558.592                          40.000          25.250

 111233064.380 8  86675143.354 7  83063684.843 8  21166939.090    21166938.594
  21166940.109    21166939.398    21166938.159          49.000          47.000
        52.500
 131196029.243 5 102230676.52142                  24965770.631    24965769.992
                  24965771.520                          32.500          13.750

 140473327.602 6                 104898923.562 7  26731187.839
                                  26731191.403          40.750
        43.500
 133768761.174 5                                  25455348.631
                                                        30.750

 126833452.599 7  98648268.082 6                  23701859.174
  23701862.520                                          44.750          40.250

 126762240.803 7                  94660112.440 7  24122047.637
                                  24122048.339          42.000
        45.000
 133953808.133 5 104379581.62442                  25490563.783    25490562.916
                  25490561.681                          35.250          14.000

 112189254.681 8  87420204.654 7  83777698.928 8  21348902.876    21348902.443
  21348903.336    21348903.126    21348903.116          48.250          46.500
        52.000
 126142753.132 7                  94197557.631 7  24004168.841
                                  24004181.482          43.250
        45.500
 129552487.473 7                  96743754.560 8  24653017.407
                                  24653019.661          47.750
        49.750
 112062355.108 8  87321337.164 7  83682948.747 8  21324749.356    21324748.713
  21324749.714    21324749.307    21324749.176          48.500          46.000
        52.750
 107397723.060 8  83686550.504 8                  20437099.992    20437099.572
  20437097.519    20437097.260                          52.000          48.250

 125172189.317 6  97536788.09644                  23819469.678    23819469.026
                  23819467.674                          41.000          26.000

 120167302.767 7  93636877.721 6  89735355.344 7  22867070.646    22867070.056
  22867070.883    22867070.557    22867070.091          43.750          41.500
        46.250
 134087691.643 7                 100130447.988 7  25516032.501
                                  25516033.887          44.750
        46.500
 120785202.548 8                  90196765.769 8  22984653.180
                                  22984654.714          49.750
        52.500
 111680618.947 7  86862725.063 7                  20906840.544
  20906843.254                                          46.250          43.250

 111699715.295 8  86877594.720 8                  20866448.460
  20866451.710                                          51.500          48.500

 108385371.104 8  84299766.657 8                  20297090.895
  20297092.866                                          52.000          50.750

 130181916.752 6 101440440.005 5                  24772797.741    24772797.491
  24772797.119    24772796.887                          41.250          35.000

 120106983.588 7                                  22507998.344
                                                        42.000

 117164797.143 7  91297252.13945                  22295713.298    22295712.418
                  22295711.093                          44.750          32.500

 130056021.608 6                  97119785.897 6  24748834.701
                                  24748833.700          36.250
        39.000
 112905963.075 8  87815786.833 7                  21151084.210
  21151087.879                                          49.750          47.250

 129107908.175 6                  96411761.372 6  24568412.274
                                  24568410.955          38.500
        40.000
 115561128.554 7  89880910.348 7                  21602927.241
  21602930.192                                          43.750          42.750

