     2.10           OBSERVATION DATA    M (MIXED)           RINEX VERSION / TYPE
RTKCONV demo5 b31                       20190613 050156 UTC PGM / RUN BY / DATE 
log: H:\Data\Colorado\2019-0611\Joe_M600_PPK_Test_20190611  COMMENT             
format: NovAtel OEM6                                        COMMENT             
Josip USGS / Denver                                         COMMENT             
                                                            MARKER NAME         
                                                            MARKER NUMBER       
                                                            OBSERVER / AGENCY   
CWWPPKv2r1                                                  REC # / TYPE / VERS 
                                                            ANT # / TYPE        
 -1281459.4446 -4744282.0486  4054773.2352                  APPROX POSITION XYZ 
        0.0000        0.0000        0.0000                  ANTENNA: DELTA H/E/N
     1     1                                                WAVELENGTH FACT L1/2
     9    C1    L1    D1    S1    P2    L2    D2    S2    C2# / TYPES OF OBSERV 
  2019     6    11    23    18   44.0000000     GPS         TIME OF FIRST OBS   
  2019     6    11    23    25   18.0000000     GPS         TIME OF LAST OBS    
                                                            END OF HEADER       
 19  6 11 23 18 44.0000000  0 14G 2G 5G29G12G25R 6R20R21R11R 4S35S33
                                S38S31
                                                        44.000                  
                                        31.000                  
                                                        49.000                  
                                        36.000                  
                                                        48.000                  
                                        34.000                  
                                                        47.000                  
                                        33.000                  
                                                        44.000                  
                                        30.000                  
  22324109.156   117301011.500        4303.949          38.000                  
                                                                
  20141209.328   109096479.543        -363.188          39.000    20141215.297  
  83934354.426        -280.871          43.000                  
  21513806.359   117385193.941        2394.711          42.000    21513810.211  
  92249372.727        1862.922          40.000                  
  22082743.953   117496771.297        -683.488          42.000    22082748.984  
  92330710.598        -531.602          39.000                  
  21796465.625   117584490.227       -2659.918          40.000    21796467.164  
  92392916.805       -2068.754          40.000                  
                                                        43.000                  
                                                                
                                                        44.000                  
                                                                
                                                        44.000                  
                                                                
                                                        44.000                  
                                                                
 19  6 11 23 18 45.0000000  0 14G 2G 5G29G12G25R 6R20R21R11R 4S35S33
                                S38S31
                                                        44.000                  
                                        31.000                  
                                                        49.000                  
                                        36.000                  
                                                        48.000                  
                                        34.000                  
                                                        47.000                  
                                        33.000                  
                                                        44.000                  
                                        31.000                  
  22323301.203   117296619.668        4308.359          38.000                  
                                                                
  20141275.664   109096753.797        -360.176          39.000    20141281.938  
  83934567.719        -279.715          44.000                  
  21513357.477   117382711.672        2397.145          42.000    21513361.719  
  92247442.074        1864.598          41.000                  
  22082871.094   117497367.941        -682.285          42.000    22082875.773  
  92331174.660        -530.680          39.000                  
  21796961.836   117587064.609       -2660.047          41.000    21796963.125  
  92394919.117       -2068.906          40.000                  
                                                        44.000                  
                                                                
                                                        44.000                  
                                                                
                                                        44.000                  
                                                                
                                                        44.000                  
                                                                
 19  6 11 23 18 46.0000000  0 14G 2G 5G29G12G25R 6R20R21R11R 4S35S33
                                S38S31
                                                        44.000                  
                                        31.000                  
                                                        49.000                  
                                        36.000                  
                                                        48.000                  
                                        35.000                  
                                                        48.000                  
                                        32.000                  
                                                        45.000                  
                                        31.000                  
  22322493.602   117292253.297        4309.051          38.000                  
                                                                
  20141342.461   109097053.660        -358.012          39.000    20141348.664  
  83934800.945        -278.469          43.000                  
  21512908.938   117380254.875        2398.785          42.000    21512913.320  
  92245531.223        1865.363          41.000                  
  22082998.516   117497990.711        -680.777          41.000    22083002.961  
  92331659.035        -529.449          38.000                  
  21797458.172   117589665.121       -2659.574          41.000    21797459.719  
  92396941.719       -2068.582          39.000                  
                                                        43.000                  
                                                                
                                                        44.000                  
                                                                
                                                        45.000                  
                                                                
                                                        44.000                  
                                                                
 19  6 11 23 18 47.0000000  0 14G 2G 5G29G12G25R 6R20R21R11R 4S35S33
                                S38S31
                                                        44.000                  
                                        32.000                  
                                                        49.000                  
                                        36.000                  
                                                        48.000                  
                                        36.000                  
                                                        48.000                  
                                        33.000                  
                                                        45.000                  
                                        32.000                  
  22321686.711   117287912.379        4308.977          38.000                  
                                                                
  20141410.289   109097379.078        -357.262          39.000    20141416.320  
  83935054.031        -277.926          43.000                  
  21512461.469   117377823.469        2399.367          38.000    21512465.766  
  92243640.117        1868.191          38.000                  
  22083126.508   117498639.742        -681.777          38.000    22083131.094  
  92332163.852        -530.219          36.000                  
  21797955.383   117592291.621       -2659.270          41.000    21797957.172  
  92398984.566       -2068.316          41.000                  
                                                        44.000                  
                                                                
                                                        44.000                  
                                                                
                                                        44.000                  
                                                                
                                                        44.000                  
                                                                
 19  6 11 23 18 49.0000000  0 15G 2G 5G29G12G25R 6R20R21R12R11R 4S35
                                S33S38S31
  22296320.094   117552500.3091      -1772.223          40.000    22296325.867  
  92389653.4451      -1380.953          31.000                  
  20344847.625   109102069.8241       -396.613          50.000    20344855.195  
  83940160.4341       -309.098          36.000    20344856.203  
  21096050.273   108986904.2231       2034.887          49.000    21096059.312  
  83917967.6411       1585.648          34.000    21096059.727  
  22353568.906   117619198.2971      -3333.938          47.000    22353578.023  
  92439371.8011      -2597.918          33.000    22353579.500  
  21560175.570   109125997.1951      -1448.406          40.000    21560185.727  
  92375495.0621      -1128.617          32.000    21560186.969  
  22320879.781   117283597.2851       4308.594          37.000                  
                                                                
  20141477.500   109097730.4731       -359.410          36.000    20141483.602  
  83935327.3361       -279.031          42.000                  
  21512014.000   117375417.7931       2398.164          37.000    21512018.109  
  92241769.0661       1865.473          39.000                  
                                                        33.000                  
                                                                
  22083254.219   117499315.0161       -682.715          37.000    22083259.547  
  92332689.0661       -530.828          38.000                  
  21798452.773   117594944.4801      -2661.438          40.000    21798454.062  
  92401047.9101      -2070.102          39.000                  
                              1                         43.000                  
                                                                
                              1                         39.000                  
                                                                
                              1                         38.000                  
                                                                
                              1                         41.000                  
                                                                
 19  6 11 23 18 50.0000000  0 16G 2G 6G 5G29G12G25R 6R20R21R12R11R 4
                                S35S33S38S31
  22296657.289   117554283.180       -1770.270          44.000    22296663.180  
  92391042.672       -1379.430          30.000                  
                                                        42.000                  
                                                                
  20344923.203   109102477.824        -395.656          49.000    20344930.930  
  83940478.348        -308.258          35.000    20344931.711  
  21095663.414   108984881.070        2035.770          48.000    21095672.227  
  83916391.152        1586.332          32.000    21095672.742  
  22354203.750   117622543.766       -3332.922          47.000    22354212.727  
  92441978.648       -2597.098          31.000    22354214.297  
  21560451.594   109127457.289       -1447.441          44.000    21560461.555  
  92376632.773       -1127.809          29.000    21560462.164  
  22320072.805   117279301.180        4307.184          38.000                  
                                                                
  20141544.773   109098100.859        -358.059          39.000    20141550.680  
  83935615.441        -278.195          43.000                  
  21511566.102   117373031.094        2399.660          38.000    21511569.031  
  92239912.734        1865.984          37.000                  
                                                        40.000                  
                                                                
  22083382.352   117500010.129        -683.141          39.000    22083387.539  
  92333229.707        -531.332          37.000                  
  21798949.375   117597616.891       -2661.902          41.000    21798950.992  
  92403126.441       -2070.430          41.000                  
                                                        44.000                  
                                                                
                                                        44.000                  
                                                                
                                                        44.000                  
                                                                
                                                        43.000                  
                                                                
 19  6 11 23 18 51.0000000  0 16G 2G 6G 5G29G12G25R 6R20R21R12R11R 4
                                S35S33S38S31
  22296994.477   117556070.852       -1771.926          44.000    22297000.344  
  92392435.645       -1380.711          31.000                  
                                                        42.000                  
                                                                
  20344999.102   109102891.141        -397.582          49.000    20345006.570  
  83940800.402        -309.805          36.000    20345007.773  
  21095276.781   108982862.883        2034.234          49.000    21095285.156  
  83914818.527        1585.176          35.000    21095286.125  
  22354838.430   117625894.180       -3334.293          47.000    22354847.273  
  92444589.340       -2598.160          32.000    22354847.547  
  21560727.242   109128922.664       -1449.750          44.000    21560737.477  
  92377774.621       -1129.695          31.000    21560738.023  
  22319266.000   117275009.996        4308.355          39.000                  
                                                                
  20141611.969   109098476.336        -359.023          39.000    20141617.945  
  83935907.465        -279.387          43.000                  
  21511117.961   117370649.102        2398.797          40.000    21511121.164  
  92238060.066        1865.734          38.000                  
                                                        39.000                  
                                                                
  22083510.609   117500710.609        -684.336          42.000    22083515.406  
  92333774.496        -532.277          40.000                  
  21799446.445   117600294.672       -2661.852          41.000    21799447.898  
  92405209.152       -2070.352          41.000                  
                                                        43.000                  
                                                                
                                                        44.000                  
                                                                
                                                        44.000                  
                                                                
                                                        43.000                  
                                                                
 19  6 11 23 18 52.0000000  0 16G 2G 6G 5G29G12G25R 6R20R21R12R11R 4
                                S35S33S38S31
  22297331.188   117557859.152       -1771.395          43.000    22297336.930  
  92393829.145       -1380.332          32.000                  
                                                        42.000                  
                                        22.000                  
  20345074.367   109103305.633        -397.816          49.000    20345081.812  
  83941123.379        -309.945          36.000    20345083.336  
  21094889.133   108980845.512        2034.281          48.000    21094897.531  
  83913246.543        1585.160          35.000    21094898.555  
  22355472.625   117629245.441       -3334.336          47.000    22355481.320  
  92447200.711       -2598.199          33.000    22355481.945  
  21561002.539   109130389.176       -1450.016          44.000    21561012.961  
  92378917.348       -1129.883          31.000    21561013.680  
  22318458.523   117270719.543        4308.469          38.000                  
                                                                
  20141678.539   109098852.629        -359.684          39.000    20141684.781  
  83936200.145        -279.465          43.000                  
  21510669.164   117368267.832        2398.352          41.000    21510672.602  
  92236207.973        1865.660          39.000                  
                                                        40.000                  
                                                                
  22083638.461   117501412.504        -685.320          40.000    22083643.062  
  92334320.418        -532.973          39.000                  
  21799943.297   117602973.711       -2663.859          41.000    21799944.688  
  92407292.863       -2072.027          41.000                  
                                                        43.000                  
                                                                
                                                        44.000                  
                                                                
                                                        44.000                  
                                                                
                                                        43.000                  
                                                                
 19  6 11 23 18 53.0000000  0 10G 2G 6G 5G29G12G25S35S33S38S31
  22297668.555   117559640.566       -1771.758          43.000    22297674.102  
  92395217.258       -1380.602          31.000                  
                                                        42.000                  
                                        22.000                  
  20345150.273   109103713.773        -398.707          49.000    20345157.562  
  83941441.406        -310.695          36.000    20345158.508  
  21094501.945   108978821.406        2033.789          48.000    21094510.414  
  83911669.305        1584.793          35.000    21094511.164  
  22356107.305   117632589.992       -3334.875          47.000    22356115.906  
  92449806.848       -2598.641          33.000    22356117.141  
  21561278.609   109131849.289       -1450.660          44.000    21561288.969  
  92380055.078       -1130.355          31.000    21561289.516  
                                                        44.000                  
                                                                
                                                        44.000                  
                                                                
                                                        45.000                  
                                                                
                                                        43.000                  
                                                                
 19  6 11 23 18 54.0000000  0 15G 2G 6G 5G29G12G25R 6R20R21R11R 4S35
                                S33S38S31
  22298005.086   117561411.270       -1772.711          43.000    22298010.352  
  92396597.043       -1381.367          31.000                  
                                                        42.000                  
                                        23.000                  
  20345224.953   109104111.758        -400.246          49.000    20345232.523  
  83941751.543        -311.910          36.000    20345233.898  
  21094114.125   108976786.773        2032.633          48.000    21094122.383  
  83910083.898        1583.824          36.000    21094123.320  
  22356740.938   117635924.039       -3336.098          47.000    22356749.586  
  92452404.832       -2599.527          33.000    22356750.445  
  21561553.703   109133299.199       -1452.047          44.000    21561564.117  
  92381184.902       -1131.508          31.000    21561565.195  
  22316761.445   117262114.9221       4305.602          38.000                  
                                                                
  20141730.797   109099581.3521       -361.180          39.000    20141736.539  
  83936767.3441       -280.414          43.000                  
  21509690.695   117363481.4301       2397.617          41.000    21509694.031  
  92232485.0781       1864.793          38.000                  
  22083812.539   117502793.4961       -687.793          40.000    22083816.938  
  92335394.5351       -534.992          39.000                  
  21800855.461   117608309.2701      -2664.543          41.000    21800856.336  
  92411442.8521      -2072.488          41.000                  
                                                        43.000                  
                                                                
                                                        44.000                  
                                                                
                                                        44.000                  
                                                                
                                                        44.000                  
                                                                
 19  6 11 23 18 55.0000000  0 16G 2G 6G 5G29G12G25R 6R20R21R12R11R 4
                                S35S33S38S31
  22298342.492   117563186.719       -1773.500          44.000    22298348.273  
  92397980.488       -1381.953          32.000                  
                                                        43.000                  
                                        24.000                  
  20345301.672   109104515.039        -401.766          49.000    20345309.312  
  83942065.777        -313.035          36.000    20345310.609  
  21093727.797   108974757.059        2031.215          48.000    21093736.188  
  83908502.301        1582.781          36.000    21093737.219  
  22357376.023   117639263.027       -3337.605          48.000    22357385.016  
  92455006.625       -2600.766          32.000    22357385.703  
  21561830.578   109134754.336       -1453.703          45.000    21561841.055  
  92382318.773       -1132.770          31.000    21561841.938  
  22315954.992   117257811.758        4305.500          38.000                  
                                                                
  20141798.758   109099945.051        -363.332          39.000    20141804.500  
  83937050.266        -281.801          43.000                  
  21509243.297   117361087.035        2395.871          38.000    21509246.289  
  92230622.805        1863.355          37.000                  
                              1                         39.000                  
                                                                
  22083941.875   117503484.645        -689.895          40.000    22083947.148  
  92335932.078        -536.547          38.000                  
  21801353.641   117610976.934       -2666.441          41.000    21801355.367  
  92413517.688       -2073.910          40.000                  
                                                        44.000                  
                                                                
                                                        44.000                  
                                                                
                                                        44.000                  
                                                                
                                                        44.000                  
                                                                
 19  6 11 23 18 56.0000000  0 16G 2G 6G 5G29G12G25R 6R20R21R12R11R 4
                                S35S33S38S31
  22298679.945   117564960.164       -1772.262          43.000    22298685.812  
  92399362.402       -1381.012          32.000                  
                                                        42.000                  
                                        23.000                  
  20345378.203   109104916.871        -400.961          49.000    20345385.750  
  83942378.895        -312.406          36.000    20345386.680  
  21093340.914   108972725.520        2032.531          47.000    21093349.570  
  83906919.293        1583.773          35.000    21093350.117  
  22358011.102   117642600.203       -3336.328          47.000    22358019.961  
  92457607.031       -2599.758          33.000    22358020.125  
  21562107.062   109136208.012       -1452.715          43.000    21562117.711  
  92383451.512       -1131.961          32.000    21562117.820  
  22315147.812   117253506.6991       4305.527          36.000                  
                                                                
  20141865.758   109100306.957        -361.152          37.000    20141872.062  
  83937331.727        -280.633          43.000                  
  21508795.062   117358690.555        2397.598          43.000    21508798.547  
  92228758.855        1864.570          42.000                  
                                                        38.000                  
                                                                
  22084070.672   117504174.121        -689.086          42.000    22084075.641  
  92336468.320        -535.945          39.000                  
  21801850.797   117613643.105       -2665.832          38.000    21801853.047  
  92415591.363       -2073.355          41.000                  
                                                        43.000                  
                                                                
                                                        44.000                  
                                                                
                                                        44.000                  
                                                                
                                                        43.000                  
                                                                
 19  6 11 23 18 57.0000000  0 16G 2G 6G 5G29G12G25R 6R20R21R12R11R 4
                                S35S33S38S31
  22299017.570   117566734.598       -1772.391          43.000    22299023.422  
  92400745.078       -1381.129          31.000                  
                                                        42.000                  
                                        23.000                  
  20345455.031   109105320.223        -401.555          49.000    20345462.484  
  83942693.195        -312.891          36.000    20345464.180  
  21092954.469   108970695.148        2032.355          48.000    21092963.195  
  83905337.180        1583.652          35.000    21092964.430  
  22358646.578   117645938.551       -3336.379          47.000    22358655.289  
  92460208.348       -2599.828          33.000    22358655.898  
  21562384.164   109137663.172       -1453.539          45.000    21562394.680  
  92384585.406       -1132.625          31.000    21562395.117  
  22314341.055   117249202.758        4306.297          39.000                  
                                                                
  20141934.055   109100670.000        -361.199          39.000    20141940.242  
  83937614.098        -280.637          43.000                  
  21508347.164   117356295.055        2397.355          42.000    21508350.672  
  92226895.688        1865.094          40.000                  
                                                        41.000                  
                                                                
  22084200.023   117504865.543        -691.254          40.000    22084204.422  
  92337006.086        -537.695          37.000                  
  21802348.758   117616310.762       -2665.676          41.000    21802351.047  
  92417666.188       -2073.289          41.000                  
                                                        44.000                  
                                                                
                                                        44.000                  
                                                                
                                                        44.000                  
                                                                
                                                        43.000                  
                                                                
 19  6 11 23 18 58.0000000  0 16G 2G 6G 5G29G12G25R 6R20R21R12R11R 4
                                S35S33S38S31
  22299355.086   117568508.012       -1772.879          44.000    22299360.852  
  92402126.957       -1381.512          31.000                  
                                                        43.000                  
                                        22.000                  
  20345531.695   109105723.113        -402.488          49.000    20345539.188  
  83943007.137        -313.680          36.000    20345540.336  
  21092568.164   108968663.945        2031.844          48.000    21092576.656  
  83903754.418        1583.238          36.000    21092577.703  
  22359281.664   117649276.082       -3336.664          47.000    22359290.344  
  92462809.000       -2600.012          33.000    22359291.359  
  21562660.812   109139117.801       -1454.105          44.000    21562671.523  
  92385718.867       -1133.066          31.000    21562672.336  
  22313534.359   117244897.969        4305.566          39.000                  
                                                                
  20142001.875   109101032.234        -361.551          39.000    20142007.820  
  83937895.824        -281.367          43.000                  
  21507899.023   117353898.590        2397.281          39.000    21507902.672  
  92225031.770        1864.695          38.000                  
                                                        41.000                  
                                                                
  22084329.445   117505556.520        -690.590          39.000    22084334.078  
  92337543.543        -537.207          38.000                  
  21802847.203   117618978.020       -2666.895          41.000    21802849.039  
  92419740.727       -2074.227          41.000                  
                                                        44.000                  
                                                                
                                                        44.000                  
                                                                
                                                        44.000                  
                                                                
                                                        43.000                  
                                                                
 19  6 11 23 18 59.0000000  0 16G 2G 6G 5G29G12G25R 6R20R21R12R11R 4
                                S35S33S38S31
  22299692.695   117570281.898       -1772.918          44.000    22299698.391  
  92403509.211       -1381.523          31.000                  
                                                        42.000                  
                                        23.000                  
  20345608.562   109106127.020        -403.059          49.000    20345616.047  
  83943321.871        -314.074          36.000    20345617.281  
  21092181.875   108966633.375        2031.609          47.000    21092190.250  
  83902172.152        1583.055          35.000    21092191.312  
  22359916.867   117652614.270       -3336.879          47.000    22359925.508  
  92465410.184       -2600.164          33.000    22359926.242  
  21562937.891   109140573.418       -1454.734          44.000    21562948.438  
  92386853.133       -1133.520          31.000    21562949.297  
  22312728.250   117240593.695        4307.145          38.000                  
                                                                
  20142069.609   109101395.098        -361.469          39.000    20142075.625  
  83938178.074        -281.258          43.000                  
  21507451.750   117351502.523        2396.426          43.000    21507454.875  
  92223168.164        1864.492          39.000                  
  23558526.812   125784159.488        1887.555          40.000                  
                                                                
  22084459.188   117506248.754        -691.492          42.000    22084464.141  
  92338081.930        -537.859          41.000                  
  21803345.648   117621646.289       -2668.656          41.000    21803347.602  
  92421816.062       -2075.684          41.000                  
                                                        44.000                  
                                                                
                                                        44.000                  
                                                                
                                                        44.000                  
                                                                
                                                        44.000                  
                                                                
 19  6 11 23 19  0.0000000  0 16G 2G 6G 5G29G12G25R 6R20R21R12R11R 4
                                S35S33S38S31
  22300030.250   117572055.855       -1772.945          44.000    22300035.938  
  92404891.512       -1381.566          31.000                  
                                                        42.000                  
                                        22.000                  
  20345685.641   109106531.539        -402.746          49.000    20345693.047  
  83943637.078        -313.828          36.000    20345694.227  
  21091795.516   108964603.047        2032.504          48.000    21091803.836  
  83900590.105        1583.785          35.000    21091804.758  
  22360552.117   117655952.727       -3336.562          47.000    22360560.734  
  92468011.582       -2599.914          33.000    22360561.266  
  21563214.719   109142029.598       -1454.090          44.000    21563225.352  
  92387987.797       -1133.051          30.000    21563226.297  
  22311921.414   117236289.6091       4302.973          38.000                  
                                                                
  20142137.273   109101758.262        -361.090          39.000    20142143.461  
  83938460.527        -281.184          43.000                  
  21507004.352   117349106.504        2398.086          44.000    21507007.203  
  92221304.582        1865.152          41.000                  
  23558173.555   125782273.414        1888.070          40.000                  
                                                                
  22084588.695   117506941.812        -691.164          42.000    22084593.266  
  92338620.977        -537.590          40.000                  
  21803844.172   117624315.254       -2667.320          41.000    21803846.070  
  92423891.910       -2074.543          40.000                  
                                                        44.000                  
                                                                
                                                        43.000                  
                                                                
                                                        44.000                  
                                                                
                                                        43.000                  
                                                                
 19  6 11 23 19  1.0000000  0 16G 2G 6G 5G29G12G25R 6R20R21R12R11R 4
                                S35S33S38S31
  22300368.297   117573830.461       -1772.574          43.000    22300373.625  
  92406274.316       -1381.223          32.000                  
                                                        41.000                  
                                        22.000                  
  20345762.719   109106937.270        -403.832          49.000    20345770.211  
  83943953.238        -314.641          36.000    20345771.172  
  21091409.266   108962573.570        2031.594          48.000    21091417.727  
  83899008.688        1583.070          35.000    21091418.531  
  22361187.758   117659292.043       -3337.387          47.000    22361196.148  
  92470613.645       -2600.594          32.000    22361196.695  
  21563491.930   109143486.945       -1455.633          44.000    21563502.672  
  92389123.402       -1134.328          31.000    21563503.516  
  22311115.219   117231986.3551       4304.336          38.000                  
                                                                
  20142205.320   109102122.250        -361.945          39.000    20142211.406  
  83938743.625        -281.555          43.000                  
  21506556.891   117346711.141        2397.328          44.000    21506559.617  
  92219441.520        1864.605          41.000                  
  23557820.648   125780388.633        1886.207          40.000                  
                                                                
  22084718.469   117507636.223        -692.816          42.000    22084723.523  
  92339161.074        -538.859          41.000                  
  21804342.570   117626985.488       -2668.621          42.000    21804344.594  
  92425968.762       -2075.594          41.000                  
                                                        43.000                  
                                                                
                                                        44.000                  
                                                                
                                                        44.000                  
                                                                
                                                        43.000                  
                                                                
 19  6 11 23 19  2.0000000  0 16G 2G 6G 5G29G12G25R 6R20R21R12R11R 4
                                S35S33S38S31
  22300706.266   117575606.516       -1772.945          44.000    22300711.609  
  92407658.246       -1381.535          32.000                  
                                                        42.000                  
                                        22.000                  
  20345840.250   109107345.000        -405.195          49.000    20345847.898  
  83944270.938        -315.695          36.000    20345848.703  
  21091023.414   108960545.715        2030.543          48.000    21091031.875  
  83897428.512        1582.262          35.000    21091032.594  
  22361823.406   117662632.969       -3338.242          47.000    22361831.852  
  92473216.965       -2601.230          32.000    22361833.375  
  21563769.992   109144946.238       -1456.641          44.000    21563780.328  
  92390260.523       -1135.047          31.000    21563781.641  
  22310309.195   117227684.6051       4305.469          39.000                  
                                                                
  20142273.727   109102487.887        -362.641          39.000    20142279.891  
  83939028.004        -282.406          43.000                  
  21506109.352   117344317.254        2396.543          44.000    21506112.672  
  92217579.598        1864.508          42.000                  
  23557468.398   125778505.961        1884.602          40.000                  
                                                                
  22084848.734   117508332.781        -695.996          43.000    22084853.508  
  92339702.840        -541.465          41.000                  
  21804841.523   117629657.797       -2668.551          41.000    21804843.781  
  92428047.215       -2075.426          41.000                  
                                                        44.000                  
                                                                
                                                        44.000                  
                                                                
                                                        44.000                  
                                                                
                                                        43.000                  
                                                                
 19  6 11 23 19  3.0000000  0 16G 2G 6G 5G29G12G25R 6R20R21R12R11R 4
                                S35S33S38S31
  22301043.297   117577381.859       -1773.316          43.000    22301049.547  
  92409041.641       -1381.867          30.000                  
                                                        41.000                  
                                        37.000                  
  20345917.500   109107752.555        -405.660          49.000    20345925.422  
  83944588.512        -316.082          35.000    20345926.102  
  21090637.148   108958517.293        2030.590          47.000    21090645.812  
  83895847.949        1582.230          33.000    21090646.617  
  22362458.727   117665973.398       -3338.453          47.000    22362467.477  
  92475819.891       -2601.430          31.000    22362469.008  
  21564047.578   109146405.312       -1456.969          44.000    21564058.070  
  92391397.449       -1135.305          30.000    21564059.031  
  22309502.641   117223382.8091       4303.816          38.000                  
                                                                
  20142341.969   109102852.969        -363.086          39.000    20142348.180  
  83939311.969        -282.094          43.000                  
  21505661.406   117341922.684        2396.430          43.000    21505665.117  
  92215717.176        1863.996          42.000                  
  23557115.758   125776623.188        1884.582          40.000                  
                                                                
  22084978.750   117509029.363        -694.562          41.000    22084984.062  
  92340244.633        -540.270          40.000                  
  21805340.758   117632329.875       -2670.172          41.000    21805342.703  
  92430125.508       -2076.832          41.000                  
                                                        43.000                  
                                                                
                                                        44.000                  
                                                                
                                                        44.000                  
                                                                
                                                        43.000                  
                                                                
 19  6 11 23 19  4.0000000  0 17G 2G 6G 5G29G12G21G25R 6R20R21R12R11
                                R 4S35S33S38S31
  22301381.172   117579156.059       -1773.488          43.000    22301387.148  
  92410424.129       -1381.930          31.000                  
                                                        42.000                  
                                        37.000                  
  20345995.234   109108159.527        -406.434          49.000    20346002.820  
  83944905.637        -316.715          36.000    20346003.836  
  21090251.094   108956487.949        2030.008          48.000    21090259.703  
  83894266.652        1581.848          35.000    21090260.805  
  22363094.469   117669312.859       -3338.805          47.000    22363102.969  
  92478422.070       -2601.637          32.000    22363104.164  
                        -0.500                          40.000                  
                                                                
  21564325.164   109147863.734       -1457.727          44.000    21564335.594  
  92392533.883       -1135.902          31.000    21564336.617  
  22308696.484   117219078.8951       4303.227          38.000                  
                                                                
  20142410.359   109103217.078        -363.566          39.000    20142416.406  
  83939595.141        -282.418          43.000                  
  21505213.805   117339526.859        2396.262          44.000    21505217.133  
  92213853.758        1864.094          41.000                  
  23556763.578   125774739.832        1883.918          39.000                  
                                                                
  22085109.430   117509725.480        -695.664          43.000    22085115.031  
  92340786.066        -541.000          40.000                  
  21805839.531   117635001.387       -2671.570          41.000    21805841.727  
  92432203.340       -2077.895          41.000                  
                                                        43.000                  
                                                                
                                                        43.000                  
                                                                
                                                        44.000                  
                                                                
                                                        43.000                  
                                                                
 19  6 11 23 19  5.0000000  0 17G 2G 6G 5G29G12G21G25R 6R20R21R12R11
                                R 4S35S33S38S31
  22301718.922   117580930.879       -1772.984          44.000    22301724.867  
  92411807.102       -1381.559          31.000                  
                                                        42.000                  
                                        37.000                  
  20346072.977   109108567.664        -407.055          49.000    20346080.484  
  83945223.668        -317.184          36.000    20346081.562  
  21089865.023   108954459.391        2029.738          47.000    21089873.672  
  83892685.941        1581.594          35.000    21089875.086  
  22363730.297   117672653.156       -3338.988          47.000    22363738.562  
  92481024.887       -2601.816          33.000    22363740.156  
                        -0.500                          35.000                  
                                                                
  21564602.445   109149323.324       -1458.332          44.000    21564613.430  
  92393671.242       -1136.344          31.000    21564614.672  
  22307889.922   117214776.211        4301.473          39.000                  
                                                                
  20142479.109   109103581.992        -363.418          39.000    20142484.594  
  83939878.977        -282.793          43.000                  
  21504766.250   117337131.656        2396.469          43.000    21504769.461  
  92211990.812        1864.098          42.000                  
  23556411.172   125772857.754        1883.500          41.000                  
                                                                
  22085240.031   117510422.961        -696.426          45.000    22085245.477  
  92341328.504        -541.641          42.000                  
  21806338.836   117637674.070       -2672.430          41.000    21806340.547  
  92434282.102       -2078.590          41.000                  
                                                        43.000                  
                                                                
                                                        44.000                  
                                                                
                                                        44.000                  
                                                                
                                                        43.000                  
                                                                
 19  6 11 23 19  6.0000000  0 17G 2G 6G 5G29G12G21G25R 6R20R21R12R11
                                R 4S35S33S38S31
  22302057.102   117582707.402       -1773.863          43.000    22302062.914  
  92413191.406       -1382.246          32.000                  
                                                        42.000                  
              1                         23.000                  
  20346151.016   109108978.043        -408.043          49.000    20346158.625  
  83945543.438        -317.926          36.000    20346159.766  
  21089479.414   108952432.711        2029.285          48.000    21089488.039  
  83891106.707        1581.262          35.000    21089488.516  
  22364366.188   117675995.352       -3339.758          47.000    22364374.570  
  92483629.184       -2602.441          32.000    22364375.820  
                        -0.500                          36.000                  
                                                                
  21564880.656   109150785.094       -1459.188          43.000    21564891.484  
  92394810.262       -1137.031          31.000    21564892.250  
  22307084.109   117210475.387        4303.660          39.000                  
                                                                
  20142547.516   109103948.836        -365.008          40.000    20142553.250  
  83940164.305        -283.227          43.000                  
  21504318.680   117334738.172        2396.207          43.000    21504322.289  
  92210129.203        1863.590          42.000                  
  23556059.141   125770978.043        1881.609          40.000                  
                                                                
  22085371.117   117511122.875        -697.496          44.000    22085376.102  
  92341872.883        -542.500          41.000                  
  21806838.273   117640349.086       -2672.555          41.000    21806840.219  
  92436362.660       -2078.605          41.000                  
                                                        43.000                  
                                                                
                                                        44.000                  
                                                                
                                                        44.000                  
                                                                
                                                        43.000                  
                                                                
 19  6 11 23 19  7.0000000  0 17G 2G 6G 5G29G12G21G25R 6R20R21R12R11
                                R 4S35S33S38S31
  22302395.383   117584483.062       -1773.586          43.000    22302400.891  
  92414575.039       -1381.984          31.000                  
                                                        42.000                  
                                        23.000                  
  20346229.281   109109388.105        -408.305          49.000    20346236.664  
  83945862.961        -318.164          36.000    20346238.359  
  21089093.820   108950405.352        2029.434          48.000    21089102.234  
  83889526.945        1581.383          35.000    21089103.234  
  22365002.148   117679336.867       -3339.504          47.000    22365010.375  
  92486232.961       -2602.160          33.000    22365011.672  
                        -0.500                          35.000                  
                                                                
  21565158.812   109152246.520       -1459.484          44.000    21565169.547  
  92395949.035       -1137.230          31.000    21565170.477  
  22306277.914   117206173.832        4303.164          39.000                  
                                                                
  20142615.953   109104315.000        -364.281          39.000    20142621.672  
  83940449.082        -283.199          44.000                  
  21503871.242   117332343.809        2396.043          43.000    21503875.102  
  92208266.922        1864.012          42.000                  
  23555706.961   125769098.066        1881.582          39.000                  
                                                                
  22085502.242   117511822.633        -698.176          44.000    22085507.156  
  92342417.145        -543.031          41.000                  
  21807337.812   117643023.805       -2673.988          41.000    21807339.617  
  92438442.996       -2079.840          41.000                  
                                                        43.000                  
                                                                
                                                        44.000                  
                                                                
                                                        44.000                  
                                                                
                                                        44.000                  
                                                                
 19  6 11 23 19  8.0000000  0 17G 2G 6G 5G29G12G21G25R 6R20R21R12R11
                                R 4S35S33S38S31
  22302732.906   117586257.805       -1773.668          43.000    22302738.609  
  92415957.961       -1382.090          31.000                  
                                                        42.000                  
                                        23.000                  
  20346307.156   109109797.793        -409.027          49.000    20346314.594  
  83946182.215        -318.727          36.000    20346315.898  
  21088707.914   108948377.250        2029.102          48.000    21088716.328  
  83887946.609        1581.133          35.000    21088717.234  
  22365637.906   117682677.652       -3339.742          47.000    22365646.125  
  92488836.188       -2602.434          32.000    22365647.664  
                                                        36.000                  
                                                                
  21565437.086   109153707.531       -1458.984          44.000    21565447.445  
  92397087.484       -1136.852          31.000    21565448.555  
  22305471.805   117201871.426        4302.195          38.000                  
                                                                
  20142684.359   109104680.402        -364.598          39.000    20142689.859  
  83940733.285        -283.277          43.000                  
  21503423.453   117329948.523        2396.465          42.000    21503427.273  
  92206403.922        1863.922          42.000                  
  23555354.969   125767217.781        1880.953          40.000                  
                                                                
  22085633.117   117512522.176        -698.887          44.000    22085637.891  
  92342961.223        -543.527          41.000                  
  21807837.133   117645698.211       -2674.168          41.000    21807839.133  
  92440523.090       -2079.969          41.000                  
                                                        43.000                  
                                                                
                                                        44.000                  
                                                                
                                                        44.000                  
                                                                
                                                        44.000                  
                                                                
 19  6 11 23 19  9.0000000  0 17G 2G 6G 5G29G12G21G25R 6R20R21R12R11
                                R 4S35S33S38S31
  22303070.359   117588032.539       -1774.406          43.000    22303076.344  
  92417340.875       -1382.613          31.000                  
                                                        42.000                  
                                        23.000                  
  20346385.203   109110207.996        -409.984          49.000    20346392.672  
  83946501.844        -319.469          36.000    20346393.516  
  21088321.883   108946349.312        2028.277          48.000    21088330.406  
  83886366.398        1580.434          35.000    21088331.102  
  22366273.547   117686018.621       -3340.820          47.000    22366281.836  
  92491439.535       -2603.219          33.000    22366282.641  
                                                        38.000                  
                                                                
  21565715.117   109155169.004       -1461.465          44.000    21565725.508  
  92398226.309       -1138.871          31.000    21565726.586  
  22304665.367   117197569.141        4302.941          38.000                  
                                                                
  20142752.492   109105045.961        -365.438          39.000    20142758.195  
  83941017.613        -284.398          44.000                  
  21502975.695   117327553.191        2395.602          44.000    21502979.789  
  92204540.887        1863.316          41.000                  
  23555002.789   125765338.102        1880.082          39.000                  
                                                                
  22085764.102   117513222.387        -700.145          44.000    22085768.789  
  92343505.840        -544.555          41.000                  
  21808336.438   117648373.090       -2674.855          41.000    21808338.328  
  92442603.539       -2080.457          40.000                  
                                                        43.000                  
                                                                
  37944760.156   201365083.188          -4.477          44.000                  
                                                                
                                                        44.000                  
                                                                
                                                        44.000                  
                                                                
 19  6 11 23 19 10.0000000  0 17G 2G 6G 5G29G12G21G25R 6R20R21R12R11
                                R 4S35S33S38S31
  22303408.281   117589809.020       -1774.406          43.000    22303414.320  
  92418725.141       -1382.660          31.000                  
                                                        42.000                  
                                        21.000                  
  20346463.609   109110620.512        -410.723          49.000    20346471.164  
  83946823.297        -320.051          36.000    20346472.117  
  21087936.516   108944323.305        2027.980          48.000    21087944.914  
  83884787.691        1580.281          35.000    21087945.891  
  22366909.711   117689361.527       -3340.922          47.000    22366917.969  
  92494044.398       -2603.301          32.000    22366919.492  
                                                        41.000                  
                                                                
  21565993.930   109156632.754       -1461.914          44.000    21566004.125  
  92399366.883       -1139.168          31.000    21566005.070  
  22303859.414   117193268.766        4302.797          39.000                  
                                                                
  20142821.164   109105413.477        -365.172          39.000    20142827.234  
  83941303.461        -284.281          43.000                  
  21502528.781   117325159.602        2395.465          44.000    21502532.281  
  92202679.219        1863.258          43.000                  
  23554651.352   125763460.863        1879.668          39.000                  
                                                                
  22085895.461   117513925.215        -700.734          39.000    22085900.258  
  92344052.523        -545.039          39.000                  
  21808836.477   117651050.348       -2675.547          41.000    21808838.305  
  92444685.848       -2080.926          41.000                  
                                                        44.000                  
                                                                
  37944761.305   201365087.168          -3.805          43.000                  
                                                                
                                                        44.000                  
                                                                
                                                        44.000                  
                                                                
 19  6 11 23 19 11.0000000  0 17G 2G 6G 5G29G12G21G25R 6R20R21R12R11
                                R 4S35S33S38S31
  22303746.383   117591585.164       -1774.922          44.000    22303752.242  
  92420109.145       -1383.031          31.000                  
                                                        42.000                  
                                        23.000                  
  20346541.969   109111033.250        -412.141          49.000    20346549.750  
  83947144.914        -321.168          36.000    20346551.328  
  21087550.820   108942297.145        2026.961          48.000    21087559.367  
  83883208.871        1579.477          35.000    21087560.484  
  22367545.992   117692704.309       -3341.688          47.000    22367554.055  
  92496649.176       -2603.922          32.000    22367555.211  
                                                        39.000                  
                                                                
  21566272.305   109158096.688       -1463.461          43.000    21566282.781  
  92400507.602       -1140.391          31.000    21566284.266  
  22303053.320   117188968.227        4303.566          38.000                  
                                                                
  20142889.914   109105780.875        -367.148          40.000    20142895.812  
  83941589.191        -285.051          43.000                  
  21502081.625   117322765.711        2394.242          38.000    21502085.211  
  92200817.281        1863.062          37.000                  
  23554300.094   125761583.898        1877.324          41.000                  
                                                                
  22086026.938   117514628.371        -702.324          37.000    22086032.250  
  92344599.406        -546.172          37.000                  
  21809336.727   117653727.844       -2677.332          41.000    21809338.117  
  92446768.355       -2082.348          40.000                  
                                                        44.000                  
                                                                
  37944762.578   201365090.707          -2.922          43.000                  
                                                                
                                                        44.000                  
                                                                
                                                        43.000                  
                                                                
 19  6 11 23 19 12.0000000  0 17G 2G 6G 5G29G12G21G25R 6R20R21R12R11
                                R 4S35S33S38S31
  22304084.461   117593360.594       -1773.914          44.000    22304090.047  
  92421492.590       -1382.281          31.000                  
                                                        43.000                  
                                        22.000                  
  20346620.562   109111445.793        -411.465          49.000    20346628.266  
  83947466.371        -320.641          36.000    20346629.039  
  21087165.289   108940270.461        2028.246          48.000    21087173.695  
  83881629.617        1580.453          35.000    21087174.781  
  22368181.953   117696046.555       -3340.832          47.000    22368190.109  
  92499253.500       -2603.293          32.000    22368190.578  
                                                        40.000                  
                                                                
  21566551.039   109159560.375       -1462.492          44.000    21566561.250  
  92401648.160       -1139.555          30.000    21566562.953  
  22302247.281   117184667.0201       4303.562          39.000                  
                                                                
  20142958.477   109106147.629        -365.379          39.000    20142964.492  
  83941874.484        -284.426          44.000                  
  21501633.930   117320370.988        2395.262          43.000    21501637.578  
  92198954.777        1863.297          41.000                  
  23553948.453   125759706.828        1877.371          40.000                  
                                                                
  22086158.352   117515331.336        -701.902          41.000    22086163.016  
  92345146.137        -545.891          39.000                  
  21809836.492   117656405.188       -2676.426          41.000    21809838.438  
  92448850.742       -2081.691          41.000                  
                                                        43.000                  
                                                                
  37944763.812   201365093.367          -2.297          44.000                  
                                                                
                                                        44.000                  
                                                                
                                                        43.000                  
                                                                
 19  6 11 23 19 13.0000000  0 17G 2G 6G 5G29G12G21G25R 6R20R21R12R11
                                R 4S35S33S38S31
  22304422.234   117595134.980       -1774.703          44.000    22304427.664  
  92422875.238       -1382.910          32.000                  
                                                        43.000                  
                                        24.000                  
  20346699.148   109111857.844        -413.027          49.000    20346706.680  
  83947787.453        -321.832          36.000    20346707.391  
  21086779.383   108938242.906        2027.105          48.000    21086787.852  
  83880049.711        1579.586          35.000    21086788.750  
  22368817.758   117699387.969       -3342.082          47.000    22368825.977  
  92501857.199       -2604.273          33.000    22368826.969  
                                                        36.000                  
                                                                
  21566829.570   109161023.539       -1463.695          46.000    21566839.555  
  92402788.266       -1140.508          31.000    21566840.648  
  22301440.984   117180365.3831       4301.023          38.000                  
                                                                
  20143027.102   109106513.535        -365.906          39.000    20143032.984  
  83942159.059        -284.957          43.000                  
  21501186.086   117317975.227        2394.781          43.000    21501189.953  
  92197091.383        1863.188          41.000                  
  23553597.539   125757829.363        1877.715          39.000                  
                                                                
  22086289.352   117516034.133        -704.562          40.000    22086293.945  
  92345692.785        -548.066          36.000                  
  21810336.344   117659082.051       -2677.973          41.000    21810338.117  
  92450932.738       -2082.879          41.000                  
                                                        43.000                  
                                                                
  37944764.500   201365094.871          -0.617          44.000                  
                                                                
                                                        44.000                  
                                                                
                                                        44.000                  
                                                                
 19  6 11 23 19 14.0000000  0 17G 2G 6G 5G29G12G21G25R 6R20R21R12R11
                                R 4S35S33S38S31
  22304760.203   117596910.848       -1773.660          43.000    22304765.578  
  92424259.027       -1382.062          31.000                  
                                                        42.000                  
                                        23.000                  
  20346778.062   109112271.930        -412.008          49.000    20346785.500  
  83948110.109        -321.016          36.000    20346786.578  
  21086393.969   108936216.980        2028.199          47.000    21086402.352  
  83878471.082        1580.398          35.000    21086402.938  
  22369453.891   117702731.031       -3340.801          47.000    22369462.109  
  92504462.203       -2603.180          33.000    22369462.945  
                                                        38.000                  
                                                                
  21567108.211   109162488.707       -1463.016          44.000    21567118.367  
  92403929.949       -1140.004          33.000    21567119.195  
  22300635.031   117176064.3361       4301.508          38.000                  
                                                                
  20143095.625   109106881.105        -365.113          39.000    20143101.727  
  83942444.949        -284.051          43.000                  
  21500738.656   117315581.027        2396.859          41.000    21500742.438  
  92195229.250        1864.066          41.000                  
  23553246.102   125755953.969        1876.891          40.000                  
                                                                
  22086421.750   117516738.984        -702.457          40.000    22086426.422  
  92346241.000        -546.340          37.000                  
  21810836.578   117661761.004       -2676.926          41.000    21810838.086  
  92453016.375       -2082.078          41.000                  
                                                        43.000                  
                                                                
  37944765.156   201365097.719          -3.375          44.000                  
                                                                
                                                        44.000                  
                                                                
                                                        44.000                  
                                                                
 19  6 11 23 19 15.0000000  0 17G 2G 6G 5G29G12G21G25R 6R20R21R12R11
                                R 4S35S33S38S31
  22305098.656   117598687.715       -1774.266          44.000    22305103.727  
  92425643.609       -1382.516          31.000                  
                                                        42.000                  
                                        23.000                  
  20346856.875   109112687.559        -413.340          49.000    20346864.578  
  83948433.973        -322.082          36.000    20346865.344  
  21086008.500   108934192.273        2027.531          48.000    21086017.102  
  83876893.387        1579.902          34.000    21086018.008  
  22370090.133   117706075.305       -3341.566          47.000    22370098.453  
  92507068.113       -2603.785          33.000    22370099.727  
                                                        36.000                  
                                                                
  21567387.664   109163955.359       -1464.223          44.000    21567397.461  
  92405072.809       -1140.922          32.000    21567398.445  
  22299829.453   117171764.9381       4302.465          37.000                  
                                                                
  20143164.578   109107249.871        -366.480          38.000    20143170.664  
  83942731.781        -284.980          43.000                  
  21500291.516   117313187.812        2395.621          43.000    21500295.234  
  92193367.824        1863.465          43.000                  
  23552894.617   125754080.289        1875.168          39.000                  
                                                                
  22086554.109   117517445.664        -704.512          41.000    22086558.320  
  92346790.609        -547.938          38.000                  
  21811337.391   117664441.535       -2678.621          41.000    21811338.547  
  92455101.227       -2083.363          41.000                  
                                                        43.000                  
                                                                
  37944766.062   201365101.492          -3.715          44.000                  
                                                                
                                                        44.000                  
                                                                
                                                        44.000                  
                                                                
 19  6 11 23 19 16.0000000  0 17G 2G 6G 5G29G12G21G25R 6R20R21R12R11
                                R 4S35S33S38S31
  22305436.547   117600463.617       -1774.855          44.000    22305441.695  
  92427027.426       -1383.066          31.000                  
                                                        42.000                  
                                        23.000                  
  20346936.078   109113102.758        -414.086          49.000    20346943.641  
  83948757.508        -322.676          36.000    20346944.406  
  21085622.977   108932166.766        2026.816          48.000    21085631.688  
  83875315.066        1579.332          34.000    21085633.008  
  22370726.195   117709418.801       -3342.137          47.000    22370734.781  
  92509673.430       -2604.250          32.000    22370736.133  
                                                        39.000                  
                                                                
  21567666.320   109165421.551       -1464.941          44.000    21567676.523  
  92406215.289       -1141.488          32.000    21567677.695  
  22299023.602   117167464.668        4301.375          38.000                  
                                                                
  20143233.555   109107617.848        -366.391          40.000    20143239.516  
  83943017.973        -284.977          43.000                  
  21499844.328   117310793.555        2395.695          43.000    21499847.984  
  92191505.645        1863.438          42.000                  
  23552543.781   125752206.168        1875.547          40.000                  
                                                                
  22086686.086   117518152.078        -705.152          41.000    22086690.258  
  92347340.039        -548.426          39.000                  
  21811838.016   117667121.613       -2679.129          41.000    21811839.430  
  92457185.719       -2083.750          41.000                  
                                                        44.000                  
                                                                
  37944766.703   201365104.180          -2.039          44.000                  
                                                                
                                                        44.000                  
                                                                
                                                        44.000                  
                                                                
 19  6 11 23 19 17.0000000  0 17G 2G 6G 5G29G12G21G25R 6R20R21R12R11
                                R 4S35S33S38S31
  22305774.008   117602239.199       -1775.742          40.000    22305779.516  
  92428410.988       -1383.652          32.000                  
                                                        38.000                  
                                        22.000                  
  20347014.867   109113518.133        -414.207          49.000    20347022.656  
  83949081.172        -322.738          36.000    20347023.453  
  21085237.312   108930141.078        2026.652          48.000    21085246.180  
  83873736.605        1579.258          35.000    21085247.820  
  22371362.375   117712762.172       -3343.234          47.000    22371371.031  
  92512278.656       -2605.172          33.000    22371372.297  
                                                        36.000                  
                                                                
  21567945.688   109166887.867       -1467.152          38.000    21567955.531  
  92407357.871       -1143.238          32.000    21567956.500  
  22298217.797   117163164.6881       4300.133          38.000                  
                                                                
  20143302.578   109107985.602        -368.199          37.000    20143308.133  
  83943304.039        -285.395          43.000                  
  21499396.727   117308398.922        2395.660          39.000    21499400.312  
  92189643.191        1862.812          42.000                  
  23552193.492   125750332.328        1874.770          39.000                  
                                                                
  22086817.992   117518858.773        -705.281          37.000    22086822.805  
  92347889.691        -548.652          40.000                  
  21812338.367   117669801.883       -2680.027          40.000    21812339.812  
  92459270.387       -2084.523          41.000                  
                                                        43.000                  
                                                                
  37944766.789   201365106.336          -3.973          39.000                  
                                                                
                                                        38.000                  
                                                                
                                                        39.000                  
                                                                
 19  6 11 23 19 18.0000000  0 17G 2G 6G 5G29G12G21G25R 6R20R21R12R11
                                R 4S35S33S38S31
  22306111.844   117604014.918       -1774.137          43.000    22306117.453  
  92429794.664       -1382.477          31.000                  
                                                        42.000                  
                                        23.000                  
  20347093.648   109113934.328        -414.820          49.000    20347101.867  
  83949405.488        -323.234          35.000    20347102.867  
  21084852.000   108928115.812        2026.672          48.000    21084860.773  
  83872158.473        1579.223          34.000    21084861.086  
  22371998.555   117716105.883       -3342.262          47.000    22372007.383  
  92514884.141       -2604.398          31.000    22372008.461  
                                                        41.000                  
                                                                
  21568224.633   109168354.941       -1465.836          44.000    21568234.672  
  92408501.051       -1142.242          30.000    21568235.766  
  22297411.602   117158863.8751       4302.340          37.000                  
                                                                
  20143371.258   109108353.840        -366.148          40.000    20143377.133  
  83943590.426        -285.262          44.000                  
  21498949.328   117306004.578        2395.633          43.000    21498952.828  
  92187780.895        1863.562          42.000                  
  23551842.891   125748459.426        1873.742          40.000                  
                                                                
  22086950.477   117519566.539        -706.691          42.000    22086955.562  
  92348440.168        -549.645          41.000                  
  21812838.648   117672483.039       -2680.250          41.000    21812840.469  
  92461355.727       -2084.598          41.000                  
                                                        44.000                  
                                                                
  37944768.578   201365108.738          -1.613          44.000                  
                                                                
                                                        44.000                  
                                                                
                                                        43.000                  
                                                                
 19  6 11 23 19 19.0000000  0 17G 2G 6G 5G29G12G21G25R 6R20R21R12R11
                                R 4S35S33S38S31
  22306449.883   117605790.883       -1775.145          43.000    22306455.438  
  92431178.543       -1383.246          32.000                  
  25382976.867   134282352.461       -2894.398          43.000    25382987.992  
 100890393.512       -2255.379          23.000    25382988.836  
  20347173.391   109114351.219        -416.543          49.000    20347181.242  
  83949730.336        -324.590          36.000    20347182.000  
  21084466.867   108926090.879        2025.512          48.000    21084475.516  
  83870580.617        1578.328          35.000    21084475.984  
  22372635.398   117719450.004       -3343.406          47.000    22372643.766  
  92517489.957       -2605.262          33.000    22372644.570  
                                                        38.000                  
                                                                
  21568503.789   109169822.699       -1467.465          44.000    21568514.031  
  92409644.762       -1143.504          31.000    21568515.055  
  22296605.922   117154563.965        4301.508          38.000                  
                                                                
  20143440.227   109108722.434        -367.578          40.000    20143445.797  
  83943877.109        -286.215          43.000                  
  21498501.875   117303610.348        2394.793          44.000    21498505.641  
  92185918.699        1862.723          42.000                  
  23551492.430   125746587.301        1872.793          40.000                  
                                                                
  22087082.742   117520275.113        -708.504          41.000    22087087.984  
  92348991.305        -551.102          38.000                  
  21813339.242   117675164.949       -2681.496          41.000    21813341.352  
  92463441.648       -2085.586          41.000                  
                                                        43.000                  
                                                                
  37944769.898   201365111.145          -2.934          44.000                  
                                                                
                                                        45.000                  
                                                                
                                                        43.000                  
                                                                
 19  6 11 23 19 20.0000000  0 17G 2G 6G 5G29G12G21G25R 6R20R21R12R11
                                R 4S35S33S38S31
  22306787.648   117607566.930       -1774.898          43.000    22306793.391  
  92432562.488       -1383.086          32.000                  
  25383527.961   134285247.973       -2894.297          43.000    25383538.922  
 100892649.805       -2255.332          24.000    25383540.609  
  20347252.797   109114768.746        -416.508          49.000    20347260.656  
  83950055.684        -324.590          36.000    20347261.445  
  21084081.578   108924066.250        2025.754          48.000    21084090.273  
  83869002.980        1578.566          34.000    21084091.328  
  22373271.883   117722794.426       -3343.242          47.000    22373280.164  
  92520095.992       -2605.070          33.000    22373281.570  
                                                        37.000                  
                                                                
  21568783.312   109171291.039       -1467.270          43.000    21568793.508  
  92410788.918       -1143.363          31.000    21568794.641  
  22295800.312   117150264.270        4301.086          38.000                  
                                                                
  20143509.164   109109091.309        -367.418          39.000    20143514.961  
  83944164.008        -285.980          44.000                  
  21498054.633   117301216.227        2395.082          44.000    21498058.023  
  92184056.602        1863.000          43.000                  
  23551142.516   125744715.902        1872.211          40.000                  
                                                                
  22087215.289   117520984.500        -709.609          42.000    22087220.758  
  92349543.059        -551.953          38.000                  
  21813840.383   117677847.508       -2681.840          41.000    21813842.070  
  92465528.082       -2085.840          41.000                  
                                                        43.000                  
                                                                
  37944770.672   201365113.547          -2.168          44.000                  
                                                                
                                                        44.000                  
                                                                
                                                        44.000                  
                                                                
 19  6 11 23 19 21.0000000  0 17G 2G 6G 5G29G12G21G25R 6R20R21R12R11
                                R 4S35S33S38S31
  22307125.922   117609343.160       -1775.383          43.000    22307131.422  
  92433946.547       -1383.387          31.000                  
  25384079.281   134288143.516       -2894.590          43.000    25384089.930  
 100894906.082       -2255.449          23.000    25384092.711  
  20347332.453   109115186.980        -417.348          49.000    20347340.281  
  83950381.582        -325.199          36.000    20347341.117  
  21083696.492   108922041.949        2025.145          48.000    21083705.008  
  83867425.598        1578.086          34.000    21083706.477  
  22373908.203   117726139.203       -3343.840          47.000    22373916.648  
  92522702.309       -2605.578          33.000    22373917.523  
                                                        36.000                  
                                                                
  21569062.664   109172760.062       -1468.371          43.000    21569073.023  
  92411933.613       -1144.195          31.000    21569074.195  
  22294994.766   117145964.855        4300.785          38.000                  
                                                                
  20143578.172   109109460.539        -368.617          40.000    20143583.945  
  83944451.172        -286.312          44.000                  
  21497607.250   117298822.230        2395.012          44.000    21497610.758  
  92182194.613        1862.867          43.000                  
  23550792.344   125742845.289        1871.340          40.000                  
                                                                
  22087348.406   117521694.848        -710.445          42.000    22087354.219  
  92350095.539        -552.570          38.000                  
  21814341.406   117680530.770       -2683.059          42.000    21814342.625  
  92467615.066       -2086.824          41.000                  
                                                        43.000                  
                                                                
  37944770.969   201365115.980          -3.418          44.000                  
                                                                
                                                        45.000                  
                                                                
                                                        44.000                  
                                                                
 19  6 11 23 19 22.0000000  0 17G 2G 6G 5G29G12G21G25R 6R20R21R12R11
                                R 4S35S33S38S31
  22307464.125   117611119.020       -1774.832          44.000    22307469.398  
  92435330.324       -1382.922          31.000                  
  25384629.945   134291038.535       -2894.691          42.000    25384640.820  
 100897161.938       -2255.742          23.000    25384642.766  
  20347412.344   109115605.402        -418.145          49.000    20347419.898  
  83950707.629        -325.840          36.000    20347420.633  
  21083311.211   108920017.465        2024.859          48.000    21083319.711  
  83865848.090        1577.766          35.000    21083320.391  
  22374544.570   117729483.777       -3343.832          47.000    22374553.117  
  92525308.480       -2605.633          33.000    22374554.148  
                                                        37.000                  
                                                                
  21569342.031   109174229.203       -1468.574          44.000    21569352.570  
  92413078.391       -1144.359          31.000    21569353.758  
  22294189.156   117141665.285        4299.301          38.000                  
                                                                
  20143647.141   109109829.578        -368.805          39.000    20143652.898  
  83944738.211        -286.656          44.000                  
  21497159.734   117296427.863        2394.672          44.000    21497163.117  
  92180332.320        1862.645          43.000                  
  23550442.094   125740974.957        1870.328          40.000                  
                                                                
  22087481.594   117522405.465        -710.453          42.000    22087487.008  
  92350648.242        -552.590          38.000                  
  21814842.430   117683214.207       -2683.629          41.000    21814843.969  
  92469702.191       -2087.301          41.000                  
                                                        43.000                  
                                                                
  37944771.523   201365117.906          -4.348          44.000                  
                                                                
                                                        44.000                  
                                                                
                                                        44.000                  
                                                                
 19  6 11 23 19 23.0000000  0 17G 2G 6G 5G29G12G21G25R 6R20R21R12R11
                                R 4S35S33S38S31
  22307801.445   117612894.508       -1776.375          43.000    22307807.211  
  92436713.836       -1384.219          32.000                  
  25385181.141   134293933.027       -2894.281          42.000    25385191.500  
 100899417.375       -2255.418          24.000    25385193.000  
  20347491.883   109116024.031        -419.996          49.000    20347499.484  
  83951033.828        -327.316          36.000    20347500.078  
  21082926.008   108917992.812        2023.816          48.000    21082934.531  
  83864270.434        1576.988          35.000    21082935.633  
  22375181.289   117732828.207       -3345.121          47.000    22375189.609  
  92527914.535       -2606.574          33.000    22375190.797  
                                                        37.000                  
                                                                
  21569621.977   109175698.508       -1470.207          43.000    21569632.211  
  92414223.312       -1145.617          31.000    21569632.898  
  22293382.875   117137365.359        4297.621          37.000                  
                                                                
  20143716.234   109110198.434        -370.266          39.000    20143721.875  
  83945025.102        -287.785          44.000                  
  21496712.422   117294033.098        2393.785          44.000    21496715.688  
  92178469.727        1862.125          43.000                  
  23550092.250   125739104.859        1868.605          39.000                  
                                                                
  22087614.586   117523116.395        -711.863          41.000    22087620.203  
  92351201.184        -553.645          38.000                  
  21815343.633   117685897.855       -2685.504          41.000    21815345.203  
  92471789.477       -2088.730          41.000                  
                                                        43.000                  
                                                                
  37944771.969   201365119.363          -3.441          43.000                  
                                                                
                                                        43.000                  
                                                                
                                                        43.000                  
                                                                
 19  6 11 23 19 24.0000000  0 17G 2G 6G 5G29G12G21G25R 6R20R21R12R11
                                R 4S35S33S38S31
  22308139.461   117614670.434       -1777.199          44.000    22308145.203  
  92438097.664       -1384.898          32.000                  
  25385731.625   134296827.840       -2894.391          43.000    25385742.344  
 100901673.031       -2255.344          23.000    25385744.344  
  20347571.859   109116443.633        -419.727          49.000    20347579.328  
  83951360.785        -327.094          36.000    20347580.594  
  21082540.758   108915968.785        2024.020          48.000    21082549.422  
  83862693.262        1577.176          34.000    21082550.375  
  22375818.016   117736173.301       -3344.992          47.000    22375826.203  
  92530521.090       -2606.457          33.000    22375827.133  
                                                        37.000                  
                                                                
  21569901.531   109177168.766       -1470.254          43.000    21569911.938  
  92415368.957       -1145.672          31.000    21569913.523  
  22292577.211   117133066.102        4298.203          38.000                  
                                                                
  20143785.484   109110567.953        -370.324          39.000    20143790.883  
  83945312.492        -287.062          44.000                  
  21496264.789   117291638.809        2394.477          45.000    21496268.188  
  92176607.496        1862.566          43.000                  
  23549742.234   125737235.863        1868.305          40.000                  
                                                                
  22087747.922   117523828.535        -712.359          41.000    22087753.969  
  92351755.074        -554.051          39.000                  
  21815845.500   117688582.543       -2685.352          41.000    21815846.531  
  92473877.555       -2088.625          41.000                  
                                                        43.000                  
                                                                
  37944772.852   201365121.191           2.152          44.000                  
                                                                
                                                        44.000                  
                                                                
                                                        44.000                  
                                                                
 19  6 11 23 19 25.0000000  0 17G 2G 6G 5G29G12G21G25R 6R20R21R12R11
                                R 4S35S33S38S31
  22308477.336   117616446.258       -1775.281          44.000    22308483.156  
  92439481.422       -1383.293          31.000                  
  25386282.461   134299722.367       -2894.273          43.000    25386293.094  
 100903928.500       -2255.234          23.000    25386295.125  
  20347651.789   109116863.668        -420.215          49.000    20347659.273  
  83951688.090        -327.391          36.000    20347660.602  
  21082155.258   108913944.816        2023.965          48.000    21082164.266  
  83861116.160        1577.129          35.000    21082165.172  
  22376454.375   117739518.438       -3345.273          47.000    22376462.742  
  92533127.684       -2606.715          33.000    22376464.242  
                                                        39.000                  
                                                                
  21570181.531   109178639.402       -1470.844          44.000    21570191.844  
  92416514.914       -1146.145          31.000    21570193.156  
  22291771.602   117128766.820        4299.145          38.000                  
                                                                
  20143854.836   109110937.523        -369.777          40.000    20143859.906  
  83945599.949        -287.590          44.000                  
  21495817.375   117289244.391        2394.281          44.000    21495820.773  
  92174745.188        1862.176          42.000                  
  23549392.508   125735367.336        1868.227          39.000                  
                                                                
  22087881.516   117524541.301        -713.320          42.000    22087887.273  
  92352309.449        -554.785          39.000                  
  21816347.000   117691267.688       -2685.328          42.000    21816347.930  
  92475966.016       -2088.570          41.000                  
                                                        43.000                  
                                                                
  37944773.312   201365122.766          -0.738          45.000                  
                                                                
  37471541.453   192979775.801          -5.316          44.000                  
                                                                
                                                        43.000                  
                                                                
 19  6 11 23 19 26.0000000  0 17G 2G 6G 5G29G12G21G25R 6R20R21R12R11
                                R 4S35S33S38S31
  22308815.188   117618222.219       -1776.293          44.000    22308821.117  
  92440865.277       -1384.125          32.000                  
  25386833.305   134302616.883       -2894.234          42.000    25386843.867  
 100906184.012       -2255.375          25.000    25386846.266  
  20347731.719   109117284.383        -420.125          49.000    20347739.328  
  83952015.918        -327.355          36.000    20347740.109  
  21081770.406   108911921.184        2024.328          48.000    21081779.203  
  83859539.297        1577.430          35.000    21081779.875  
  22377091.070   117742863.918       -3345.168          46.000    22377099.320  
  92535734.559       -2606.594          33.000    22377100.859  
                                                        41.000                  
                                                                
  21570461.305   109180110.684       -1470.828          44.000    21570471.820  
  92417661.352       -1146.004          31.000    21570473.188  
  22290966.203   117124467.844        4301.680          38.000                  
                                                                
  20143923.836   109111307.406        -369.086          40.000    20143929.234  
  83945887.625        -287.223          43.000                  
  21495369.961   117286850.121        2394.844          44.000    21495373.391  
  92172882.977        1862.902          42.000                  
  23549042.445   125733499.609        1867.793          40.000                  
                                                                
  22088015.391   117525254.910        -713.492          43.000    22088020.852  
  92352864.469        -554.938          41.000                  
  21816848.336   117693953.555       -2685.820          41.000    21816849.859  
  92478055.027       -2088.988          41.000                  
                                                        43.000                  
                                                                
  37944773.570   201365124.395          -0.359          43.000                  
                                                                
  37471542.406   192979780.887          -3.738          43.000                  
                                                                
                                                        43.000                  
                                                                
 19  6 11 23 19 27.0000000  0 16G 2G 5G29G12G21G25R 6R20R21R12R11R 4
                                S35S33S38S31
  22309153.422   117619998.906       -1776.312          44.000    22309159.297  
  92442249.719       -1384.109          32.000                  
  20347812.055   109117706.371        -421.699          49.000    20347819.586  
  83952344.750        -328.590          36.000    20347820.477  
  21081385.562   108909898.441        2023.328          48.000    21081394.281  
  83857963.121        1576.629          35.000    21081395.312  
  22377727.586   117746210.305       -3345.809          47.000    22377736.227  
  92538342.125       -2607.098          33.000    22377736.875  
                                                        41.000                  
                                                                
  21570741.570   109181583.184       -1471.957          44.000    21570752.039  
  92418808.746       -1146.945          32.000    21570753.180  
  22290160.773   117120169.691        4300.348          38.000                  
                                                                
  20143992.867   109111678.188        -370.414          40.000    20143998.414  
  83946176.020        -288.152          43.000                  
  21494922.766   117284456.504        2394.020          43.000    21494926.133  
  92171021.285        1862.234          42.000                  
  23548693.023   125731633.211        1866.594          40.000                  
                                                                
  22088149.430   117525969.961        -714.914          42.000    22088154.688  
  92353420.621        -556.008          41.000                  
  21817349.969   117696640.723       -2687.281          41.000    21817351.359  
  92480145.043       -2090.137          41.000                  
                                                        44.000                  
                                                                
  37944773.258   201365126.613          -2.645          44.000                  
                                                                
  37471543.281   192979786.676          -6.648          44.000                  
                                                                
                                                        43.000                  
                                                                
 19  6 11 23 19 28.0000000  0 16G 2G 5G29G12G21G25R 6R20R21R12R11R 4
                                S35S33S38S31
  22309491.664   117621775.652       -1774.738          44.000    22309497.406  
  92443634.195       -1382.887          32.000                  
  20347892.469   109118128.957        -421.121          49.000    20347900.047  
  83952674.043        -328.164          36.000    20347900.984  
  21081000.836   108907875.941        2024.109          48.000    21081009.359  
  83856387.168        1577.223          35.000    21081010.703  
  22378364.094   117749556.953       -3346.406          46.000    22378373.133  
  92540949.906       -2607.652          33.000    22378373.445  
                                                        41.000                  
                                        20.000                  
  21571021.852   109183056.262       -1471.547          44.000    21571032.352  
  92419956.605       -1146.730          31.000    21571033.555  
  22289355.664   117115871.699        4298.801          38.000                  
                                                                
  20144062.297   109112049.215        -369.199          40.000    20144067.680  
  83946464.609        -287.312          43.000                  
  21494475.320   117282062.961        2395.039          44.000    21494478.719  
  92169159.633        1862.961          42.000                  
  23548343.547   125729767.535        1867.098          40.000                  
                                                                
  22088283.469   117526685.773        -714.516          43.000    22088288.336  
  92353977.371        -555.727          41.000                  
  21817851.883   117699328.531       -2687.285          42.000    21817853.398  
  92482235.562       -2090.152          41.000                  
                                                        43.000                  
                                                                
  37944774.414   201365128.785          -4.602          44.000                  
                                                                
  37471546.031   192979792.574          -7.816          44.000                  
                                                                
                                                        44.000                  
                                                                
 19  6 11 23 19 29.0000000  0 19G 2G 5G29G12G21G25R 6R20R19R21R12R 5
                                R11R 4R10S35S33S38S31
  22309830.422   117623556.059       -1775.590          44.000    22309836.164  
  92445021.531       -1383.594          32.000                  
  20347973.648   109118555.773        -422.441          49.000    20347981.219  
  83953006.617        -329.121          36.000    20347982.086  
  21080616.695   108905857.293        2023.273          48.000    21080625.219  
  83854814.191        1576.609          35.000    21080625.859  
  22379001.898   117752907.445       -3345.922          47.000    22379010.742  
  92543560.688       -2607.223          33.000    22379011.617  
                                                        37.000                  
                                                                
  21571303.109   109184533.500       -1472.465          44.000    21571313.547  
  92421107.703       -1147.301          31.000    21571314.969  
  22288551.031   117111577.551        4298.707          37.000                  
                                                                
  20144132.352   109112424.176        -370.227          39.000    20144138.047  
  83946756.230        -287.926          43.000                  
                                                                  23132536.750  
  92454471.824       -2035.898          38.000                  
  21494028.695   117279673.180        2394.547          44.000    21494032.211  
  92167300.918        1862.391          44.000                  
  23547995.492   125727906.223        1865.914          40.000                  
                                                                
  20038049.992   108986439.680        1057.023          46.000    20038054.180  
  83849301.793         822.133          42.000                  
  22088418.180   117527406.000        -716.332          43.000    22088423.320  
  92354537.551        -557.121          39.000                  
  21818354.711   117702020.633       -2689.145          41.000    21818356.273  
  92484329.414       -2091.559          41.000                  
  22688417.562   117745215.930       -3717.723          42.000    22688427.133  
  92538806.328       -2891.512          36.000                  
                                                        44.000                  
                                                                
  37944775.766   201365134.520          -3.227          44.000                  
                                                                
  37471549.164   192979801.988          -7.332          44.000                  
                                                                
                                                        43.000                  
                                                                
 19  6 11 23 19 30.0000000  0 19G 2G 5G29G12G21G25R 6R20R19R21R12R 5
                                R11R 4R10S35S33S38S31
  22310168.773   117625332.535       -1776.461          44.000    22310174.227  
  92446405.789       -1384.281          31.000                  
  20348054.164   109118979.184        -423.773          49.000    20348061.695  
  83953336.547        -330.230          36.000    20348062.672  
  21080231.781   108903834.895        2022.305          48.000    21080240.328  
  83853238.289        1575.844          35.000    21080241.266  
  22379638.977   117756254.199       -3346.637          46.000    22379647.680  
  92546168.539       -2607.754          33.000    22379648.664  
                                                        41.000                  
                                                                
  21571583.625   109186007.301       -1474.117          44.000    21571594.070  
  92422256.141       -1148.641          32.000    21571594.695  
  22287745.219   117107279.520        4297.859          38.000                  
                                                                
  20144201.820   109112795.301        -371.316          40.000    20144207.391  
  83947044.871        -288.668          43.000                  
                                                                  23133026.070  
  92456507.789       -2035.969          38.000                  
  21493581.273   117277279.383        2393.738          43.000    21493584.797  
  92165439.055        1862.316          42.000                  
  23547646.367   125726041.492        1864.633          40.000                  
                                                                
  20037852.320   108985383.742        1055.578          46.000    20037856.406  
  83848480.512         821.008          43.000                  
  22088552.398   117528122.977        -717.512          43.000    22088557.328  
  92355095.191        -558.016          41.000                  
  21818856.680   117704709.262       -2689.332          41.000    21818858.430  
  92486420.578       -2091.828          41.000                  
  22689114.805   117748933.660       -3717.992          42.000    22689124.281  
  92541697.902       -2891.766          35.000                  
                                                        43.000                  
                                                                
  37944776.438   201365136.203          -5.723          44.000                  
                                                                
  37471550.305   192979807.375          -8.172          44.000                  
                                                                
                                                        43.000                  
                                                                
 19  6 11 23 19 31.0000000  0 20G 2G 5G15G29G12G21G25R 6R20R19R21R12
                                R 5R11R 4R10S35S33S38S31
  22310506.375   117627108.469       -1776.348          44.000    22310512.117  
  92447789.645       -1384.168          32.000                  
  20348134.883   109119402.602        -424.043          49.000    20348142.266  
  83953666.488        -330.445          36.000    20348143.703  
                              2                         37.000                  
                                                                
  21079846.945   108901812.102        2022.199          48.000    21079855.383  
  83851662.094        1575.746          35.000    21079856.039  
  22380275.695   117759600.609       -3347.145          47.000    22380284.516  
  92548776.133       -2608.168          33.000    22380285.625  
                                                        40.000                  
                                                                
  21571863.938   109187481.047       -1474.652          44.000    21571874.594  
  92423404.516       -1149.070          31.000    21571875.562  
  22286939.266   117102981.039        4298.453          38.000                  
                                                                
  20144271.102   109113165.977        -371.480          40.000    20144276.609  
  83947333.207        -288.727          43.000                  
                                                                  23133515.555  
  92458543.375       -2036.055          38.000                  
  21493133.797   117274884.992        2393.820          43.000    21493137.367  
  92163576.777        1861.922          42.000                  
  23547297.672   125724176.840        1863.516          40.000                  
                                                                
  20037654.945   108984328.035        1054.570          46.000    20037659.000  
  83847659.406         820.223          43.000                  
  22088686.453   117528840.070        -717.777          43.000    22088691.406  
  92355652.914        -558.277          41.000                  
  21819358.578   117707397.934       -2689.594          41.000    21819360.695  
  92488511.750       -2091.910          41.000                  
  22689812.312   117752650.984       -3718.355          42.000    22689821.680  
  92544589.152       -2892.090          36.000                  
                                                        43.000                  
                                                                
  37944776.359   201365137.285          -1.508          44.000                  
                                                                
  37471551.906   192979812.031          -5.250          44.000                  
                                                                
                                                        44.000                  
                                                                
 19  6 11 23 19 32.0000000  0 20G 2G 5G15G29G12G21G25R 6R20R19R21R12
                                R 5R11R 4R10S35S33S38S31
  22310844.961   117628887.305       -1776.324          44.000    22310850.688  
  92449175.734       -1384.188          31.000                  
  20348216.039   109119829.484        -424.723          49.000    20348223.547  
  83953999.121        -330.965          36.000    20348224.617  
                                                        37.000                  
                                                                
  21079462.367   108899792.426        2021.930          48.000    21079471.062  
  83850088.320        1575.551          34.000    21079471.461  
  22380913.203   117762950.109       -3346.980          47.000    22380921.930  
  92551386.125       -2607.996          33.000    22380922.844  
                                                        40.000                  
                                                                
  21572144.945   109188958.242       -1475.281          43.000    21572155.734  
  92424555.570       -1149.547          31.000    21572156.844  
  22286134.695   117098685.633        4297.723          37.000                  
                                                                
  20144340.992   109113539.867        -371.750          39.000    20144346.383  
  83947623.996        -288.855          43.000                  
                                                                  23134005.336  
  92460581.293       -2035.867          38.000                  
  21492686.875   117272493.547        2393.953          44.000    21492690.398  
  92161716.762        1861.758          42.000                  
  23546949.281   125722315.793        1862.973          40.000                  
                                                                
  20037458.258   108983276.043        1054.199          46.000    20037462.258  
  83846841.184         819.934          43.000                  
  22088821.633   117529560.883        -718.961          43.000    22088825.969  
  92356213.559        -559.199          41.000                  
  21819861.195   117710090.168       -2690.590          41.000    21819863.445  
  92490605.707       -2092.680          41.000                  
  22690509.977   117756371.457       -3717.941          42.000    22690519.922  
  92547482.840       -2891.664          36.000                  
                                                        43.000                  
                                                                
  37944777.336   201365141.160          -0.301          44.000                  
                                                                
  37471553.492   192979819.266          -3.883          44.000                  
                                                                
                                                        44.000                  
                                                                
 19  6 11 23 19 33.0000000  0 20G 2G 5G15G29G12G21G25R 6R20R19R21R12
                                R 5R11R 4R10S35S33S38S31
  22311182.367   117630661.332       -1776.684          44.000    22311188.305  
  92450558.113       -1384.484          30.000                  
  20348295.938   109120252.090        -425.242          49.000    20348303.953  
  83954328.430        -331.391          35.000    20348305.141  
                                                        36.000                  
                                                                
  21079076.805   108897768.113        2021.746          48.000    21079085.789  
  83848510.934        1575.359          33.000    21079086.141  
  22381549.781   117766295.008       -3347.395          47.000    22381558.438  
  92553992.539       -2608.359          32.000    22381558.945  
                                                        40.000                  
                                                                
  21572425.094   109190431.090       -1475.406          43.000    21572435.969  
  92425703.242       -1149.676          30.000    21572437.016  
  22285328.500   117094385.461        4297.672          37.000                  
                                                                
  20144409.562   109113908.996        -371.996          39.000    20144415.320  
  83947911.102        -289.254          43.000                  
                                                                  23134494.023  
  92462615.410       -2036.102          38.000                  
  21492238.844   117270097.168        2393.688          43.000    21492242.883  
  92159852.914        1861.836          41.000                  
  23546599.742   125720450.484        1862.215          40.000                  
                                                                
  20037260.688   108982219.957        1053.094          46.000    20037264.570  
  83846019.789         819.078          43.000                  
  22088955.336   117530277.465        -719.625          42.000    22088960.055  
  92356770.902        -559.738          40.000                  
  21820363.266   117712778.078       -2690.836          41.000    21820365.586  
  92492696.312       -2092.871          41.000                  
  22691206.828   117760087.211       -3718.461          40.000    22691216.555  
  92550372.863       -2892.145          35.000                  
                                                        44.000                  
                                                                
  37944777.492   201365140.055          -1.238          43.000                  
                                                                
  37471554.844   192979821.418          -4.910          44.000                  
                                                                
                                                        43.000                  
                                                                
 19  6 11 23 19 34.0000000  0 20G 2G 5G15G29G12G21G25R 6R20R19R21R12
                                R 5R11R 4R10S35S33S38S31
  22311520.688   117632438.230       -1776.316          44.000    22311526.414  
  92451942.688       -1384.145          32.000                  
  20348377.438   109120678.113        -426.262          49.000    20348385.016  
  83954660.391        -332.105          36.000    20348386.398  
                                                        37.000                  
                                                                
  21078692.500   108895746.855        2021.047          48.000    21078701.156  
  83846935.926        1574.828          34.000    21078701.961  
  22382186.914   117769642.949       -3347.926          47.000    22382195.438  
  92556601.312       -2608.770          33.000    22382196.703  
                                                        40.000                  
              1                         20.000                  
  21572706.266   109191907.340       -1476.566          43.000    21572716.859  
  92426853.570       -1150.598          31.000    21572717.570  
  22284523.234   117090088.277        4297.102          38.000                  
                                                                
  20144479.555   109114281.234        -372.398          40.000    20144485.000  
  83948200.621        -289.684          43.000                  
                                                                  23134983.148  
  92464651.812       -2036.371          38.000                  
  21491791.758   117267703.719        2393.184          43.000    21491795.656  
  92157991.336        1861.582          42.000                  
  23546251.602   125718588.715        1860.203          41.000                  
                                                                
  20037063.891   108981167.582        1051.836          46.000    20037067.867  
  83845201.266         818.098          43.000                  
  22089090.180   117530997.695        -720.871          43.000    22089094.977  
  92357331.074        -560.715          41.000                  
  21820866.125   117715469.441       -2691.160          41.000    21820867.984  
  92494789.578       -2093.129          41.000                  
  22691904.602   117763806.039       -3717.629          41.000    22691914.227  
  92553265.273       -2891.379          36.000                  
                                                        43.000                  
                                                                
  37944778.016   201365141.766           2.043          44.000                  
                                                                
  37471556.500   192979826.527          -1.457          44.000                  
                                                                
                                                        44.000                  
                                                                
 19  6 11 23 19 35.0000000  0 20G 2G 5G15G29G12G21G25R 6R20R19R21R12
                                R 5R11R 4R10S35S33S38S31
  22311858.961   117634215.719       -1777.648          44.000    22311864.562  
  92453327.746       -1385.172          31.000                  
  20348458.750   109121105.273        -427.152          49.000    20348466.328  
  83954993.250        -332.840          36.000    20348467.445  
                                                        36.000                  
                                                                
  21078308.117   108893726.367        2020.406          47.000    21078316.688  
  83845361.523        1574.309          34.000    21078317.484  
  22382823.883   117772991.684       -3348.672          47.000    22382832.766  
  92559210.715       -2609.332          33.000    22382833.609  
                                                        40.000                  
                                        20.000                  
  21572987.336   109193384.660       -1477.156          44.000    21572997.992  
  92428004.715       -1151.008          31.000    21572998.898  
  22283718.328   117085791.805        4298.715          38.000                  
                                                                
  20144549.453   109114654.254        -372.918          39.000    20144554.609  
  83948490.746        -290.012          43.000                  
                                                                  23135473.117  
  92466688.793       -2038.406          39.000                  
  21491344.414   117265310.891        2392.898          43.000    21491348.609  
  92156130.270        1860.938          42.000                  
  23545903.359   125716728.191        1860.738          41.000                  
                                                                
  20036867.258   108980116.574        1050.613          46.000    20036871.281  
  83844383.828         817.145          43.000                  
  22089225.156   117531719.234        -721.812          43.000    22089229.773  
  92357892.277        -561.430          40.000                  
  21821368.867   117718161.949       -2692.848          42.000    21821371.258  
  92496883.766       -2094.449          41.000                  
  22692602.055   117767525.578       -3720.168          41.000    22692611.367  
  92556158.254       -2893.508          36.000                  
                                                        43.000                  
                                                                
  37944778.453   201365143.930          -3.570          44.000                  
                                                                
  37471558.609   192979832.309          -7.570          44.000                  
                                                                
                                                        43.000                  
                                                                
 19  6 11 23 19 36.0000000  0 20G 2G 5G15G29G12G21G25R 6R20R19R21R12
                                R 5R11R 4R10S35S33S38S31
  22312196.852   117635992.195       -1777.402          44.000    22312202.688  
  92454712.020       -1384.969          32.000                  
  20348539.992   109121531.973        -427.707          49.000    20348547.508  
  83955325.730        -333.316          36.000    20348548.531  
                                                        37.000                  
                                                                
  21077923.484   108891705.059        2020.555          47.000    21077932.086  
  83843786.469        1574.465          34.000    21077933.008  
  22383461.109   117776339.609       -3348.512          47.000    22383469.883  
  92561819.484       -2609.188          33.000    22383471.188  
                                                        41.000                  
                                        20.000                  
  21573268.594   109194861.492       -1477.812          44.000    21573278.984  
  92429155.500       -1151.574          31.000    21573280.266  
  22282912.789   117081494.406        4295.004          39.000                  
                                                                
  20144619.398   109115026.449        -373.863          39.000    20144624.336  
  83948780.223        -290.156          44.000                  
                                                                  23135962.383  
  92468724.863       -2037.129          38.000                  
  21490897.047   117262917.012        2392.965          43.000    21490901.070  
  92154268.355        1861.488          42.000                  
  23545554.938   125714867.281        1859.418          40.000                  
                                                                
  20036670.586   108979065.336        1049.996          46.000    20036674.609  
  83843566.199         816.672          43.000                  
  22089360.016   117532440.523        -722.512          43.000    22089365.008  
  92358453.277        -561.934          40.000                  
  21821871.742   117720853.980       -2692.805          41.000    21821873.773  
  92498977.562       -2094.383          41.000                  
  22693299.711   117771244.297       -3717.184          41.000    22693309.438  
  92559050.582       -2891.035          36.000                  
                                                        43.000                  
                                                                
  37944779.812   201365145.008          -2.113          44.000                  
                                                                
  37471559.930   192979837.117          -6.430          44.000                  
                                                                
                                                        44.000                  
                                                                
 19  6 11 23 19 37.0000000  0 20G 2G 5G15G29G12G21G25R 6R20R19R21R12
                                R 5R11R 4R10S35S33S38S31
  22312535.266   117637769.613       -1777.148          45.000    22312540.852  
  92456097.023       -1384.793          32.000                  
  20348621.547   109121960.172        -428.258          49.000    20348629.023  
  83955659.387        -333.703          36.000    20348630.328  
                                                        36.000                  
                                                                
  21077539.141   108889684.883        2020.586          47.000    21077547.609  
  83842212.312        1574.508          34.000    21077549.008  
  22384098.766   117779688.648       -3348.793          47.000    22384107.211  
  92564429.137       -2609.477          33.000    22384107.898  
                                                        40.000                  
                                        20.000                  
  21573550.266   109196339.781       -1478.605          44.000    21573560.305  
  92430307.406       -1152.160          31.000    21573561.016  
  22282107.812   117077198.090        4297.000          38.000                  
                                                                
  20144688.961   109115399.797        -373.367          39.000    20144694.305  
  83949070.586        -289.891          43.000                  
                                                                  23136452.375  
  92470761.766       -2036.562          39.000                  
  21490449.930   117260524.066        2393.043          43.000    21490453.727  
  92152407.168        1861.328          42.000                  
  23545206.742   125713007.953        1858.918          40.000                  
                                                                
  20036474.344   108978015.852        1049.219          46.000    20036478.352  
  83842749.922         816.102          43.000                  
  22089495.383   117533163.469        -723.023          42.000    22089500.266  
  92359015.555        -562.328          40.000                  
  21822374.531   117723547.598       -2693.945          42.000    21822376.773  
  92501072.590       -2095.277          42.000                  
  22693997.703   117774964.105       -3719.547          41.000    22694007.031  
  92561943.762       -2892.945          35.000                  
                                                        44.000                  
                                                                
  37944780.203   201365146.961           0.324          44.000                  
                                                                
  37471561.242   192979842.758          -3.051          44.000                  
                                                                
                                                        43.000                  
                                                                
 19  6 11 23 19 38.0000000  0 20G 2G 5G15G29G12G21G25R 6R20R19R21R12
                                R 5R11R 4R10S35S33S38S31
  22312873.688   117639547.492       -1777.051          44.000    22312879.172  
  92457482.391       -1384.688          32.000                  
  20348703.266   109122389.363        -428.688          49.000    20348710.641  
  83955993.824        -334.031          36.000    20348711.844  
                                                        36.000                  
                                                                
  21077154.625   108887665.355        2020.215          47.000    21077163.312  
  83840638.664        1574.258          34.000    21077163.789  
  22384736.070   117783038.340       -3348.941          47.000    22384744.656  
  92567039.305       -2609.508          32.000    22384745.047  
                                                        40.000                  
                                                                
  21573831.695   109197819.000       -1478.746          44.000    21573841.828  
  92431460.043       -1152.262          32.000    21573842.836  
  22281302.062   117072902.418        4296.496          37.000                  
                                                                
  20144759.047   109115773.805        -373.406          39.000    20144764.117  
  83949361.477        -290.328          43.000                  
                                                                  23136942.148  
  92472799.090       -2037.023          38.000                  
  21490002.766   117258131.562        2392.875          43.000    21490006.648  
  92150546.309        1861.770          41.000                  
  23544858.789   125711149.703        1858.840          40.000                  
                                                                
  20036278.320   108976967.586        1048.613          45.000    20036282.195  
  83841934.598         815.660          42.000                  
  22089630.461   117533887.547        -723.508          42.000    22089635.688  
  92359578.727        -562.672          39.000                  
  21822877.844   117726242.262       -2694.574          42.000    21822879.992  
  92503168.449       -2095.746          41.000                  
  22694695.773   117778684.543       -3721.855          41.000    22694705.000  
  92564837.438       -2894.945          35.000                  
                                                        44.000                  
                                                                
  37944780.859   201365149.219          -1.910          44.000                  
                                                                
  37471562.797   192979848.625          -5.414          44.000                  
                                                                
                                                        44.000                  
                                                                
 19  6 11 23 19 39.0000000  0 20G 2G 5G15G29G12G21G25R 6R20R19R21R12
                                R 5R11R 4R10S35S33S38S31
  22313212.070   117641324.957       -1776.527          44.000    22313217.383  
  92458867.430       -1384.328          32.000                  
  20348784.719   109122818.672        -428.504          49.000    20348792.336  
  83956328.355        -333.906          36.000    20348793.461  
                                                        36.000                  
                                                                
  21076770.320   108885645.578        2020.930          47.000    21076778.969  
  83839064.805        1574.785          34.000    21076779.367  
  22385373.242   117786387.828       -3348.715          47.000    22385382.055  
  92569649.285       -2609.344          32.000    22385382.578  
                                                        40.000                  
                                                                
  21574112.641   109199298.309       -1478.172          44.000    21574123.328  
  92432612.750       -1151.773          31.000    21574123.781  
  22280497.367   117068606.438        4298.191          38.000                  
                                                                
  20144829.141   109116147.531        -372.625          40.000    20144833.867  
  83949652.172        -289.730          43.000                  
                                                                  23137431.398  
  92474836.125       -2037.230          39.000                  
  21489555.523   117255738.621        2394.230          43.000    21489559.500  
  92148685.141        1862.488          42.000                  
  23544510.852   125709291.664        1857.535          41.000                  
                                                                
  20036082.234   108975919.664        1048.766          46.000    20036086.031  
  83841119.559         815.711          43.000                  
  22089766.289   117534611.883        -723.312          42.000    22089771.242  
  92360142.098        -562.582          40.000                  
  21823381.133   117728937.082       -2693.707          42.000    21823383.352  
  92505264.422       -2095.133          42.000                  
  22695393.633   117782404.727       -3719.230          42.000    22695403.539  
  92567730.906       -2892.758          35.000                  
                                                        44.000                  
                                                                
  37944781.305   201365150.941          -2.426          44.000                  
                                                                
  37471564.227   192979853.773          -6.230          44.000                  
                                                                
                                                        44.000                  
                                                                
 19  6 11 23 19 40.0000000  0 20G 2G 5G15G29G12G21G25R 6R20R19R21R12
                                R 5R11R 4R10S35S33S38S31
  22313550.547   117643101.375       -1777.504          44.000    22313555.414  
  92460251.648       -1385.094          33.000                  
  20348866.297   109123247.496        -430.160          49.000    20348873.953  
  83956662.504        -335.168          36.000    20348875.008  
                                                        36.000                  
                                                                
  21076385.734   108883624.949        2019.348          47.000    21076394.383  
  83837490.289        1573.516          34.000    21076395.469  
  22386010.289   117789736.438       -3349.812          47.000    22386019.273  
  92572258.566       -2610.227          33.000    22386020.375  
                                                        41.000                  
              1                         20.000                  
  21574394.000   109200777.094       -1480.078          44.000    21574404.672  
  92433765.047       -1153.250          32.000    21574405.453  
  22279692.523   117064309.500        4295.793          38.000                  
                                                                
  20144898.680   109116520.402        -374.422          39.000    20144903.711  
  83949942.184        -291.172          43.000                  
                                                                  23137920.352  
  92476872.367       -2036.770          39.000                  
  21489108.281   117253344.629        2391.684          44.000    21489112.172  
  92146823.176        1861.113          42.000                  
  23544162.922   125707433.211        1856.270          41.000                  
                                                                
  20035886.203   108974871.492        1046.480          46.000    20035890.203  
  83840304.312         813.941          43.000                  
  22089901.812   117535335.902        -725.566          42.000    22089906.859  
  92360705.230        -564.336          40.000                  
  21823884.633   117731631.430       -2695.660          42.000    21823886.672  
  92507360.012       -2096.586          41.000                  
  22696091.500   117786124.020       -3720.430          42.000    22696100.406  
  92570623.684       -2893.676          35.000                  
                                                        44.000                  
                                                                
  37944781.609   201365151.531          -0.762          44.000                  
                                                                
  37471565.633   192979857.793          -4.379          44.000                  
                                                                
                                                        44.000                  
                                                                
 19  6 11 23 19 41.0000000  0 20G 2G 5G15G29G12G21G25R 6R20R19R21R12
                                R 5R11R 4R10S35S33S38S31
  22313888.273   117644878.273       -1777.527          44.000    22313893.570  
  92461636.246       -1385.098          32.000                  
  20348948.109   109123677.352        -430.652          49.000    20348955.773  
  83956997.449        -335.539          36.000    20348956.789  
                                                        36.000                  
                                                                
  21076001.445   108881604.965        2019.547          47.000    21076010.039  
  83835916.277        1573.672          34.000    21076011.102  
  22386647.719   117793085.730       -3350.039          47.000    22386656.680  
  92574868.426       -2610.500          32.000    22386657.164  
                                                        41.000                  
                                                                
  21574676.141   109202256.840       -1480.328          44.000    21574686.180  
  92434918.102       -1153.484          31.000    21574687.195  
  22278887.945   117060013.227        4295.273          38.000                  
                                                                
  20144968.406   109116893.934        -374.023          39.000    20144973.492  
  83950232.715        -291.176          43.000                  
                                                                  23138410.047  
  92478909.008       -2036.918          39.000                  
  21488661.070   117250951.137        2392.547          44.000    21488665.117  
  92144961.555        1861.055          42.000                  
  23543815.312   125705575.879        1856.395          40.000                  
                                                                
  20035690.117   108973824.629        1045.715          46.000    20035694.344  
  83839490.086         813.355          43.000                  
  22090037.430   117536061.148        -726.152          42.000    22090042.672  
  92361269.305        -564.746          40.000                  
  21824387.828   117734326.785       -2696.184          42.000    21824389.859  
  92509456.406       -2097.039          42.000                  
  22696789.312   117789843.973       -3719.789          42.000    22696799.055  
  92573516.977       -2893.102          35.000                  
                                                        43.000                  
                                                                
  37944782.086   201365152.430          -0.812          44.000                  
                                                                
  37471567.359   192979862.227          -4.426          44.000                  
                                                                
                                                        44.000                  
                                                                
 19  6 11 23 19 42.0000000  0 20G 2G 5G15G29G12G21G25R 6R20R19R21R12
                                R 5R11R 4R10S35S33S38S31
  22314226.305   117646656.117       -1776.184          44.000    22314231.859  
  92463021.566       -1384.012          32.000                  
  20349030.406   109124108.695        -430.074          49.000    20349037.930  
  83957333.570        -335.125          36.000    20349038.852  
                                                        37.000                  
                                                                
  21075617.117   108879586.141        2020.238          48.000    21075625.852  
  83834343.164        1574.180          35.000    21075626.281  
  22387285.219   117796436.160       -3348.988          47.000    22387294.273  
  92577479.137       -2609.613          33.000    22387294.883  
                                                        41.000                  
                                                                
  21574957.758   109203738.055       -1479.820          44.000    21574968.109  
  92436072.285       -1153.051          32.000    21574969.414  
  22278083.164   117055718.031        4296.484          38.000                  
                                                                
  20145038.422   109117268.625        -373.258          39.000    20145043.648  
  83950524.141        -290.238          43.000                  
                                                                  23138899.594  
  92480946.457       -2036.434          38.000                  
  21488213.984   117248558.562        2393.984          44.000    21488217.648  
  92143100.664        1862.250          42.000                  
  23543467.758   125703720.113        1855.430          41.000                  
                                                                
  20035494.898   108972779.492        1046.258          46.000    20035498.992  
  83838677.203         813.758          43.000                  
  22090173.641   117536788.082        -726.371          43.000    22090178.414  
  92361834.703        -564.984          40.000                  
  21824891.398   117737023.641       -2696.867          42.000    21824893.617  
  92511553.969       -2097.723          42.000                  
  22697487.570   117793565.039       -3719.695          42.000    22697497.508  
  92576411.141       -2893.059          36.000                  
                                                        44.000                  
                                                                
  37944781.898   201365154.098          -2.160          44.000                  
                                                                
  37471568.969   192979867.582          -5.762          44.000                  
                                                                
                                                        44.000                  
                                                                
 19  6 11 23 19 43.0000000  0 20G 2G 5G15G29G12G21G25R 6R20R19R21R12
                                R 5R11R 4R10S35S33S38S31
  22314564.422   117648432.254       -1777.980          44.000    22314569.891  
  92464405.586       -1385.504          32.000                  
  20349112.164   109124538.879        -432.145          49.000    20349119.773  
  83957668.770        -336.734          36.000    20349120.758  
                                                        36.000                  
                                                                
  21075232.805   108877565.766        2018.695          47.000    21075241.453  
  83832768.848        1573.012          34.000    21075242.625  
  22387922.773   117799785.070       -3350.625          47.000    22387931.547  
  92580088.684       -2610.844          32.000    22387931.828  
                                                        41.000                  
                                                                
  21575239.336   109205218.055       -1481.914          44.000    21575249.695  
  92437225.531       -1154.754          31.000    21575250.297  
  22277277.758   117051421.219        4295.141          38.000                  
                                                                
  20145107.859   109117641.754        -375.023          39.000    20145113.172  
  83950814.355        -291.734          44.000                  
                                                                  23139388.516  
  92482982.527       -2037.176          39.000                  
  21487766.758   117246164.227        2392.504          43.000    21487770.234  
  92141238.406        1861.094          42.000                  
  23543120.383   125701863.250        1854.848          41.000                  
                                                                
  20035299.039   108971733.383        1043.895          46.000    20035302.938  
  83837863.570         811.895          43.000                  
  22090309.453   117537513.941        -727.953          43.000    22090314.180  
  92362399.270        -566.195          40.000                  
  21825394.703   117739719.324       -2697.566          42.000    21825396.969  
  92513650.617       -2098.145          42.000                  
  22698185.406   117797284.520       -3721.516          41.000    22698194.758  
  92579304.070       -2894.508          36.000                  
                                                        44.000                  
                                                                
  37944782.320   201365153.973          -3.070          44.000                  
                                                                
  37471570.148   192979871.168          -7.031          45.000                  
                                                                
                                                        44.000                  
                                                                
 19  6 11 23 19 44.0000000  0 20G 2G 5G15G29G12G21G25R 6R20R19R21R12
                                R 5R11R 4R10S35S33S38S31
  22314902.570   117650210.102       -1777.348          44.000    22314908.219  
  92465790.910       -1384.949          33.000                  
  20349194.344   109124971.309        -432.113          49.000    20349202.078  
  83958005.723        -336.676          36.000    20349203.391  
                                                        36.000                  
                                                                
  21074848.781   108875547.293        2018.719          48.000    21074857.344  
  83831196.008        1573.031          34.000    21074858.359  
  22388560.445   117803135.879       -3350.254          47.000    22388569.125  
  92582699.688       -2610.527          33.000    22388569.578  
                                                        41.000                  
                                                                
  21575521.125   109206700.273       -1481.973          44.000    21575531.820  
  92438380.500       -1154.773          31.000    21575532.492  
  22276472.367   117047126.289        4293.043          38.000                  
                                                                
  20145178.086   109118016.820        -374.902          39.000    20145183.383  
  83951106.062        -291.555          43.000                  
                                                                  23139878.727  
  92485019.996       -2037.098          38.000                  
  21487319.930   117243771.641        2392.984          44.000    21487323.211  
  92139377.508        1861.727          42.000                  
  23542773.141   125700008.770        1854.637          40.000                  
                                                                
  20035103.984   108970689.820        1043.590          46.000    20035107.953  
  83837051.902         811.723          43.000                  
  22090445.836   117538242.227        -728.312          42.000    22090450.781  
  92362965.699        -566.449          40.000                  
  21825898.617   117742417.340       -2698.188          42.000    21825900.844  
  92515749.059       -2098.590          42.000                  
  22698883.430   117801005.934       -3721.129          42.000    22698893.117  
  92582198.488       -2894.188          35.000                  
                                                        43.000                  
                                                                
  37944782.797   201365155.477           3.477          44.000                  
                                                                
  37471571.703   192979876.277          -0.223          44.000                  
                                                                
                                                        44.000                  
                                                                
 19  6 11 23 19 45.0000000  0 20G 2G 5G15G29G12G21G25R 6R20R19R21R12
                                R 5R11R 4R10S35S33S38S31
  22315240.586   117651987.637       -1778.078          44.000    22315246.445  
  92467176.004       -1385.504          32.000                  
  20349276.703   109125403.965        -433.500          49.000    20349284.352  
  83958342.867        -337.801          36.000    20349285.766  
                        -0.5001                         36.000                  
                                                                
  21074464.500   108873528.672        2017.828          48.000    21074473.180  
  83829623.070        1572.297          34.000    21074474.156  
  22389197.867   117806486.562       -3351.191          47.000    22389206.719  
  92585310.621       -2611.328          33.000    22389207.969  
                                                        41.000                  
                                                                
  21575803.328   109208182.648       -1483.270          44.000    21575813.891  
  92439535.609       -1155.820          32.000    21575814.961  
  22275667.789   117042831.098        4294.512          38.000                  
                                                                
  20145248.211   109118391.715        -375.348          39.000    20145253.438  
  83951397.656        -292.250          43.000                  
                                                                  23140368.195  
  92487057.219       -2037.238          39.000                  
  21486872.789   117241378.727        2392.184          44.000    21486875.938  
  92137516.355        1860.691          42.000                  
  23542425.703   125698154.582        1853.535          40.000                  
                                                                
  20034908.562   108969646.738        1042.211          46.000    20034912.742  
  83836240.625         810.621          43.000                  
  22090581.969   117538970.914        -730.000          43.000    22090586.836  
  92363532.469        -567.781          40.000                  
  21826402.586   117745115.594       -2699.199          42.000    21826404.602  
  92517847.703       -2099.379          42.000                  
  22699581.359   117804727.148       -3721.730          42.000    22699590.773  
  92585092.777       -2894.699          35.000                  
                                                        44.000                  
                                                                
  37944783.266   201365156.605          -6.098          44.000                  
                                                                
  37471572.734   192979880.863          -9.633          44.000                  
                                                                
                                                        43.000                  
                                                                
 19  6 11 23 19 46.0000000  0 20G 2G 5G15G29G12G21G25R 6R20R19R21R12
                                R 5R11R 4R10S35S33S38S31
  22315579.117   117653766.434       -1776.891          43.000    22315584.922  
  92468562.074       -1384.566          32.000                  
  20349359.305   109125838.414        -432.754          49.000    20349367.047  
  83958681.406        -337.258          36.000    20349367.836  
                        -0.500                          36.000                  
                                                                
  21074080.828   108871511.504        2019.152          48.000    21074089.273  
  83828051.227        1573.363          35.000    21074090.195  
  22389835.594   117809838.684       -3350.938          47.000    22389844.680  
  92587922.648       -2611.234          33.000    22389845.000  
                                                        40.000                  
                                                                
  21576085.586   109209666.816       -1482.656          44.000    21576096.406  
  92440692.117       -1155.320          31.000    21576097.766  
  22274863.000   117038537.348        4295.109          38.000                  
                                                                
  20145319.000   109118768.078        -374.375          39.000    20145323.984  
  83951690.379        -291.191          43.000                  
                                                                  23140858.234  
  92489095.516       -2037.301          38.000                  
  21486425.930   117238987.082        2393.734          43.000    21486429.211  
  92135656.180        1861.832          42.000                  
  23542079.109   125696302.309        1853.504          41.000                  
                                                                
  20034713.938   108968605.730        1042.699          46.000    20034718.047  
  83835430.941         810.965          43.000                  
  22090718.828   117539701.652        -728.801          43.000    22090723.727  
  92364100.809        -566.875          42.000                  
  21826907.000   117747815.688       -2699.211          42.000    21826908.938  
  92519947.773       -2099.414          42.000                  
  22700279.758   117808449.820       -3720.824          42.000    22700289.141  
  92587988.203       -2893.949          35.000                  
                                                        43.000                  
                                                                
  37944783.789   201365158.867          -0.590          43.000                  
                                                                
  37471574.562   192979886.527          -3.977          44.000                  
                                                                
                                                        43.000                  
                                                                
 19  6 11 23 19 47.0000000  0 20G 2G 5G15G29G12G21G25R 6R20R19R21R12
                                R 5R11R 4R10S35S33S38S31
  22315917.664   117655545.316       -1778.352          44.000    22315923.422  
  92469948.215       -1385.738          32.000                  
  20349441.961   109126273.531        -434.793          49.000    20349449.844  
  83959020.461        -338.820          36.000    20349450.750  
                        -0.500                          38.000                  
                                                                
  21073696.828   108869494.617        2017.336          48.000    21073705.383  
  83826479.629        1571.965          35.000    21073706.648  
  22390473.859   117813191.117       -3351.859          46.000    22390482.578  
  92590534.934       -2611.824          33.000    22390483.281  
                                                        41.000                  
                                                                
  21576368.414   109211151.574       -1485.941          44.000    21576378.945  
  92441849.059       -1157.945          31.000    21576379.695  
  22274058.305   117034243.758        4294.520          39.000                  
                                                                
  20145389.328   109119144.730        -376.191          40.000    20145394.312  
  83951983.332        -292.410          43.000                  
                                                                  23141348.062  
  92491133.891       -2038.004          37.000                  
  21485979.062   117236595.500        2392.281          44.000    21485982.203  
  92133796.078        1860.660          42.000                  
  23541732.406   125694450.770        1851.621          41.000                  
                                                                
  20034519.289   108967565.586        1040.438          46.000    20034523.312  
  83834621.953         809.234          43.000                  
  22090855.938   117540433.219        -730.930          43.000    22090860.539  
  92364669.816        -568.496          41.000                  
  21827411.406   117750516.445       -2700.281          42.000    21827413.242  
  92522048.363       -2100.195          42.000                  
  22700978.312   117812172.750       -3721.879          42.000    22700987.781  
  92590883.812       -2894.820          35.000                  
                                                        43.000                  
                                                                
  37944784.117   201365161.082          -1.152          44.000                  
                                                                
  37471576.117   192979892.277          -5.254          44.000                  
                                                                
                                                        44.000                  
                                                                
 19  6 11 23 19 48.0000000  0 20G 2G 5G15G29G12G21G25R 6R20R19R21R12
                                R 5R11R 4R10S35S33S38S31
  22316256.102   117657323.379       -1776.844          43.000    22316261.961  
  92471333.719       -1384.570          30.000                  
  20349524.578   109126708.352        -434.105          49.000    20349532.516  
  83959359.277        -338.250          35.000    20349533.648  
                        -0.500                          37.000                  
                                                                
  21073312.500   108867477.074        2018.504          48.000    21073321.484  
  83824907.531        1572.863          34.000    21073322.695  
  22391111.602   117816542.891       -3350.898          46.000    22391120.500  
  92593146.707       -2611.148          32.000    22391121.164  
                                                        39.000                  
                                                                
  21576650.711   109212636.004       -1483.754          44.000    21576661.578  
  92443005.750       -1156.223          29.000    21576662.367  
  22273253.703   117029949.504        4294.863          39.000                  
                                                                
  20145459.750   109119520.723        -373.270          40.000    20145464.578  
  83952275.750        -291.535          43.000                  
                                                                  23141837.828  
  92493171.645       -2037.137          38.000                  
  21485531.820   117234203.105        2393.113          44.000    21485535.086  
  92131935.316        1861.527          42.000                  
  23541386.039   125692599.008        1852.016          41.000                  
                                                                
  20034324.547   108966525.379        1040.773          46.000    20034328.742  
  83833812.902         809.500          43.000                  
  22090992.867   117541164.637        -730.684          43.000    22090997.797  
  92365238.695        -568.320          42.000                  
  21827915.609   117753216.941       -2699.883          42.000    21827917.430  
  92524148.746       -2099.895          42.000                  
  22701676.469   117815895.020       -3722.027          42.000    22701686.055  
  92593778.918       -2894.914          35.000                  
                                                        43.000                  
                                                                
  37944783.984   201365162.422          -1.301          44.000                  
                                                                
  37471577.742   192979897.340          -5.207          44.000                  
                                                                
                                                        44.000                  
                                                                
 19  6 11 23 19 49.0000000  0 20G 2G 5G15G29G12G21G25R 6R20R19R21R12
                                R 5R11R 4R10S35S33S38S31
  22316593.844   117659098.688       -1778.629          44.000    22316599.781  
  92472717.066       -1385.887          32.000                  
  20349607.266   109127140.957        -435.906          49.000    20349614.852  
  83959696.367        -339.648          36.000    20349615.969  
  25565779.812   134038093.824        3338.988          38.000                  
                                                                
  21072928.430   108865456.941        2016.918          48.000    21072936.992  
  83823333.391        1571.637          35.000    21072937.805  
  22391748.898   117819892.090       -3352.812          47.000    22391757.719  
  92595756.477       -2612.637          32.000    22391758.688  
  24778724.539   134037790.102        2287.176          42.000                  
                                                                
  21576932.906   109214118.164       -1485.559          44.000    21576943.680  
  92444160.684       -1157.508          31.000    21576944.367  
  22272448.266   117025652.535        4293.734          38.000                  
                                                                
  20145529.492   109119894.070        -376.758          40.000    20145534.766  
  83952566.137        -292.844          43.000                  
                                                                  23142326.789  
  92495207.242       -2037.984          38.000                  
  21485084.336   117231807.836        2391.902          44.000    21485087.477  
  92130072.324        1860.664          42.000                  
  23541039.305   125690745.105        1850.547          40.000                  
                                                                
  20034129.898   108965483.133        1038.750          46.000    20034133.703  
  83833002.262         807.910          43.000                  
  22091129.383   117541893.898        -732.805          43.000    22091134.500  
  92365805.895        -569.973          41.000                  
  21828419.289   117755915.172       -2702.047          42.000    21828421.148  
  92526247.367       -2101.570          42.000                  
  22702374.328   117819614.605       -3722.711          42.000    22702383.406  
  92596671.914       -2895.402          36.000                  
                                                        44.000                  
                                                                
  37944784.961   201365160.867           3.668          44.000                  
                                                                
  37471578.977   192979899.566           0.469          44.000                  
                                                                
                                                        44.000                  
                                                                
 19  6 11 23 19 50.0000000  0 20G 2G 5G15G29G12G21G25R 6R20R19R21R12
                                R 5R11R 4R10S35S33S38S31
  22316931.508   117660872.254       -1778.555          43.000    22316937.250  
  92474099.086       -1385.938          31.000                  
  20349689.445   109127572.383        -436.523          49.000    20349696.930  
  83960032.547        -340.203          36.000    20349697.984  
  25565143.031   134034750.246        3339.273          38.000                  
                                                                
  21072543.984   108863435.281        2016.504          48.000    21072552.352  
  83821758.070        1571.293          34.000    21072553.031  
  22392385.945   117823239.750       -3352.797          47.000    22392394.617  
  92598365.047       -2612.637          32.000    22392396.133  
  24778288.609   134035498.207        2286.582          38.000                  
                                                                
  21577214.383   109215599.098       -1486.051          44.000    21577225.438  
  92445314.668       -1157.934          31.000    21577225.898  
  22271642.703   117021353.934        4293.641          38.000                  
                                                                
  20145598.898   109120265.844        -378.051          40.000    20145603.969  
  83952855.293        -293.078          44.000                  
                                                                  23142815.672  
  92497241.512       -2038.035          38.000                  
  21484636.438   117229410.816        2392.102          44.000    21484639.727  
  92128207.977        1860.789          43.000                  
  23540691.656   125688890.078        1849.750          41.000                  
                                                                
  20033934.555   108964439.930        1037.934          47.000    20033938.578  
  83832190.887         807.273          43.000                  
  22091265.570   117542622.086        -733.566          44.000    22091270.539  
  92366372.266        -570.500          40.000                  
  21828922.617   117758612.250       -2702.676          41.000    21828924.883  
  92528345.098       -2102.094          42.000                  
  22703071.734   117823332.609       -3722.742          43.000    22703080.375  
  92599563.680       -2895.461          34.000                  
                                                        43.000                  
                                                                
  37944784.125   201365157.441           0.785          44.000                  
                                                                
  37471579.320   192979899.750          -3.207          44.000                  
                                                                
                                                        44.000                  
                                                                
 19  6 11 23 19 51.0000000  0 20G 2G 5G15G29G12G21G25R 6R20R19R21R12
                                R 5R11R 4R10S35S33S38S31
  22317269.781   117662650.496       -1779.031          43.000    22317275.633  
  92475484.703       -1386.273          32.000                  
  20349772.438   109128009.035        -437.980          49.000    20349780.008  
  83960372.797        -341.266          36.000    20349781.078  
  25564508.086   134031410.0471       3339.219          37.000                  
                                                                
  21072160.320   108861418.508        2015.523          47.000    21072168.477  
  83820186.555        1570.539          34.000    21072169.766  
  22393023.727   117826592.281       -3353.551          47.000    22393032.594  
  92600977.418       -2613.133          33.000    22393033.695  
  24777853.203   134033210.938        2285.531          36.000                  
                                                                
  21577497.406   109217085.203       -1487.543          44.000    21577508.219  
  92446472.656       -1159.176          31.000    21577508.969  
  22270838.055   117017060.219        4292.871          38.000                  
                                                                
  20145669.398   109120642.551        -378.133          39.000    20145674.500  
  83953148.301        -293.816          44.000                  
                                                                  23143305.586  
  92499279.527       -2038.582          38.000                  
  21484189.391   117227018.527        2391.383          44.000    21484192.633  
  92126347.305        1859.793          43.000                  
  23540345.562   125687040.422        1849.367          40.000                  
                                                                
  20033740.516   108963402.297        1035.969          46.000    20033744.414  
  83831383.832         805.781          43.000                  
  22091403.188   117543355.844        -736.418          39.000    22091407.266  
  92366942.973        -572.887          36.000                  
  21829427.523   117761314.652       -2703.758          42.000    21829429.516  
  92530446.969       -2102.898          42.000                  
  22703770.367   117827055.535       -3724.160          43.000    22703778.711  
  92602459.289       -2896.492          35.000                  
                                                        43.000                  
                                                                
  37944783.883   201365158.594          -0.156          43.000                  
                                                                
  37471579.383   192979904.523          -3.727          44.000                  
                                                                
                                                        44.000                  
                                                                
 19  6 11 23 19 52.0000000  0 20G 2G 5G15G29G12G21G25R 6R20R19R21R12
                                R 5R11R 4R10S35S33S38S31
  22317607.945   117664426.344       -1779.652          43.000    22317613.594  
  92476868.492       -1386.785          31.000                  
  20349855.227   109128443.824        -438.859          49.000    20349862.711  
  83960711.598        -342.020          35.000    20349863.781  
  25563872.727   134028067.609        3339.418          37.000                  
              2                         20.000                  
  21071775.961   108859399.430        2014.961          49.000    21071784.242  
  83818613.242        1570.043          36.000    21071785.273  
  22393661.430   117829942.602       -3354.238          47.000    22393670.047  
  92603588.039       -2613.699          33.000    22393670.984  
  24777417.500   134030921.281        2285.184          40.000                  
                                                                
  21577780.016   109218569.434       -1488.344          43.000    21577790.570  
  92447629.223       -1159.746          32.000    21577791.438  
  22270032.648   117012764.148        4292.914          38.000                  
                                                                
  20145739.328   109121017.031        -379.926          40.000    20145744.625  
  83953439.543        -294.242          43.000                  
                                                                  23143795.195  
  92501315.660       -2038.973          38.000                  
  21483741.680   117224623.836        2390.391          42.000    21483744.742  
  92124484.746        1859.809          41.000                  
  23539999.211   125685188.859        1848.656          38.000                  
                                                                
  20033546.258   108962362.941        1035.148          46.000    20033549.961  
  83830575.449         805.098          43.000                  
  22091540.102   117544087.801        -735.855          42.000    22091544.883  
  92367512.273        -572.266          41.000                  
  21829932.172   117764015.164       -2704.566          41.000    21829933.734  
  92532547.352       -2103.535          41.000                  
  22704468.578   117830776.164       -3725.324          42.000    22704476.672  
  92605353.129       -2897.543          32.000                  
                                                        43.000                  
                                                                
  37944783.227   201365157.230           0.391          44.000                  
                                                                
  37471580.812   192979906.785          -1.590          45.000                  
                                                                
                                                        43.000                  
                                                                
 19  6 11 23 19 53.0000000  0 20G 2G 5G15G29G12G21G25R 6R20R19R21R12
                                R 5R11R 4R10S35S33S38S31
  22317946.023   117666203.609       -1778.785          43.000    22317951.695  
  92478253.375       -1386.004          31.000                  
  20349938.336   109128880.570        -438.766          49.000    20349945.867  
  83961051.922        -341.875          35.000    20349946.797  
  25563236.445   134024726.328        3339.363          37.000                  
              2                         20.000                  
  21071391.969   108857382.023        2015.457          47.000    21071400.250  
  83817041.246        1570.523          34.000    21071401.445  
  22394299.039   117833294.523       -3353.383          47.000    22394307.844  
  92606199.926       -2612.938          32.000    22394308.977  
  24776981.961   134028633.059        2286.852          38.000    24776988.711  
 100771788.2301       1782.133          20.000                  
  21578062.617   109220055.566       -1488.465          44.000    21578073.500  
  92448787.238       -1159.949          30.000    21578074.234  
  22269228.086   117008469.664        4294.051          38.000                  
                                                                
  20145809.625   109121393.113        -378.297          39.000    20145814.953  
  83953732.074        -294.324          43.000                  
                                                                  23144284.648  
  92503353.004       -2039.785          38.000                  
  21483294.422   117222230.582        2391.074          42.000    21483297.492  
  92122623.355        1859.355          40.000                  
  23539653.148   125683339.539        1846.969          41.000                  
                                                                
  20033352.273   108961325.820        1034.688          46.000    20033356.000  
  83829768.801         804.746          42.000                  
  22091677.664   117544822.008        -737.000          39.000    22091682.047  
  92368083.352        -573.207          37.000                  
  21830436.883   117766717.660       -2704.641          42.000    21830438.117  
  92534649.293       -2103.602          41.000                  
  22705167.117   117834498.391       -3723.812          42.000    22705175.109  
  92608248.195       -2896.277          34.000                  
                                                        43.000                  
                                                                
  37944782.789   201365157.195          -2.988          44.000                  
                                                                
  37471581.023   192979910.426          -5.570          43.000                  
                                                                
                                                        43.000                  
                                                                
 19  6 11 23 19 54.0000000  0 20G 2G 5G15G29G12G21G25R 6R20R19R21R12
                                R 5R11R 4R10S35S33S38S31
  22318284.133   117667981.266       -1778.992          44.000    22318289.867  
  92479638.562       -1386.258          31.000                  
  20350021.484   109129318.277        -439.484          49.000    20350029.133  
  83961392.988        -342.473          36.000    20350030.234  
  25562600.852   134021385.102        3338.906          38.000                  
                                                                
  21071008.219   108855365.160        2015.387          48.000    21071016.508  
  83815469.676        1570.441          34.000    21071017.930  
  22394937.336   117836647.047       -3353.984          47.000    22394945.781  
  92608812.285       -2613.465          33.000    22394946.508  
  24776546.664   134026345.215        2287.062          40.000                  
                                                                
  21578345.523   109221542.594       -1488.242          44.000    21578356.359  
  92449945.957       -1159.645          31.000    21578357.406  
  22268423.391   117004175.734        4292.051          38.000                  
                                                                
  20145880.336   109121769.809        -378.508          40.000    20145885.492  
  83954025.039        -293.941          44.000                  
                                                                  23144774.398  
  92505390.555       -2038.387          38.000                  
  21482847.125   117219837.691        2391.508          44.000    21482850.492  
  92120762.219        1860.203          43.000                  
  23539307.188   125681491.148        1847.660          40.000                  
                                                                
  20033158.438   108960289.895        1034.223          46.000    20033161.945  
  83828963.082         804.379          43.000                  
  22091815.266   117545557.168        -736.887          45.000    22091820.461  
  92368655.098        -573.094          44.000                  
  21830941.977   117769421.137       -2705.043          42.000    21830942.922  
  92536752.008       -2103.953          41.000                  
  22705865.547   117838221.152       -3723.734          43.000    22705873.953  
  92611143.680       -2896.234          35.000                  
                                                        43.000                  
                                                                
  37944782.805   201365157.418          -2.371          44.000                  
                                                                
  37471581.844   192979914.215          -5.312          44.000                  
                                                                
                                                        44.000                  
                                                                
 19  6 11 23 19 55.0000000  0 20G 2G 5G15G29G12G21G25R 6R20R19R21R12
                                R 5R11R 4R10S35S33S38S31
  22318622.562   117669759.340       -1778.398          44.000    22318628.188  
  92481024.074       -1385.793          32.000                  
  20350105.047   109129756.922        -439.324          49.000    20350112.664  
  83961734.793        -342.352          36.000    20350114.117  
  25561965.172   134018043.969        3338.887          38.000                  
                                                                
  21070624.539   108853348.910        2015.582          48.000    21070632.906  
  83813898.574        1570.555          35.000    21070634.555  
  22395575.438   117840000.172       -3353.559          47.000    22395583.930  
  92611425.117       -2613.223          33.000    22395584.773  
  24776111.578   134024057.805        2287.160          40.000                  
                                                                
  21578628.727   109223030.551       -1488.672          44.000    21578639.406  
  92451105.402       -1160.035          31.000    21578639.906  
  22267619.000   116999882.391        4290.086          38.000                  
                                                                
  20145951.125   109122147.070        -378.625          40.000    20145956.078  
  83954318.480        -293.738          44.000                  
                                                                  23145264.469  
  92507428.539       -2038.211          38.000                  
  21482400.125   117217445.215        2391.770          44.000    21482403.180  
  92118901.402        1860.238          42.000                  
  23538961.266   125679643.781        1846.934          40.000                  
                                                                
  20032964.836   108959255.184        1034.172          46.000    20032968.484  
  83828158.309         804.332          43.000                  
  22091953.000   117546293.488        -737.035          44.000    22091957.938  
  92369227.793        -573.238          42.000                  
  21831447.266   117772125.641       -2705.312          42.000    21831448.070  
  92538855.500       -2104.145          42.000                  
  22706564.234   117841944.531       -3723.070          42.000    22706572.523  
  92614039.645       -2895.664          34.000                  
                                                        43.000                  
                                                                
  37944783.383   201365157.980          -1.734          44.000                  
                                                                
  37471582.828   192979918.105          -5.367          44.000                  
                                                                
                                                        44.000                  
                                                                
 19  6 11 23 19 56.0000000  0 19G 2G 5G15G29G12G21G25R20R19R21R12R 5
                                R11R 4R10S35S33S38S31
  22318961.195   117671536.336       -1778.812          44.000    22318966.305  
  92482408.746       -1386.148          32.000                  
  20350188.375   109130195.043        -440.145          49.000    20350196.031  
  83962076.191        -342.957          36.000    20350197.391  
  25561329.469   134014701.977        3340.250          37.000                  
                                                                
  21070240.789   108851331.766        2015.016          48.000    21070249.109  
  83812326.770        1570.113          35.000    21070250.727  
  22396213.398   117843352.402       -3353.980          47.000    22396221.852  
  92614037.230       -2613.504          33.000    22396223.039  
  24775675.664   134021769.316        2285.289          41.000                  
                                                                
  21578911.844   109224517.934       -1489.770          44.000    21578922.398  
  92452264.398       -1160.840          31.000    21578923.055  
  20146021.336   109122523.441        -378.773          40.000    20146026.508  
  83954611.215        -294.156          44.000                  
                                                                  23145753.891  
  92509465.695       -2038.281          38.000                  
  21481952.781   117215051.598        2391.285          44.000    21481956.078  
  92117039.715        1860.074          43.000                  
  23538615.320   125677796.016        1845.617          39.000                  
                                                                
  20032771.297   108958220.188        1032.680          46.000    20032774.953  
  83827353.309         803.191          43.000                  
  22092090.617   117547029.504        -738.676          45.000    22092095.672  
  92369800.258        -574.523          42.000                  
  21831952.508   117774829.613       -2705.949          42.000    21831952.750  
  92540958.594       -2104.586          41.000                  
  22707262.500   117845666.965       -3724.207          42.000    22707270.836  
  92616934.875       -2896.582          34.000                  
                                                        44.000                  
                                                                
  37944783.766   201365157.395           0.457          44.000                  
                                                                
  37471584.023   192979920.711          -2.719          44.000                  
                                                                
                                                        43.000                  
                                                                
 19  6 11 23 19 57.0000000  0 19G 2G 5G29G12G21G25R 6R20R19R21R12R 5
                                R11R 4R10S35S33S38S31
  22319299.852   117673316.055       -1778.070          44.000    22319304.953  
  92483795.539       -1385.492          32.000                  
  20350272.281   109130636.434        -440.328          49.000    20350280.055  
  83962420.121        -343.145          36.000    20350280.695  
  21069857.617   108849317.531        2015.527          48.000    21069865.828  
  83810757.234        1570.535          35.000    21069866.977  
  22396851.773   117846707.562       -3353.844          47.000    22396860.375  
  92616651.641       -2613.426          32.000    22396861.570  
  24775240.969   134019483.539        2286.895          41.000    24775253.859  
 100764658.8401       1782.016          20.000                  
  21579195.406   109226008.535       -1489.605          44.000    21579205.969  
  92453425.918       -1160.801          31.000    21579207.109  
  22266010.086   116991297.4301       4291.785          38.000                  
                                                                
  20146092.320   109122902.758        -377.781          40.000    20146097.523  
  83954906.242        -293.941          44.000                  
                                                                  23146244.531  
  92511505.059       -2038.574          39.000                  
  21481506.086   117212660.793        2392.059          44.000    21481509.008  
  92115180.184        1860.793          42.000                  
  23538269.633   125675951.641        1843.457          40.000                  
                                                                
  20032578.367   108957188.746        1032.574          46.000    20032581.828  
  83826551.074         803.105          43.000                  
  22092228.906   117547768.988        -738.520          44.000    22092234.133  
  92370375.410        -574.422          42.000                  
  21832458.031   117777536.918       -2706.113          43.000    21832458.203  
  92543064.281       -2104.758          41.000                  
  22707961.156   117849392.336       -3724.246          43.000    22707969.609  
  92619832.379       -2896.641          35.000                  
                                                        44.000                  
                                                                
  37944783.547   201365159.430          -0.957          44.000                  
                                                                
  37471586.344   192979925.980          -4.215          44.000                  
                                                                
                                                        43.000                  
                                                                
 19  6 11 23 19 58.0000000  0 20G 2G 5G15G29G12G21G25R 6R20R19R21R12
                                R 5R11R 4R10S35S33S38S31
  22319638.133   117675095.859       -1779.035          44.000    22319643.586  
  92485182.398       -1386.285          31.000                  
  20350356.383   109131078.457        -441.582          48.000    20350364.117  
  83962764.559        -344.090          36.000    20350365.539  
                                                                                
 102899765.934        2603.004          36.000    25560070.383  
  21069474.234   108847303.562        2014.508          48.000    21069482.602  
  83809187.914        1569.750          35.000    21069483.992  
  22397490.469   117850062.996       -3354.945          47.000    22397498.914  
  92619266.270       -2614.250          32.000    22397499.688  
  24774805.742   134017197.887        2286.277          40.000    24774818.953  
 100762877.770        1781.836          20.000                  
  21579479.336   109227499.727       -1490.832          44.000    21579489.664  
  92454587.883       -1161.680          31.000    21579490.203  
  22265205.773   116987006.121        4291.973          38.000                  
                                                                
  20146163.375   109123282.344        -377.930          40.000    20146168.492  
  83955201.480        -294.949          44.000                  
                                                                  23146734.758  
  92513544.512       -2038.941          38.000                  
  21481059.375   117210270.070        2391.055          44.000    21481061.984  
  92113320.754        1859.965          42.000                  
  23537924.281   125674107.988        1844.008          40.000                  
                                                                
  20032385.562   108956158.152        1030.773          46.000    20032389.141  
  83825749.516         801.691          43.000                  
  22092367.320   117548509.242        -740.156          44.000    22092372.398  
  92370951.172        -575.695          42.000                  
  21832963.711   117780244.871       -2707.926          42.000    21832964.141  
  92545170.477       -2106.172          41.000                  
  22708659.844   117853117.941       -3723.711          42.000    22708668.828  
  92622730.066       -2896.176          35.000                  
                                                        43.000                  
                                                                
  37944783.602   201365161.445          -5.004          44.000                  
                                                                
  37471588.281   192979931.266          -8.750          44.000                  
                                                                
                                                        44.000                  
                                                                
 19  6 11 23 19 59.0000000  0 20G 2G 5G15G29G12G21G25R 6R20R19R21R12
                                R 5R11R 4R10S35S33S38S31
  22319977.430   117676878.707       -1780.367          44.000    22319982.836  
  92486571.625       -1387.246          32.000                  
  20350441.406   109131524.066        -443.629          49.000    20350448.977  
  83963111.773        -345.656          36.000    20350449.906  
                                                                                
 102897165.207        2602.258          35.000    25559434.992  
  21069091.461   108845292.816        2012.887          48.000    21069099.984  
  83807621.090        1568.520          35.000    21069101.078  
  22398129.555   117853421.645       -3356.469          47.000    22398138.109  
  92621883.383       -2615.445          33.000    22398139.117  
  24774371.672   134014915.234        2285.203          41.000    24774384.234  
 100761099.043        1780.750          20.000                  
  21579763.820   109228994.453       -1492.824          44.000    21579774.039  
  92455752.586       -1163.258          31.000    21579775.477  
  22264401.812   116982718.070        4292.297          38.000                  
                                                                
  20146234.891   109123665.227        -381.957          40.000    20146240.297  
  83955499.266        -295.938          44.000                  
                                                                  23147225.625  
  92515586.363       -2040.250          39.000                  
  21480613.398   117207882.414        2389.836          44.000    21480615.875  
  92111463.672        1858.945          42.000                  
  23537579.852   125672268.035        1841.633          40.000                  
                                                                
  20032193.586   108955131.430        1028.289          46.000    20032197.078  
  83824950.941         799.777          43.000                  
  22092506.477   117549253.285        -742.465          44.000    22092511.828  
  92371529.863        -577.473          42.000                  
  21833469.961   117782956.488       -2709.973          42.000    21833470.648  
  92547279.496       -2107.754          41.000                  
  22709359.305   117856846.781       -3727.266          42.000    22709367.852  
  92625630.281       -2899.004          34.000                  
                                                        44.000                  
                                                                
  37944785.008   201365166.320          -1.707          44.000                  
                                                                
  37471590.820   192979939.504          -5.074          44.000                  
                                                                
                                                        43.000                  
                                                                
 19  6 11 23 20  0.0000000  0 20G 2G 5G15G29G12G21G25R 6R20R19R21R12
                                R 5R11R 4R10S35S33S38S31
  22320315.898   117678658.375       -1779.766          44.000    22320321.555  
  92487958.391       -1386.879          31.000                  
  20350525.453   109131967.035        -442.410          49.000    20350533.211  
  83963456.953        -344.754          36.000    20350533.719  
                                                                                
 102894561.777        2604.469          35.000    25558800.016  
  21068708.344   108843279.066        2014.469          48.000    21068716.789  
  83806051.938        1569.672          35.000    21068717.633  
  22398767.938   117856777.301       -3354.953          47.000    22398776.617  
  92624498.176       -2614.270          33.000    22398777.258  
  24773936.984   134012629.434        2285.785          41.000    24773949.023  
 100759317.969        1781.062          20.000                  
  21580047.703   109230486.504       -1491.551          44.000    21580057.961  
  92456915.234       -1162.258          31.000    21580058.828  
  22263597.523   116978426.945        4291.711          38.000                  
                                                                
  20146305.906   109124045.016        -379.516          40.000    20146311.078  
  83955794.668        -294.949          44.000                  
                                                                  23147715.625  
  92517625.766       -2039.332          38.000                  
  21480166.609   117205491.488        2391.254          44.000    21480169.078  
  92109604.070        1860.250          42.000                  
  23537235.062   125670425.488        1842.797          40.000                  
                                                                
  20032000.969   108954102.266        1029.375          46.000    20032004.320  
  83824150.488         800.625          43.000                  
  22092645.078   117549994.820        -741.195          44.000    22092650.305  
  92372106.613        -576.492          43.000                  
  21833976.031   117785665.418       -2708.484          42.000    21833976.297  
  92549386.449       -2106.617          41.000                  
  22710058.320   117860572.566       -3725.078          42.000    22710066.938  
  92628528.113       -2897.293          34.000                  
                                                        44.000                  
                                                                
  37944785.641   201365167.879          -2.750          44.000                  
                                                                
  37471592.188   192979944.441          -6.531          44.000                  
                                                                
                                                        43.000                  
                                                                
 19  6 11 23 20  1.0000000  0 20G 2G 5G15G29G12G21G25R 6R20R19R21R12
                                R 5R11R 4R10S35S33S38S31
  22320654.547   117680437.867       -1779.492          44.000    22320660.133  
  92489345.016       -1386.586          30.000                  
  20350609.641   109132410.387        -443.367          49.000    20350617.609  
  83963802.426        -345.453          34.000    20350618.383  
                                                                                
 102891958.020        2603.738          35.000    25558163.047  
  21068324.789   108841265.332        2013.832          48.000    21068333.555  
  83804482.797        1569.195          33.000    21068334.406  
  22399405.938   117860132.980       -3355.699          47.000    22399415.180  
  92627113.008       -2614.820          31.000    22399416.375  
  24773501.984   134010343.477        2285.961          41.000                  
                                                                
  21580331.594   109231978.895       -1492.758          44.000    21580341.961  
  92458078.141       -1163.172          30.000    21580343.227  
  22262792.898   116974135.719        4291.773          37.000                  
                                                                
  20146376.805   109124424.848        -379.742          39.000    20146382.164  
  83956090.090        -295.414          44.000                  
                                                                  23148206.094  
  92519665.039       -2039.125          39.000                  
  21479719.727   117203100.367        2390.934          44.000    21479721.930  
  92107744.301        1860.070          42.000                  
  23536889.961   125668583.406        1841.410          40.000                  
                                                                
  20031808.438   108953073.727        1028.129          46.000    20031812.305  
  83823350.512         799.676          43.000                  
  22092783.711   117550736.938        -742.379          44.000    22092789.398  
  92372683.824        -577.398          43.000                  
  21834481.797   117788374.754       -2710.285          42.000    21834482.523  
  92551493.715       -2108.000          41.000                  
  22710757.273   117864298.344       -3725.375          42.000    22710766.023  
  92631425.941       -2897.496          35.000                  
                                                        43.000                  
                                                                
  37944786.203   201365169.176          -1.863          44.000                  
                                                                
  37471593.406   192979949.246          -3.812          44.000                  
                                                                
                                                        43.000                  
                                                                
 19  6 11 23 20  2.0000000  0 20G 2G 5G15G29G12G21G25R 6R20R19R21R12
                                R 5R11R 4R10S35S33S38S31
  22320994.305   117682220.223       -1779.961          44.000    22320999.320  
  92490733.848       -1386.941          32.000                  
  20350694.922   109132857.137        -444.680          49.000    20350702.672  
  83964150.543        -346.504          36.000    20350703.711  
                                                                                
 102889356.199        2603.762          35.000    25557527.039  
  21067942.383   108839254.645        2012.668          48.000    21067950.969  
  83802916.020        1568.320          35.000    21067952.164  
  22400045.461   117863491.688       -3356.410          47.000    22400054.344  
  92629730.168       -2615.316          33.000    22400054.852  
  24773067.406   134008060.398        2285.566          41.000                  
                                                                
  21580616.102   109233474.625       -1494.777          44.000    21580626.492  
  92459243.633       -1164.777          31.000    21580627.859  
  22261989.969   116969847.543        4290.477          38.000                  
                                                                
  20146448.578   109124807.766        -380.590          39.000    20146453.867  
  83956387.902        -295.852          44.000                  
                                                                  23148696.688  
  92521706.637       -2039.605          39.000                  
  21479273.375   117200712.168        2390.281          44.000    21479275.883  
  92105886.812        1859.512          42.000                  
  23536545.750   125666744.855        1839.605          40.000                  
                                                                
  20031616.773   108952048.895        1026.523          46.000    20031620.500  
  83822553.422         798.410          43.000                  
  22092923.664   117551482.656        -744.035          44.000    22092928.992  
  92373263.820        -578.668          42.000                  
  21834988.391   117791087.531       -2710.746          42.000    21834988.875  
  92553603.641       -2108.293          41.000                  
  22711456.906   117868027.176       -3726.516          42.000    22711465.531  
  92634326.141       -2898.336          35.000                  
                                                        43.000                  
                                                                
  37944787.016   201365173.258          -1.172          44.000                  
                                                                
  37471595.625   192979956.809          -4.758          44.000                  
                                                                
                                                        43.000                  
                                                                
 19  6 11 23 20  3.0000000  0 20G 2G 5G15G29G12G21G25R 6R20R19R21R12
                                R 5R11R 4R10S35S33S38S31
  22321332.336   117683999.316       -1779.785          44.000    22321337.883  
  92492120.156       -1386.848          32.000                  
  20350779.555   109133301.180        -445.004          49.000    20350787.180  
  83964496.547        -346.727          36.000    20350787.945  
                                                                                
 102886751.652        2603.348          35.000    25556892.797  
  21067559.359   108837240.871        2012.883          48.000    21067567.805  
  83801346.855        1568.461          35.000    21067569.281  
  22400683.953   117866847.344       -3356.633          47.000    22400692.969  
  92632344.973       -2615.555          33.000    22400693.859  
  24772632.102   134005774.043        2286.281          41.000                  
                                                                
  21580900.102   109234967.613       -1494.016          43.000    21580910.602  
  92460407.000       -1164.223          31.000    21580911.969  
  22261185.742   116965556.164        4288.824          38.000                  
                                                                
  20146519.383   109125187.535        -380.691          39.000    20146524.883  
  83956683.297        -296.160          44.000                  
                                                                  23149186.617  
  92523745.699       -2040.074          39.000                  
  21478826.086   117198320.660        2390.676          44.000    21478829.086  
  92104026.758        1859.543          42.000                  
  23536201.188   125664903.594        1839.840          40.000                  
                                                                
  20031424.586   108951021.520        1026.098          46.000    20031428.086  
  83821754.352         798.070          43.000                  
  22093062.805   117552225.742        -744.465          44.000    22093067.828  
  92373841.777        -579.000          43.000                  
  21835494.227   117793797.539       -2711.469          43.000    21835494.898  
  92555711.430       -2108.926          41.000                  
  22712155.836   117871752.848       -3725.969          42.000    22712164.039  
  92637223.895       -2897.961          35.000                  
                                                        43.000                  
                                                                
  37944788.219   201365173.973          -3.195          44.000                  
                                                                
  37471597.461   192979961.125          -6.930          44.000                  
                                                                
                                                        43.000                  
                                                                
 19  6 11 23 20  4.0000000  0 20G 2G 5G15G29G12G21G25R 6R20R19R21R12
                                R 5R11R 4R10S35S33S38S31
  22321671.242   117685779.293       -1779.906          44.000    22321676.531  
  92493507.156       -1386.922          32.000                  
  20350864.156   109133746.645        -445.492          49.000    20350872.031  
  83964843.664        -347.152          36.000    20350872.820  
                                                                                
 102884147.520        2604.281          35.000    25556257.898  
  21067176.414   108835228.188        2012.770          48.000    21067184.844  
  83799778.531        1568.395          35.000    21067185.039  
  22401322.781   117870204.078       -3356.773          47.000    22401331.672  
  92634960.605       -2615.664          32.000    22401332.555  
  24772197.281   134003488.590        2285.844          41.000    24772205.180  
 100752195.2301       1781.109          20.000                  
  21581184.711   109236461.977       -1494.324          43.000    21581195.008  
  92461571.441       -1164.371          31.000    21581196.219  
  22260381.633   116961265.793        4290.199          38.000                  
                                                                
  20146590.453   109125568.402        -380.613          40.000    20146596.250  
  83956979.523        -296.180          44.000                  
                                                                  23149676.852  
  92525785.441       -2039.957          39.000                  
  21478379.594   117195930.055        2390.727          44.000    21478382.344  
  92102167.402        1859.406          42.000                  
  23535856.977   125663063.918        1839.195          40.000                  
                                                                
  20031232.703   108949995.820        1025.500          46.000    20031236.453  
  83820956.590         797.570          43.000                  
  22093202.336   117552970.461        -745.078          45.000    22093207.320  
  92374421.008        -579.488          43.000                  
  21836000.625   117796509.055       -2711.895          42.000    21836001.156  
  92557820.395       -2109.234          41.000                  
  22712854.992   117875479.566       -3727.262          42.000    22712863.172  
  92640122.445       -2899.051          35.000                  
                                                        43.000                  
                                                                
  37944788.484   201365175.410          -0.855          44.000                  
                                                                
  37471598.695   192979966.301          -5.043          44.000                  
                                                                
                                                        43.000                  
                                                                
 19  6 11 23 20  5.0000000  0 20G 2G 5G15G29G12G21G25R 6R20R19R21R12
                                R 5R11R 4R10S35S33S38S31
  22322010.117   117687559.676       -1779.273          44.000    22322015.281  
  92494894.461       -1386.430          31.000                  
  20350949.156   109134193.066        -445.621          49.000    20350957.023  
  83965191.523        -347.215          36.000    20350957.539  
                                                                                
 102881543.469        2604.488          35.000    25555620.852  
  21066793.664   108833216.082        2013.203          48.000    21066801.938  
  83798210.652        1568.738          35.000    21066802.328  
  22401961.625   117873561.398       -3356.496          47.000    22401970.469  
  92637576.699       -2615.422          32.000    22401971.781  
  24771762.008   134001203.531        2286.211          41.000    24771770.664  
 100750414.699        1781.320          20.000                  
  21581469.461   109237957.250       -1494.234          43.000    21581479.562  
  92462736.590       -1164.344          31.000    21581480.570  
  22259577.445   116956975.953        4288.055          37.000                  
                                                                
  20146662.109   109125949.832        -380.273          40.000    20146667.586  
  83957276.195        -295.871          44.000                  
                                                                  23150167.109  
  92527825.531       -2038.523          39.000                  
  21477932.992   117193539.777        2391.512          44.000    21477935.547  
  92100308.293        1860.312          42.000                  
  23535512.805   125661225.262        1839.531          41.000                  
                                                                
  20031041.023   108948971.305        1025.180          46.000    20031044.711  
  83820159.746         797.316          43.000                  
  22093341.820   117553716.270        -745.039          44.000    22093346.828  
  92375001.078        -579.488          42.000                  
  21836506.836   117799221.551       -2712.176          42.000    21836507.266  
  92559930.109       -2109.461          41.000                  
  22713554.094   117879206.875       -3725.484          42.000    22713562.727  
  92643021.461       -2897.547          36.000                  
                                                        43.000                  
                                                                
  37944788.898   201365177.160          -4.156          44.000                  
                                                                
  37471600.164   192979971.809          -7.895          44.000                  
                                                                
                                                        43.000                  
                                                                
 19  6 11 23 20  6.0000000  0 19G 2G 5G29G12G21G25R 6R20R19R21R12R 5
                                R11R 4R10S35S33S38S31
  22322348.945   117689340.039       -1780.551          44.000    22322354.102  
  92496281.758       -1387.434          32.000                  
  20351034.414   109134640.004        -447.180          49.000    20351042.086  
  83965539.781        -348.465          36.000    20351042.859  
  21066410.555   108831204.141        2012.008          48.000    21066419.016  
  83796642.898        1567.777          35.000    21066420.148  
  22402600.766   117876918.871       -3357.281          47.000    22402609.289  
  92640192.898       -2616.066          32.000    22402610.469  
  24771327.805   133998918.461        2285.172          41.000    24771336.305  
 100748634.160        1780.625          20.000                  
  21581754.203   109239453.004       -1495.879          43.000    21581764.125  
  92463902.105       -1165.617          31.000    21581765.523  
  22258773.469   116952686.230        4289.398          38.000                  
                                                                
  20146733.352   109126331.441        -381.613          40.000    20146738.984  
  83957572.984        -296.480          44.000                  
                                                                  23150657.531  
  92529865.672       -2039.590          39.000                  
  21477486.227   117191149.488        2390.492          44.000    21477488.992  
  92098449.172        1859.516          42.000                  
  23535168.820   125659387.188        1838.180          41.000                  
                                                                
  20030849.672   108947947.578        1023.457          46.000    20030853.367  
  83819363.508         796.023          43.000                  
  22093481.781   117554462.801        -746.934          44.000    22093486.609  
  92375581.707        -580.957          42.000                  
  21837013.258   117801934.613       -2713.188          42.000    21837014.062  
  92562040.258       -2110.242          41.000                  
  22714253.539   117882934.289       -3727.379          42.000    22714262.328  
  92645920.547       -2899.090          35.000                  
                                                        43.000                  
                                                                
  37944790.188   201365178.793           1.906          44.000                  
                                                                
  37471601.438   192979977.133          -1.926          44.000                  
                                                                
                                                        44.000                  
                                                                
 19  6 11 23 20  7.0000000  0 19G 2G 5G29G12G21G25R 6R20R19R21R12R 5
                                R11R 4R10S35S33S38S31
  22322687.828   117691120.879       -1781.461          44.000    22322693.039  
  92497669.434       -1388.148          31.000                  
  20351119.391   109135087.961        -448.582          49.000    20351127.328  
  83965888.848        -349.531          36.000    20351128.211  
  21066028.102   108829192.863        2010.891          48.000    21066036.273  
  83795075.676        1566.934          35.000    21066037.133  
  22403239.781   117880277.027       -3358.602          47.000    22403248.375  
  92642809.664       -2617.051          32.000    22403249.234  
  24770893.367   133996633.855        2286.254          41.000    24770901.539  
 100746853.844        1781.672          20.000                  
  21582038.797   109240949.730       -1497.250          44.000    21582049.016  
  92465068.402       -1166.727          31.000    21582050.273  
  22257969.883   116948397.105        4289.539          38.000                  
                                                                
  20146804.688   109126713.703        -382.508          40.000    20146810.172  
  83957870.324        -297.895          44.000                  
                                                                  23151147.820  
  92531906.223       -2040.816          38.000                  
  21477039.453   117188759.707        2389.305          44.000    21477042.250  
  92096590.465        1858.402          42.000                  
  23534824.859   125657550.258        1835.234          40.000                  
                                                                
  20030658.250   108946925.133        1021.594          46.000    20030662.266  
  83818568.281         794.562          43.000                  
  22093621.391   117555210.527        -748.535          44.000    22093626.289  
  92376163.281        -582.180          42.000                  
  21837519.484   117804648.730       -2714.805          42.000    21837521.078  
  92564151.254       -2111.500          41.000                  
  22714952.625   117886662.383       -3728.809          42.000    22714961.375  
  92648820.188       -2900.254          35.000                  
                                                        43.000                  
                                                                
  37944790.289   201365180.812          -4.000          44.000                  
                                                                
  37471603.695   192979982.742          -7.516          44.000                  
                                                                
                                                        43.000                  
                                                                
 19  6 11 23 20  8.0000000  0 19G 2G 5G29G12G21G25R 6R20R19R21R12R 5
                                R11R 4R10S35S33S38S31
  22323026.727   117692900.812       -1780.660          44.000    22323031.805  
  92499056.398       -1387.566          31.000                  
  20351204.742   109135535.570        -448.574          49.000    20351212.523  
  83966237.633        -349.562          36.000    20351213.359  
  21065645.000   108827180.859        2011.395          48.000    21065653.414  
  83793507.871        1567.312          35.000    21065654.289  
  22403878.555   117883634.465       -3358.066          47.000    22403887.188  
  92645425.848       -2616.723          33.000    22403888.586  
  24770458.328   133994348.363        2284.773          41.000    24770466.852  
 100745072.973        1780.309          20.000                  
  21582323.344   109242446.059       -1497.398          44.000    21582333.703  
  92466234.371       -1166.809          31.000    21582334.938  
  22257166.336   116944107.191        4290.891          38.000                  
                                                                
  20146876.133   109127095.250        -382.320          40.000    20146881.430  
  83958167.066        -297.520          44.000                  
                                                                  23151638.258  
  92533946.059       -2040.312          39.000                  
  21476592.719   117186368.996        2389.660          44.000    21476595.734  
  92094731.023        1858.859          42.000                  
  23534480.805   125655713.008        1835.465          40.000                  
                                                                
  20030466.828   108945902.527        1021.656          46.000    20030471.078  
  83817772.918         794.590          44.000                  
  22093761.328   117555958.012        -748.555          44.000    22093765.953  
  92376744.648        -582.242          42.000                  
  21838026.469   117807362.477       -2714.824          42.000    21838027.758  
  92566261.938       -2111.547          41.000                  
  22715651.594   117890389.676       -3727.754          41.000    22715660.789  
  92651719.191       -2899.414          35.000                  
                                                        43.000                  
                                                                
  37944791.086   201365181.828          -2.402          44.000                  
                                                                
  37471605.312   192979987.301          -5.750          44.000                  
                                                                
                                                        43.000                  
                                                                
 19  6 11 23 20  9.0000000  0 19G 2G 5G29G12G21G25R 6R20R19R21R12R 5
                                R11R 4R10S35S33S38S31
  22323365.344   117694680.953       -1780.355          43.000    22323370.562  
  92500443.516       -1387.305          31.000                  
  20351289.938   109135983.926        -448.730          49.000    20351297.812  
  83966587.000        -349.672          36.000    20351298.727  
  21065262.453   108825169.250        2011.273          48.000    21065270.648  
  83791940.387        1567.230          35.000    21065271.648  
  22404517.914   117886992.305       -3358.133          47.000    22404526.180  
  92648042.336       -2616.742          33.000    22404527.125  
  24770023.320   133992063.062        2285.203          40.000    24770032.203  
 100743292.238        1780.410          20.000                  
  21582608.406   109243943.094       -1497.406          43.000    21582618.578  
  92467400.895       -1166.789          31.000    21582619.930  
  22256362.703   116939817.621        4289.527          38.000                  
                                                                
  20146947.445   109127477.176        -382.684          39.000    20146952.984  
  83958464.121        -297.199          44.000                  
                                                                  23152128.625  
  92535986.094       -2039.742          39.000                  
  21476145.922   117183978.488        2390.059          44.000    21476149.156  
  92092871.746        1859.141          42.000                  
  23534137.164   125653876.645        1835.383          41.000                  
                                                                
  20030275.750   108944880.930        1020.781          46.000    20030279.805  
  83816978.348         793.938          43.000                  
  22093901.312   117556706.430        -749.199          44.000    22093906.125  
  92377326.762        -582.707          42.000                  
  21838533.367   117810076.973       -2716.383          42.000    21838534.539  
  92568373.215       -2112.832          41.000                  
  22716350.695   117894117.363       -3729.035          41.000    22716360.219  
  92654618.504       -2900.379          35.000                  
                                                        43.000                  
                                                                
  37944791.828   201365182.938           0.422          44.000                  
                                                                
  37471606.453   192979991.934          -5.066          44.000                  
                                                                
                                                        43.000                  
                                                                
 19  6 11 23 20 10.0000000  0 19G 2G 5G29G12G21G25R 6R20R19R21R12R 5
                                R11R 4R10S35S33S38S31
  22323703.883   117696460.801       -1780.613          44.000    22323709.242  
  92501830.410       -1387.488          31.000                  
  20351375.312   109136432.527        -449.801          49.000    20351383.172  
  83966936.562        -350.500          36.000    20351384.117  
  21064879.352   108823157.523        2010.836          48.000    21064887.836  
  83790372.809        1566.867          35.000    21064888.844  
  22405156.711   117890350.031       -3358.695          47.000    22405165.125  
  92650658.738       -2617.168          32.000    22405165.844  
  24769588.188   133989777.480        2284.559          41.000    24769597.508  
 100741511.324        1780.223          20.000                  
  21582893.258   109245440.332       -1498.387          44.000    21582903.477  
  92468567.582       -1167.570          31.000    21582904.805  
  22255559.031   116935527.859        4289.477          38.000                  
                                                                
  20147018.773   109127858.984        -382.906          39.000    20147024.344  
  83958761.090        -297.789          44.000                  
                                                                  23152618.867  
  92538025.930       -2040.750          39.000                  
  21475699.211   117181587.652        2389.488          43.000    21475702.297  
  92091012.199        1858.762          42.000                  
  23533793.422   125652040.605        1834.527          40.000                  
                                                                
  20030084.578   108943859.805        1019.766          46.000    20030088.719  
  83816184.137         793.152          43.000                  
  22094041.359   117557455.227        -750.293          44.000    22094046.305  
  92377909.152        -583.559          42.000                  
  21839040.609   117812791.730       -2716.531          42.000    21839041.586  
  92570484.695       -2112.883          40.000                  
  22717050.000   117897844.902       -3728.879          41.000    22717059.727  
  92657517.699       -2900.246          35.000                  
                                                        43.000                  
                                                                
  37944792.031   201365183.625          -2.324          44.000                  
                                                                
  37471607.945   192979996.137          -4.934          44.000                  
                                                                
                                                        43.000                  
                                                                
 19  6 11 23 20 11.0000000  0 19G 2G 5G29G12G21G25R 6R20R19R21R12R 5
                                R11R 4R10S35S33S38S31
  22324042.375   117698241.297       -1781.484          43.000    22324048.141  
  92503217.820       -1388.164          32.000                  
  20351460.867   109136882.324        -450.770          49.000    20351468.781  
  83967287.059        -351.238          36.000    20351470.289  
  21064496.859   108821146.633        2009.938          48.000    21064505.164  
  83788805.883        1566.191          35.000    21064506.016  
  22405795.836   117893708.590       -3359.488          46.000    22405804.219  
  92653275.809       -2617.805          33.000    22405805.484  
  24769153.461   133987492.531        2284.539          40.000    24769162.859  
 100739730.781        1780.121          20.000                  
  21583178.133   109246938.715       -1499.273          44.000    21583188.711  
  92469735.133       -1168.207          31.000    21583189.852  
  22254755.055   116931238.910        4288.559          38.000                  
                                                                
  20147090.375   109128241.656        -384.359          40.000    20147095.703  
  83959058.719        -298.496          44.000                  
                                                                  23153109.508  
  92540066.293       -2040.512          39.000                  
  21475252.594   117179197.457        2389.180          44.000    21475255.672  
  92089153.152        1858.668          42.000                  
  23533449.930   125650205.848        1833.445          41.000                  
                                                                
  20029893.984   108942840.133        1018.246          46.000    20029898.047  
  83815391.059         791.969          43.000                  
  22094181.891   117558205.406        -751.355          44.000    22094186.641  
  92378492.617        -584.391          42.000                  
  21839548.023   117815507.699       -2717.105          42.000    21839548.594  
  92572597.105       -2113.352          41.000                  
  22717749.617   117901573.246       -3728.754          41.000    22717759.398  
  92660417.512       -2900.117          35.000                  
                                                        43.000                  
                                                                
  37944792.352   201365184.871          -1.852          44.000                  
                                                                
  37471608.953   192980000.738          -5.633          44.000                  
                                                                
                                                        43.000                  
                                                                
 19  6 11 23 20 12.0000000  0 19G 2G 5G29G12G21G25R 6R20R19R21R12R 5
                                R11R 4R10S35S33S38S31
  22324381.641   117700022.504       -1781.773          44.000    22324387.109  
  92504605.762       -1388.340          32.000                  
  20351546.680   109137333.379        -452.211          49.000    20351554.625  
  83967638.527        -352.363          36.000    20351555.312  
  21064114.453   108819136.641        2009.172          48.000    21064122.617  
  83787239.668        1565.609          35.000    21064123.492  
  22406435.117   117897068.051       -3360.219          47.000    22406443.586  
  92655893.562       -2618.344          33.000    22406444.531  
  24768718.758   133985208.320        2283.914          40.000    24768728.766  
 100737950.918        1779.734          20.000                  
  21583464.062   109248438.320       -1500.863          44.000    21583474.062  
  92470903.652       -1169.488          31.000    21583474.906  
  22253951.336   116926950.805        4289.473          38.000                  
                                                                
  20147162.406   109128625.242        -384.680          40.000    20147167.531  
  83959357.055        -299.004          44.000                  
                                                                  23153600.336  
  92542107.254       -2041.305          39.000                  
  21474806.102   117176808.000        2388.473          43.000    21474809.133  
  92087294.680        1858.172          42.000                  
  23533106.562   125648372.473        1832.312          41.000                  
                                                                
  20029703.625   108941821.984        1016.809          46.000    20029707.477  
  83814599.164         790.883          43.000                  
  22094322.500   117558957.066        -752.852          44.000    22094327.312  
  92379077.246        -585.504          42.000                  
  21840055.633   117818224.969       -2718.605          42.000    21840055.992  
  92574710.543       -2114.465          41.000                  
  22718449.102   117905302.484       -3731.941          40.000    22718458.859  
  92663318.043       -2902.680          36.000                  
                                                        43.000                  
                                                                
  37944792.430   201365186.695          -2.781          44.000                  
                                                                
  37471610.688   192980005.969          -5.426          44.000                  
                                                                
                                                        43.000                  
                                                                
 19  6 11 23 20 13.0000000  0 19G 2G 5G29G12G21G25R 6R20R19R21R12R 5
                                R11R 4R10S35S33S38S31
  22324720.250   117701803.145       -1781.031          44.000    22324725.930  
  92505993.262       -1387.809          32.000                  
  20351632.555   109137784.398        -452.270          49.000    20351640.414  
  83967989.965        -352.441          36.000    20351641.500  
  21063731.719   108817126.262        2009.141          48.000    21063740.086  
  83785673.133        1565.590          35.000    21063740.859  
  22407074.180   117900427.125       -3360.277          47.000    22407082.742  
  92658511.020       -2618.434          33.000    22407084.281  
  24768283.828   133982923.516        2284.551          40.000    24768294.477  
 100736170.555        1780.301          20.000                  
  21583749.312   109249937.855       -1501.070          44.000    21583759.430  
  92472072.129       -1169.715          31.000    21583760.367  
  22253147.430   116922662.250        4287.234          39.000                  
                                                                
  20147233.594   109129008.398        -384.527          39.000    20147239.297  
  83959655.066        -298.836          44.000                  
                                                                  23154091.273  
  92544147.820       -2041.680          39.000                  
  21474359.211   117174417.938        2388.797          43.000    21474362.508  
  92085435.750        1858.430          42.000                  
  23532763.750   125646539.148        1831.586          41.000                  
                                                                
  20029513.172   108940804.039        1016.219          46.000    20029517.094  
  83813807.426         790.375          43.000                  
  22094463.211   117559708.809        -753.164          44.000    22094467.820  
  92379661.930        -585.766          42.000                  
  21840563.211   117820942.250       -2719.172          42.000    21840563.594  
  92576823.980       -2114.902          40.000                  
  22719148.586   117909031.305       -3730.004          41.000    22719158.789  
  92666218.215       -2901.082          35.000                  
                                                        43.000                  
                                                                
  37944792.672   201365187.789           0.996          44.000                  
                                                                
  37471612.297   192980010.605          -1.930          44.000                  
                                                                
                                                        43.000                  
                                                                
 19  6 11 23 20 14.0000000  0 19G 2G 5G29G12G21G25R 6R20R19R21R12R 5
                                R11R 4R10S35S33S38S31
  22325059.492   117703584.789       -1780.852          44.000    22325064.945  
  92507381.570       -1387.676          31.000                  
  20351718.773   109138236.988        -452.453          49.000    20351726.555  
  83968342.633        -352.562          36.000    20351727.578  
  21063349.320   108815117.082        2009.676          48.000    21063357.672  
  83784107.539        1565.984          35.000    21063359.141  
  22407713.625   117903787.398       -3359.691          47.000    22407722.234  
  92661129.410       -2617.906          33.000    22407723.430  
  24767848.859   133980639.742        2284.387          40.000    24767860.148  
 100734390.988        1780.285          20.000                  
  21584034.938   109251438.887       -1500.168          44.000    21584044.953  
  92473241.758       -1168.961          31.000    21584046.039  
  22252344.258   116918374.855        4286.629          38.000                  
                                                                
  20147305.656   109129392.789        -384.023          40.000    20147311.125  
  83959954.031        -298.480          44.000                  
                                                                  23154582.133  
  92546189.176       -2040.523          39.000                  
  21473912.734   117172028.887        2389.484          44.000    21473916.016  
  92083577.621        1858.430          42.000                  
  23532420.930   125644707.477        1832.121          41.000                  
                                                                
  20029322.977   108939787.910        1016.285          46.000    20029327.000  
  83813017.102         790.457          43.000                  
  22094604.289   117560462.297        -753.160          44.000    22094608.992  
  92380247.973        -585.754          42.000                  
  21841071.133   117823661.113       -2718.637          43.000    21841071.453  
  92578938.645       -2114.469          41.000                  
  22719848.094   117912761.309       -3729.773          41.000    22719858.688  
  92669119.328       -2900.977          36.000                  
                                                        44.000                  
                                                                
  37944793.031   201365189.797          -1.070          44.000                  
                                                                
  37471614.070   192980016.230          -4.188          44.000                  
                                                                
                                                        43.000                  
                                                                
 19  6 11 23 20 15.0000000  0 19G 2G 5G29G12G21G25R 6R20R19R21R12R 5
                                R11R 4R10S35S33S38S31
  22325398.156   117705364.020       -1780.566          43.000    22325403.508  
  92508767.984       -1387.465          32.000                  
  20351804.625   109138687.703        -452.223          49.000    20351812.312  
  83968693.840        -352.379          35.000    20351813.578  
  21062966.516   108813105.672        2009.801          48.000    21062974.930  
  83782540.211        1566.070          35.000    21062975.391  
  22408352.703   117907145.449       -3359.465          47.000    22408361.258  
  92663746.082       -2617.812          33.000    22408362.641  
  24767413.984   133978353.531        2283.250          41.000    24767425.383  
 100732609.473        1779.148          20.000                  
  21584320.133   109252938.012       -1500.488          44.000    21584330.180  
  92474409.910       -1169.258          31.000    21584331.125  
  22251540.359   116914085.082        4288.414          38.000                  
                                                                
  20147376.766   109129774.887        -383.914          39.000    20147382.414  
  83960251.211        -298.000          44.000                  
                                                                  23155072.188  
  92548228.680       -2040.363          39.000                  
  21473465.664   117169637.359        2390.309          44.000    21473469.047  
  92081717.523        1859.391          42.000                  
  23532077.828   125642874.008        1831.891          41.000                  
                                                                
  20029132.547   108938770.117        1015.879          46.000    20029136.398  
  83812225.492         790.117          43.000                  
  22094744.891   117561214.047        -753.703          44.000    22094749.500  
  92380832.664        -586.211          42.000                  
  21841578.492   117826378.074       -2718.500          43.000    21841578.883  
  92581051.844       -2114.375          41.000                  
  22720547.305   117916489.047       -3728.758          41.000    22720557.836  
  92672018.680       -2900.102          36.000                  
                                                        43.000                  
                                                                
  37944793.391   201365189.273          -1.387          44.000                  
                                                                
  37471615.422   192980019.395          -5.508          44.000                  
                                                                
                                                        43.000                  
                                                                
 19  6 11 23 20 16.0000000  0 19G 2G 5G29G12G21G25R 6R20R19R21R12R 5
                                R11R 4R10S35S33S38S31
  22325736.297   117707145.309       -1781.223          43.000    22325742.398  
  92510156.000       -1387.984          30.000                  
  20351890.523   109139141.008        -453.504          49.000    20351898.500  
  83969047.062        -353.352          34.000    20351899.219  
  21062583.836   108811096.477        2009.125          48.000    21062592.555  
  83780974.605        1565.512          33.000    21062593.672  
  22408991.711   117910505.738       -3360.270          47.000    22409000.594  
  92666364.484       -2618.398          31.000    22409001.938  
  24766978.438   133976069.406        2284.059          40.000    24766990.992  
 100730829.648        1779.945          20.000                  
  21584605.250   109254439.688       -1501.633          44.000    21584615.992  
  92475580.059       -1170.055          30.000    21584617.016  
  22250736.078   116909797.531        4287.500          38.000                  
                                                                
  20147448.828   109130159.254        -384.797          39.000    20147454.156  
  83960550.184        -298.980          44.000                  
                                                                  23155562.711  
  92550269.863       -2040.961          39.000                  
  21473019.062   117167247.934        2389.324          43.000    21473022.602  
  92079859.082        1858.836          42.000                  
  23531734.758   125641043.246        1829.977          41.000                  
                                                                
  20028942.523   108937755.184        1014.328          46.000    20028946.648  
  83811436.102         788.918          43.000                  
  22094886.055   117561968.590        -755.086          45.000    22094890.773  
  92381419.539        -587.293          42.000                  
  21842086.547   117829097.699       -2720.113          42.000    21842086.492  
  92583167.109       -2115.625          41.000                  
  22721247.008   117920219.020       -3728.375          41.000    22721257.492  
  92674919.742       -2899.719          35.000                  
                                                        43.000                  
                                                                
  37944793.094   201365190.680          -3.027          44.000                  
                                                                
  37471615.930   192980024.512          -6.941          44.000                  
                                                                
                                                        43.000                  
                                                                
 19  6 11 23 20 17.0000000  0 19G 2G 5G29G12G21G25R 6R20R19R21R12R 5
                                R11R 4R10S35S33S38S31
  22326076.141   117708926.895       -1781.230          44.000    22326081.367  
  92511544.258       -1388.031          31.000                  
  20351976.984   109139595.164        -454.031          49.000    20351984.938  
  83969400.949        -353.832          36.000    20351986.469  
  21062202.047   108809087.781        2009.109          48.000    21062210.273  
  83779409.375        1565.539          35.000    21062211.398  
  22409631.547   117913866.516       -3360.539          47.000    22409640.188  
  92668983.266       -2618.629          33.000    22409641.273  
  24766544.766   133973785.562        2284.531          40.000    24766556.055  
 100729050.059        1780.109          20.000                  
  21584891.562   109255942.180       -1502.285          44.000    21584901.898  
  92476750.805       -1170.672          31.000    21584903.008  
  22249932.680   116905510.410        4286.570          38.000                  
                                                                
  20147520.961   109130544.129        -384.137          40.000    20147526.516  
  83960849.523        -298.977          44.000                  
                                                                  23156053.555  
  92552311.309       -2041.387          40.000                  
  21472572.914   117164858.832        2389.461          44.000    21472576.133  
  92078000.898        1858.641          42.000                  
  23531392.117   125639213.414        1829.648          41.000                  
                                                                
  20028753.039   108936741.340        1013.941          46.000    20028756.922  
  83810647.547         788.617          43.000                  
  22095027.688   117562724.168        -755.219          44.000    22095032.172  
  92382007.199        -587.387          42.000                  
  21842594.836   117831818.156       -2720.270          43.000    21842594.664  
  92585283.012       -2115.734          41.000                  
  22721947.273   117923949.441       -3729.996          41.000    22721957.680  
  92677821.191       -2901.066          36.000                  
                                                        43.000                  
                                                                
  37944793.875   201365192.355           2.176          44.000                  
                                                                
  37471617.664   192980029.852          -1.391          44.000                  
                                                                
                                                        43.000                  
                                                                
 19  6 11 23 20 18.0000000  0 19G 2G 5G29G12G21G25R 6R20R19R21R12R 5
                                R11R 4R10S35S33S38S31
  22326415.172   117710708.102       -1781.340          44.000    22326420.234  
  92512932.219       -1388.059          31.000                  
  20352063.531   109140049.484        -454.633          49.000    20352071.344  
  83969754.973        -354.227          36.000    20352072.297  
  21061819.625   108807078.898        2008.953          48.000    21061828.031  
  83777844.023        1565.434          35.000    21061828.945  
  22410270.992   117917227.094       -3360.539          47.000    22410279.594  
  92671601.902       -2618.574          32.000    22410280.891  
  24766109.977   133971501.352        2284.047          40.000    24766121.539  
 100727270.195        1779.676          20.000                  
  21585177.695   109257444.785       -1502.832          44.000    21585187.906  
  92477921.680       -1171.012          31.000    21585188.711  
  22249129.461   116901223.023        4287.180          38.000                  
                                                                
  20147592.852   109130928.789        -384.441          39.000    20147598.273  
  83961148.715        -299.070          44.000                  
                                                                  23156543.883  
  92554352.449       -2041.223          39.000                  
  21472126.258   117162469.297        2389.555          44.000    21472129.438  
  92076142.379        1858.441          42.000                  
  23531049.398   125637383.805        1829.398          40.000                  
                                                                
  20028563.398   108935727.914        1013.211          46.000    20028567.211  
  83809859.328         788.070          43.000                  
  22095169.125   117563480.070        -756.223          45.000    22095173.812  
  92382595.129        -588.137          42.000                  
  21843102.867   117834538.785       -2721.359          43.000    21843102.797  
  92587399.062       -2116.652          41.000                  
  22722646.961   117927679.633       -3729.816          41.000    22722657.312  
  92680722.445       -2900.969          36.000                  
                                                        43.000                  
                                                                
  37944794.414   201365193.520          -2.469          44.000                  
                                                                
  37471618.672   192980034.711          -6.066          44.000                  
                                                                
                                                        43.000                  
                                                                
 19  6 11 23 20 19.0000000  0 19G 2G 5G29G12G21G25R 6R20R19R21R12R 5
                                R11R 4R10S35S33S38S31
  22326754.078   117712489.512       -1780.746          43.000    22326759.266  
  92514320.312       -1387.578          32.000                  
  20352150.266   109140504.562        -454.828          49.000    20352157.938  
  83970109.570        -354.383          36.000    20352159.414  
  21061437.484   108805070.402        2008.840          48.000    21061445.828  
  83776278.957        1565.297          35.000    21061447.289  
  22410910.695   117920588.078       -3360.645          47.000    22410919.141  
  92674220.848       -2618.656          33.000    22410920.383  
  24765675.070   133969217.371        2284.000          41.000    24765686.828  
 100725490.398        1779.859          20.000                  
  21585463.750   109258948.109       -1502.531          44.000    21585473.961  
  92479093.094       -1170.746          31.000    21585475.414  
  22248326.219   116896935.980        4285.797          38.000                  
                                                                
  20147664.367   109131313.871        -384.805          40.000    20147670.391  
  83961448.219        -299.180          44.000                  
                                                                  23157034.633  
  92556393.801       -2040.645          40.000                  
  21471679.992   117160079.934        2389.762          44.000    21471682.898  
  92074283.988        1858.586          42.000                  
  23530707.461   125635555.055        1828.938          41.000                  
                                                                
  20028374.031   108934715.500        1012.453          46.000    20028377.945  
  83809071.902         787.434          43.000                  
  22095310.797   117564236.871        -756.914          44.000    22095315.141  
  92383183.750        -588.707          42.000                  
  21843611.242   117837260.207       -2722.035          43.000    21843611.297  
  92589515.730       -2117.203          41.000                  
  22723346.664   117931410.203       -3731.297          40.000    22723356.688  
  92683624.004       -2902.219          36.000                  
                                                        43.000                  
                                                                
  37944794.688   201365194.766          -1.461          43.000                  
                                                                
  37471620.945   192980039.582          -4.941          44.000                  
                                                                
                                                        43.000                  
                                                                
 19  6 11 23 20 20.0000000  0 19G 2G 5G29G12G21G25R 6R20R19R21R12R 5
                                R11R 4R10S35S33S38S31
  22327093.273   117714270.625       -1782.145          43.000    22327098.172  
  92515708.195       -1388.676          31.000                  
  20352237.000   109140959.879        -456.781          49.000    20352244.578  
  83970464.379        -355.938          36.000    20352245.516  
  21061055.297   108803061.797        2007.316          48.000    21061063.695  
  83774713.820        1564.129          35.000    21061064.766  
  22411550.242   117923948.934       -3362.113          47.000    22411558.656  
  92676839.703       -2619.883          32.000    22411559.984  
  24765241.102   133966933.059        2283.398          40.000    24765252.383  
 100723710.445        1779.059          20.000                  
  21585749.781   109260451.602       -1504.742          44.000    21585760.156  
  92480264.652       -1172.586          31.000    21585761.492  
  22247522.570   116892648.785        4286.719          38.000                  
                                                                
  20147736.539   109131698.840        -386.922          40.000    20147742.336  
  83961747.629        -300.406          44.000                  
                                                                  23157525.016  
  92558434.926       -2042.004          39.000                  
  21471233.461   117157690.258        2388.129          44.000    21471236.383  
  92072425.340        1857.742          42.000                  
  23530365.000   125633726.621        1826.500          41.000                  
                                                                
  20028184.578   108933703.555        1010.250          46.000    20028188.664  
  83808284.832         785.758          43.000                  
  22095452.469   117564994.070        -758.883          45.000    22095456.977  
  92383772.680        -590.254          42.000                  
  21844119.328   117839981.910       -2723.434          42.000    21844119.797  
  92591632.605       -2118.160          41.000                  
  22724046.508   117935140.637       -3732.027          41.000    22724055.602  
  92686525.445       -2902.684          35.000                  
                                                        43.000                  
                                                                
  37944795.250   201365195.555          -3.789          44.000                  
                                                                
  37471622.023   192980043.957          -6.387          44.000                  
                                                                
                                                        44.000                  
                                                                
 19  6 11 23 20 21.0000000  0 19G 2G 5G29G12G21G25R 6R20R19R21R12R 5
                                R11R 4R10S35S33S38S31
  22327431.688   117716051.551       -1782.297          44.000    22327437.141  
  92517095.918       -1388.785          31.000                  
  20352323.859   109141415.551        -457.430          49.000    20352331.312  
  83970819.434        -356.422          36.000    20352332.164  
  21060673.117   108801053.180        2007.102          48.000    21060681.531  
  83773148.652        1564.004          35.000    21060682.125  
  22412189.867   117927309.785       -3362.375          47.000    22412198.227  
  92679458.535       -2620.059          33.000    22412199.508  
  24764806.703   133964648.578        2282.852          40.000    24764817.422  
 100721930.305        1778.812          20.000                  
  21586036.078   109261955.414       -1505.305          44.000    21586046.344  
  92481436.457       -1172.918          31.000    21586047.664  
  22246719.758   116888361.520        4287.641          38.000                  
                                                                
  20147808.367   109132083.746        -387.008          40.000    20147814.344  
  83962047.004        -300.609          44.000                  
                                                                  23158015.484  
  92560475.949       -2042.117          39.000                  
  21470786.781   117155300.422        2388.082          44.000    21470789.891  
  92070566.590        1857.492          42.000                  
  23530022.891   125631898.609        1826.109          40.000                  
                                                                
  20027995.500   108932692.160        1009.461          46.000    20027999.383  
  83807498.191         785.129          43.000                  
  22095594.328   117565751.789        -759.918          45.000    22095598.922  
  92384362.016        -591.074          43.000                  
  21844627.586   117842703.984       -2724.215          42.000    21844628.016  
  92593749.781       -2118.852          41.000                  
  22724746.383   117938870.965       -3731.875          41.000    22724755.562  
  92689426.812       -2902.559          36.000                  
                                                        43.000                  
                                                                
  37944795.312   201365196.129          -2.422          44.000                  
                                                                
  37471623.367   192980047.996          -5.645          44.000                  
                                                                
                                                        44.000                  
                                                                
 19  6 11 23 20 22.0000000  0 19G 2G 5G29G12G21G25R 6R20R19R21R12R 5
                                R11R 4R10S35S33S38S31
  22327770.938   117717833.656       -1782.336          44.000    22327776.305  
  92518484.586       -1388.844          31.000                  
  20352410.766   109141872.973        -458.238          49.000    20352418.273  
  83971175.875        -357.070          36.000    20352419.188  
  21060291.023   108799045.941        2006.656          48.000    21060299.531  
  83771584.578        1563.629          35.000    21060300.961  
  22412829.977   117930672.023       -3362.609          47.000    22412837.984  
  92682078.465       -2620.164          32.000    22412838.938  
  24764371.703   133962365.281        2283.141          40.000    24764382.734  
 100720151.113        1779.051          20.000                  
  21586322.516   109263460.938       -1506.078          44.000    21586332.836  
  92482609.582       -1173.570          31.000    21586333.867  
  22245916.172   116884075.605        4285.062          38.000                  
                                                                
  20147881.000   109132470.070        -386.066          40.000    20147886.617  
  83962347.484        -300.930          44.000                  
                                                                  23158505.828  
  92562517.949       -2042.602          39.000                  
  21470340.500   117152911.820        2387.969          44.000    21470343.375  
  92068708.793        1857.371          42.000                  
  23529680.844   125630072.488        1825.863          41.000                  
                                                                
  20027806.562   108931682.789        1008.227          46.000    20027810.586  
  83806713.125         784.164          43.000                  
  22095736.414   117566511.469        -760.844          44.000    22095741.156  
  92384952.879        -591.762          42.000                  
  21845135.945   117845427.871       -2724.258          42.000    21845136.891  
  92595868.355       -2118.816          41.000                  
  22725446.414   117942602.703       -3731.723          41.000    22725455.320  
  92692329.270       -2902.422          36.000                  
                                                        43.000                  
                                                                
  37944795.258   201365197.789          -3.195          44.000                  
                                                                
  37471625.016   192980053.047          -6.418          44.000                  
                                                                
                                                        44.000                  
                                                                
 19  6 11 23 20 23.0000000  0 19G 2G 5G29G12G21G25R 6R20R19R21R12R 5
                                R11R 4R10S35S33S38S31
  22328109.953   117719616.773       -1781.586          44.000    22328115.617  
  92519874.031       -1388.320          31.000                  
  20352498.008   109142331.914        -457.699          49.000    20352505.664  
  83971533.488        -356.652          36.000    20352506.898  
  21059909.312   108797039.887        2007.570          48.000    21059917.773  
  83770021.422        1564.277          35.000    21059919.086  
  22413469.414   117934035.438       -3361.980          46.000    22413478.008  
  92684699.309       -2619.734          32.000    22413479.484  
  24763937.430   133960082.996        2283.641          40.000    24763948.461  
 100718372.738        1779.387          20.000                  
  21586609.453   109264967.957       -1504.461          44.000    21586619.633  
  92483783.879       -1172.262          30.000    21586620.750  
  22245113.438   116879790.828        4286.523          38.000                  
                                                                
  20147953.523   109132857.574        -385.938          40.000    20147959.008  
  83962648.879        -300.234          44.000                  
                                                                  23158996.984  
  92564560.777       -2041.555          39.000                  
  21469894.320   117150524.203        2389.043          44.000    21469897.211  
  92066851.738        1858.230          42.000                  
  23529339.539   125628247.988        1824.980          41.000                  
                                                                
  20027618.211   108930675.215        1008.695          46.000    20027622.078  
  83805929.457         784.547          43.000                  
  22095878.867   117567272.840        -760.152          44.000    22095883.680  
  92385545.051        -591.238          42.000                  
  21845644.773   117848153.289       -2724.168          42.000    21845645.562  
  92597988.113       -2118.824          42.000                  
  22726146.688   117946335.574       -3730.516          41.000    22726156.312  
  92695232.598       -2901.488          36.000                  
                                                        44.000                  
                                                                
  37944796.062   201365200.324          -3.594          44.000                  
                                                                
  37471626.750   192980058.879          -6.484          44.000                  
                                                                
                                                        43.000                  
                                                                
 19  6 11 23 20 24.0000000  0 19G 2G 5G29G12G21G25R 6R20R19R21R12R 5
                                R11R 4R10S35S33S38S31
  22328448.648   117721398.441       -1781.730          44.000    22328454.703  
  92521262.340       -1388.398          32.000                  
  20352585.281   109142789.957        -458.332          49.000    20352592.836  
  83971890.402        -357.133          36.000    20352594.195  
  21059527.391   108795032.570        2007.180          48.000    21059535.758  
  83768457.270        1563.977          35.000    21059536.781  
  22414109.430   117937397.598       -3362.453          46.000    22414117.805  
  92687319.164       -2620.074          32.000    22414119.367  
  24763502.828   133957799.238        2283.492          40.000    24763513.719  
 100716593.148        1779.383          20.000                  
  21586896.195   109266474.016       -1506.641          44.000    21586906.180  
  92484957.441       -1174.047          31.000    21586906.945  
  22244310.336   116875504.723        4285.336          38.000                  
                                                                
  20148025.727   109133243.805        -386.406          40.000    20148031.227  
  83962949.277        -300.488          44.000                  
                                                                  23159487.594  
  92566602.500       -2042.266          39.000                  
  21469447.633   117148135.074        2389.086          43.000    21469450.758  
  92064993.527        1858.426          42.000                  
  23528997.672   125626422.664        1824.668          41.000                  
                                                                
  20027429.547   108929666.988        1007.746          46.000    20027433.500  
  83805145.281         783.781          43.000                  
  22096021.312   117568033.449        -761.074          44.000    22096025.852  
  92386136.637        -591.996          42.000                  
  21846153.266   117850877.805       -2725.500          42.000    21846154.492  
  92600107.195       -2119.883          42.000                  
  22726846.516   117950067.145       -3732.105          41.000    22726856.188  
  92698134.941       -2902.801          36.000                  
                                                        43.000                  
                                                                
  37944796.336   201365201.305          -4.570          44.000                  
                                                                
  37471628.539   192980063.113          -6.504          44.000                  
                                                                
                                                        44.000                  
                                                                
 19  6 11 23 20 25.0000000  0 19G 2G 5G29G12G21G25R 6R20R19R21R12R 5
                                R11R 4R10S35S33S38S31
  22328788.727   117723182.344       -1782.453          43.000    22328794.109  
  92522652.395       -1388.980          32.000                  
  20352672.867   109143250.777        -459.410          49.000    20352680.555  
  83972249.480        -357.984          36.000    20352681.906  
  21059145.844   108793027.660        2006.492          48.000    21059154.266  
  83766895.012        1563.484          35.000    21059155.273  
  22414749.859   117940762.156       -3362.867          47.000    22414758.141  
  92689940.891       -2620.422          32.000    22414758.922  
  24763068.578   133955517.715        2283.664          41.000    24763079.383  
 100714815.348        1779.445          20.000                  
  21587183.289   109267982.785       -1507.340          43.000    21587193.430  
  92486133.098       -1174.496          31.000    21587194.430  
  22243507.305   116871221.027        4284.676          38.000                  
                                                                
  20148098.703   109133632.480        -386.785          40.000    20148104.102  
  83963251.574        -300.766          44.000                  
                                                                  23159979.070  
  92568645.984       -2042.035          39.000                  
  21469001.484   117145748.191        2388.797          44.000    21469004.930  
  92063137.066        1858.230          42.000                  
  23528656.344   125624600.273        1823.914          41.000                  
                                                                
  20027241.531   108928661.812        1006.434          46.000    20027245.438  
  83804363.477         782.754          43.000                  
  22096164.070   117568797.020        -762.016          44.000    22096168.773  
  92386730.520        -592.684          42.000                  
  21846662.453   117853605.117       -2726.156          42.000    21846664.086  
  92602228.434       -2120.320          42.000                  
  22727546.820   117953801.121       -3731.957          41.000    22727557.031  
  92701039.141       -2902.637          36.000                  
                                                        43.000                  
                                                                
  37944796.727   201365204.441          -0.281          44.000                  
                                                                
  37471629.906   192980069.523          -2.645          45.000                  
                                                                
                                                        44.000                  
                                                                
 19  6 11 23 20 26.0000000  0 19G 2G 5G29G12G21G25R 6R20R19R21R12R 5
                                R11R 4R10S35S33S38S31
  22329127.836   117724965.172       -1781.828          44.000    22329133.422  
  92524041.602       -1388.348          31.000                  
  20352760.594   109143711.082        -459.555          49.000    20352768.141  
  83972608.168        -358.066          36.000    20352769.164  
  21058764.109   108791021.879        2006.883          48.000    21058772.562  
  83765332.066        1563.797          35.000    21058773.664  
  22415389.656   117944125.844       -3362.777          47.000    22415398.211  
  92692561.957       -2620.324          32.000    22415399.367  
  24762634.680   133953235.160        2283.355          41.000    24762645.266  
 100713036.762        1779.215          20.000                  
  21587470.180   109269491.012       -1507.289          44.000    21587480.383  
  92487308.340       -1174.496          31.000    21587481.617  
  22242704.508   116866936.309        4285.953          39.000                  
                                                                
  20148171.320   109134020.250        -386.555          40.000    20148176.648  
  83963553.195        -300.984          44.000                  
                                                                  23160469.914  
  92570688.676       -2041.766          39.000                  
  21468555.328   117143360.238        2389.160          44.000    21468558.695  
  92061279.781        1858.062          42.000                  
  23528314.828   125622777.395        1822.504          40.000                  
                                                                
  20027053.477   108927656.312        1006.133          46.000    20027057.430  
  83803581.422         782.559          43.000                  
  22096306.672   117569560.223        -762.531          44.000    22096311.688  
  92387324.125        -593.094          42.000                  
  21847171.539   117856331.922       -2726.105          42.000    21847173.234  
  92604349.273       -2120.270          41.000                  
  22728246.984   117957534.184       -3732.141          41.000    22728258.172  
  92703942.625       -2902.758          36.000                  
                                                        44.000                  
                                                                
  37944797.938   201365206.352           0.152          44.000                  
                                                                
  37471631.945   192980074.902          -3.426          44.000                  
                                                                
                                                        44.000                  
                                                                
 19  6 11 23 20 27.0000000  0 19G 2G 5G29G12G21G25R 6R20R19R21R12R 5
                                R11R 4R10S35S33S38S31
  22329467.195   117726747.234       -1783.188          43.000    22329472.500  
  92525430.230       -1389.488          32.000                  
  20352848.258   109144171.168        -461.559          49.000    20352855.711  
  83972966.680        -359.652          36.000    20352856.688  
  21058382.242   108789015.535        2005.070          48.000    21058390.742  
  83763768.676        1562.391          35.000    21058391.688  
  22416029.953   117947488.969       -3364.602          47.000    22416038.234  
  92695182.574       -2621.793          33.000    22416039.016  
  24762199.688   133950951.844        2282.152          41.000    24762210.719  
 100711257.559        1778.039          20.000                  
  21587757.117   109270998.969       -1509.449          44.000    21587767.312  
  92488483.371       -1176.199          31.000    21587768.555  
  22241901.102   116862650.992        4284.961          38.000                  
                                                                
  20148243.562   109134407.477        -389.664          40.000    20148249.109  
  83963854.344        -302.117          44.000                  
                                                                  23160961.023  
  92572730.770       -2043.035          39.000                  
  21468108.648   117140971.508        2387.590          44.000    21468112.352  
  92059421.871        1856.984          42.000                  
  23527973.805   125620954.457        1821.836          41.000                  
                                                                
  20026865.461   108926650.844        1003.824          46.000    20026869.328  
  83802799.395         780.766          43.000                  
  22096449.477   117570323.391        -764.898          44.000    22096454.148  
  92387917.699        -594.926          42.000                  
  21847680.719   117859058.531       -2728.219          42.000    21847682.180  
  92606469.969       -2121.859          42.000                  
  22728947.227   117961266.629       -3734.234          40.000    22728958.672  
  92706845.633       -2904.367          35.000                  
                                                        43.000                  
                                                                
  37944798.422   201365207.430          -1.219          44.000                  
                                                                
  37471633.289   192980079.430          -4.883          44.000                  
                                                                
                                                        44.000                  
                                                                
 19  6 11 23 20 28.0000000  0 19G 2G 5G29G12G21G25R 6R20R19R21R12R 5
                                R11R 4R10S35S33S38S31
  22329805.930   117728530.020       -1782.883          44.000    22329811.742  
  92526819.410       -1389.273          31.000                  
  20352936.023   109144632.523        -461.887          49.000    20352943.500  
  83973326.168        -359.941          36.000    20352945.102  
  21058000.633   108787010.086        2005.105          48.000    21058009.164  
  83762205.988        1562.410          35.000    21058010.305  
  22416669.867   117950852.984       -3364.262          47.000    22416678.508  
  92697803.879       -2621.504          33.000    22416679.367  
  24761765.227   133948669.230        2282.488          40.000    24761776.359  
 100709478.902        1778.562          20.000                  
  21588044.164   109272508.168       -1509.820          44.000    21588054.547  
  92489659.379       -1176.469          31.000    21588056.016  
  22241098.336   116858366.520        4284.750          38.000                  
                                                                
  20148316.266   109134795.578        -389.594          40.000    20148321.773  
  83964156.203        -301.867          44.000                  
                                                                  23161451.781  
  92574773.469       -2042.578          40.000                  
  21467662.102   117138583.469        2387.734          43.000    21467666.133  
  92057564.508        1857.113          42.000                  
  23527632.609   125619132.844        1820.902          40.000                  
                                                                
  20026677.641   108925646.875        1003.270          46.000    20026681.508  
  83802018.531         780.316          43.000                  
  22096592.820   117571087.973        -764.887          44.000    22096597.219  
  92388512.379        -594.945          42.000                  
  21848190.125   117861786.398       -2729.109          42.000    21848191.586  
  92608591.656       -2122.688          42.000                  
  22729647.852   117964999.922       -3733.609          40.000    22729659.164  
  92709749.305       -2903.941          35.000                  
                                                        44.000                  
                                                                
  37944799.164   201365209.145          -1.195          44.000                  
                                                                
  37471634.375   192980084.691          -5.195          44.000                  
                                                                
                                                        43.000                  
                                                                
 19  6 11 23 20 29.0000000  0 19G 2G 5G29G12G21G25R 6R20R19R21R12R 5
                                R11R 4R10S35S33S38S31
  22330145.375   117730311.953       -1783.621          44.000    22330150.898  
  92528207.926       -1389.859          31.000                  
  20353023.578   109145093.559        -462.754          49.000    20353031.227  
  83973685.414        -360.578          36.000    20353032.008  
  21057618.789   108785003.953        2004.562          48.000    21057627.383  
  83760642.762        1561.980          35.000    21057628.281  
  22417310.102   117954216.324       -3364.836          47.000    22417318.461  
  92700424.656       -2621.926          33.000    22417319.484  
  24761331.430   133946385.766        2283.227          41.000    24761341.445  
 100707699.508        1779.262          20.000                  
  21588331.297   109274016.969       -1510.523          44.000    21588341.633  
  92490835.059       -1177.027          31.000    21588343.164  
  22240295.492   116854081.281        4283.938          38.000                  
                                                                
  20148388.742   109135182.977        -388.945          40.000    20148394.219  
  83964457.520        -302.305          44.000                  
                                                                  23161942.648  
  92576815.516       -2043.383          40.000                  
  21467215.562   117136194.543        2387.320          44.000    21467219.688  
  92055706.453        1856.953          43.000                  
  23527291.633   125617310.988        1819.895          40.000                  
                                                                
  20026489.906   108924642.855        1002.055          46.000    20026493.672  
  83801237.625         779.414          44.000                  
  22096735.883   117571852.410        -766.340          44.000    22096740.555  
  92389106.941        -596.043          42.000                  
  21848699.883   117864513.996       -2729.574          42.000    21848701.359  
  92610713.121       -2122.996          42.000                  
  22730348.453   117968732.523       -3734.172          41.000    22730358.898  
  92712652.434       -2904.355          36.000                  
                                                        43.000                  
                                                                
  37944799.242   201365209.840          -0.352          44.000                  
                                                                
  37471635.656   192980089.094          -3.902          44.000                  
                                                                
                                                        43.000                  
                                                                
 19  6 11 23 20 30.0000000  0 19G 2G 5G29G12G21G25R 6R20R19R21R12R 5
                                R11R 4R10S35S33S38S31
  22330484.555   117732094.113       -1783.816          44.000    22330490.078  
  92529596.629       -1390.031          32.000                  
  20353111.352   109145555.387        -462.559          49.000    20353119.141  
  83974045.277        -360.430          36.000    20353120.352  
  21057237.430   108782998.254        2005.156          48.000    21057245.742  
  83759079.887        1562.445          35.000    21057246.445  
  22417950.109   117957580.109       -3364.203          47.000    22417958.477  
  92703045.785       -2621.480          33.000    22417959.648  
  24760896.844   133944102.535        2283.012          40.000                  
                                                                
  21588618.516   109275526.531       -1510.113          44.000    21588628.836  
  92492011.340       -1176.719          31.000    21588629.453  
  22239492.344   116849796.414        4283.148          38.000                  
                                                                
  20148461.508   109135570.820        -388.461          41.000    20148466.602  
  83964759.188        -302.039          44.000                  
                                                                  23162433.703  
  92578857.797       -2042.801          40.000                  
  21466769.383   117133805.875        2387.930          44.000    21466773.391  
  92053848.602        1857.695          43.000                  
  23526951.031   125615490.012        1821.223          40.000                  
                                                                
  20026302.312   108923639.867        1002.004          46.000    20026306.141  
  83800457.523         779.359          44.000                  
  22096878.898   117572617.781        -766.250          44.000    22096883.758  
  92389702.227        -595.953          42.000                  
  21849209.273   117867242.426       -2729.504          42.000    21849210.617  
  92612835.219       -2122.957          42.000                  
  22731049.086   117972465.484       -3734.234          41.000    22731058.984  
  92715555.852       -2904.441          35.000                  
                                                        43.000                  
                                                                
  37944799.328   201365210.609           1.031          44.000                  
                                                                
  37471637.430   192980093.609          -2.559          44.000                  
                                                                
                                                        43.000                  
                                                                
 19  6 11 23 20 31.0000000  0 19G 2G 5G29G12G21G25R 6R20R19R21R12R 5
                                R11R 4R10S35S33S38S31
  22330823.578   117733876.898       -1783.789          44.000    22330829.297  
  92530985.820       -1389.965          30.000                  
  20353199.336   109146018.359        -464.297          49.000    20353207.258  
  83974406.047        -361.797          34.000    20353208.656  
  21056855.359   108780993.340        2003.945          48.000    21056864.211  
  83757517.625        1561.512          34.000    21056865.047  
  22418590.078   117960944.668       -3365.527          47.000    22418598.773  
  92705667.527       -2622.531          31.000    22418600.055  
  24760461.172   133941819.906        2282.898          41.000                  
                                                                
  21588905.711   109277037.195       -1512.055          44.000    21588916.289  
  92493188.484       -1178.215          29.000    21588917.023  
  22238689.414   116845512.309        4283.070          37.000                  
                                                                
  20148533.609   109135959.461        -389.699          40.000    20148539.211  
  83965061.469        -303.090          44.000                  
                                                                  23162924.250  
  92580900.574       -2043.660          39.000                  
  21466323.156   117131417.789        2386.809          43.000    21466326.914  
  92051991.219        1856.227          42.000                  
  23526609.961   125613670.273        1818.098          40.000                  
                                                                
  20026114.477   108922638.262        1000.051          46.000    20026118.719  
  83799678.516         777.824          44.000                  
  22097022.289   117573384.480        -768.004          44.000    22097026.961  
  92390298.562        -597.352          42.000                  
  21849718.836   117869972.016       -2730.891          42.000    21849720.094  
  92614958.250       -2124.035          42.000                  
  22731749.461   117976199.258       -3735.039          41.000    22731759.086  
  92718459.887       -2905.090          35.000                  
                                                        43.000                  
                                                                
  37944798.242   201365211.859          -5.574          44.000                  
                                                                
  37471638.086   192980098.484          -9.098          44.000                  
                                                                
                                                        44.000                  
                                                                
