     2.11           OBSERVATION DATA    G (GPS)             RINEX VERSION / TYPE
teqc  2018Jun8      root                20191212 04:38:24UTCPGM / RUN BY / DATE
Linux 2.4.21-27.ELsmp|Opteron|gcc|Linux 64|=+               COMMENT
teqc  2019Feb25     CORS-ADM Account    20190427 20:47:30UTCCOMMENT
teqc  2018Jan11                         20190327 00:52:22UTCCOMMENT
Linux 2.4.21-27.ELsmp|Opteron|gcc -static|Linux 64|=+       COMMENT
     2.10           OBSERVATION DATA    G (GPS)             COMMENT
NSTB2RINEX 2.06     NOAA/NOS/NGS/CORS   20190327 00:51:29UTCCOMMENT
Forced Modulo Decimation to 30 seconds                      COMMENT
ZDV1                                                        MARKER NAME
Nathan Vary         FAA                                     OBSERVER / AGENCY
70C1                NOV WAASGII         2.003               REC # / TYPE / VERS
                    MPL_WAAS_2225NW NONE                    ANT # / TYPE
 -1273627.7060 -4711376.5660  4094889.9210                  APPROX POSITION XYZ
        0.0000        0.0000        0.0000                  ANTENNA: DELTA H/E/N
     1     1                                                WAVELENGTH FACT L1/2
     7    L1    L2    P1    P2    C1    S1    S2            # / TYPES OF OBSERV
    30.0000                                                 INTERVAL
teqc.w windowed: start @ 2019 Mar 26 19:00:00.000           COMMENT
teqc.w windowed:  end  @ 2019 Mar 26 22:00:00.000           COMMENT
teqc.w edited: all GLONASS satellites excluded              COMMENT
teqc.w edited: all SBAS satellites excluded                 COMMENT
teqc.w edited: all Galileo satellites excluded              COMMENT
teqc.w edited: all Beidou satellites excluded               COMMENT
teqc.w edited: all QZSS satellites excluded                 COMMENT
  2019     3    26    19     0    0.0000000     GPS         TIME OF FIRST OBS
    18                                                      LEAP SECONDS
                                                            END OF HEADER
 19  3 26 19  0  0.0000000  0 10G05G07G08G09G11G16G23G27G28G30
 129330732.4974  100777187.7884                   24610824.6954   24610820.6034
        43.3004         36.6004
 108754292.5354   84743605.5534                   20695248.8274   20695246.8624
        55.0004         46.3004
 111177992.4494   86632219.1114                   21156464.4524   21156459.1134
        50.6004         44.6004
 107987388.1084   84146010.4364                   20549319.2564   20549314.7664
        54.3004         49.0004
 131253788.9014  102275691.7234                   24976763.3634   24976759.0524
        40.3004         35.0004
 127069059.7784   99014856.9544                   24180442.5694   24180438.5194
        41.6004         37.0004
 117053088.1054   91210197.6734                   22274463.0754   22274461.6734
        49.6004         42.3004
 116022824.1734   90407407.4574                   22078404.7984   22078400.0334
        49.3004         46.6004
 121901143.6134   94987898.0104                   23197014.7264   23197007.1624
        41.6004         40.3004
 116323068.9574   90641350.3474                   22135539.6244   22135535.7764
        49.3004         44.6004
 19  3 26 19  0 30.0000000  0 10G05G07G08G09G11G16G23G27G28G30
 129328147.3244  100775173.3644                   24610331.9904   24610329.5654
        43.0004         34.6004
 108724965.1424   84720753.0484                   20689667.6054   20689665.7294
        55.0004         46.3004
 111158608.4554   86617114.7194                   21152775.9034   21152770.6554
        50.6004         44.3004
 108036695.9344   84184432.1044                   20558701.5264   20558697.0334
        54.0004         49.0004
 131159746.6614  102202412.1374                   24958868.2694   24958864.6464
        41.6004         35.0004
 127174797.0004   99097249.5154                   24200562.1514   24200557.8704
        39.3004         39.0004
 117147874.5104   91284057.1774                   22292499.2684   22292499.6394
        50.0004         41.6004
 116068595.5964   90443073.5034                   22087114.6574   22087109.8224
        49.0004         46.6004
 121820740.9794   94925246.6454                   23181712.8034   23181709.7344
        43.3004         38.0004
 116252947.6204   90586710.3654                   22122196.1124   22122191.9354
        49.6004         44.3004
 19  3 26 19  1  0.0000000  0 10G05G07G08G09G11G16G23G27G28G30
 129326087.0334  100773567.9184                   24609940.1134   24609936.5544
        42.3004         37.0004
 108695875.8004   84698086.0284                   20684131.9284   20684130.5244
        55.0004         46.3004
 111139837.8884   86602488.3164                   21149204.4594   21149198.3454
        50.6004         45.0004
 108086531.1344   84223264.7144                   20568185.0554   20568180.4154
        54.0004         49.0004
 131065659.7504  102129097.7094                   24940964.2214   24940960.0744
        42.0004         36.6004
 127280547.6674   99179652.5094                   24220686.3044   24220682.6564
        39.3004         40.3004
 117242977.4364   91358163.3274                   22310596.7394   22310595.4874
        49.3004         42.3004
 116114950.6394   90479194.3114                   22095936.6034   22095931.6204
        49.3004         47.0004
 121740587.3244   94862789.2834                   23166459.0734   23166456.8944
        44.0004         37.0004
 116182955.0884   90532170.7414                   22108877.4694   22108872.8924
        49.3004         45.0004
 19  3 26 19  1 30.0000000  0 10G05G07G08G09G11G16G23G27G28G30
 129324550.8814  100772370.9084                   24609647.0384   24609642.0764
        41.3004         36.6004
 108667025.6204   84675605.3724                   20678642.1364   20678640.3584
        55.0004         46.3004
 111121680.8974   86588340.0264                   21145749.1034   21145743.2054
        50.6004         44.6004
 108136892.2124   84262507.0994                   20577768.5424   20577763.5824
        54.0004         49.0004
 130971530.9394  102055750.6554                   24923052.3344   24923048.7804
        41.6004         35.3004
 127386309.6554   99262064.3724                   24240810.3674   24240809.4774
        40.6004         39.3004
 117338394.2654   91432514.0764                   22328754.5654   22328754.1234
        50.0004         42.0004
 116161887.3634   90515768.3804                   22104868.6814   22104863.7924
        49.3004         46.3004
 121660682.6854   94800525.9544                   23151255.8084   23151253.3074
        45.3004         38.0004
 116113092.1194   90477732.0964                   22095583.3454   22095578.4304
        49.6004         45.3004
 19  3 26 19  2  0.0000000  0 10G05G07G08G09G11G16G23G27G28G30
 129323538.1194  100771581.7184                   24609456.0764   24609449.4824
        41.0004         37.3004
 108638415.0734   84653311.4444                   20673198.1174   20673195.8344
        55.0004         47.0004
 111104138.2524   86574670.4364                   21142410.2114   21142405.1164
        50.6004         44.3004
 108187777.7934   84302158.1834                   20587451.9624   20587447.3044
        54.0004         49.0004
 130877362.9464  101982373.0744                   24905132.4844   24905128.7444
        40.3004         37.3004
 127492081.2574   99344483.7424                   24260938.7104   24260934.3334
        40.6004         40.3004
 117434122.7374   91507107.6444                   22346971.1384   22346969.8354
        49.0004         42.6004
 116209403.8954   90552794.2544                   22113911.1564   22113906.8314
        49.0004         46.6004
 121581027.4444   94738457.0094                   23136097.1074   23136094.6294
        44.6004         39.0004
 116043359.5004   90423395.0144                   22082313.2334   22082309.4084
        49.6004         45.3004
 19  3 26 19  2 30.0000000  0 10G05G07G08G09G11G16G23G27G28G30
 129323048.7654  100771200.3914                   24609361.8974   24609358.1794
        42.0004         36.6004
 108610046.3334   84631205.9414                   20667799.9694   20667797.5894
        55.3004         47.0004
 111087211.2864   86561480.6014                   21139188.8624   21139184.4264
        51.0004         44.0004
 108239187.0944   84342217.3634                   20597234.7064   20597230.0864
        54.0004         49.0004
 130783159.1004  101908967.5334                   24887206.2764   24887201.3934
        39.3004         36.3004
 127597861.5414   99426909.8794                   24281068.2254   24281063.3844
        41.0004         39.6004
 117530160.9784   91581942.6084                   22365246.6364   22365246.0214
        49.0004         42.3004
 116257499.0244   90590270.9714                   22123062.9674   22123057.8164
        48.3004         47.0004
 121501623.3564   94676583.7434                   23120988.7334   23120984.6364
        44.6004         39.0004
 115973758.7834   90369160.7084                   22069068.9234   22069064.4834
        49.6004         45.3004
 19  3 26 19  3  0.0000000  0 10G05G07G08G09G11G16G23G27G28G30
 129323082.0934  100771226.3664                   24609370.1264   24609364.0344
        42.3004         36.6004
 108581919.4154   84609288.8624                   20662448.0154   20662444.9934
        55.3004         47.3004
 111070900.2464   86548770.7034                   21136085.2764   21136079.8844
        51.0004         44.0004
 108291118.4034   84382683.3084                   20607116.8444   20607111.8654
        54.0004         48.6004
 130688921.3294  101835535.5944                   24869271.2704   24869268.4284
        39.6004         36.6004
 127703648.2974   99509341.1064                   24301197.6164   24301195.5254
        42.3004         37.0004
 117626506.2354   91657016.7834                   22383581.6174   22383578.4024
        48.0004         42.6004
 116306170.4974   90628196.7904                   22132324.7944   22132318.2084
        47.6004         47.6004
 121422470.2444   94614906.0424                   23105923.3944   23105922.5734
        45.6004         37.0004
 115904290.4774   90315029.5864                   22055848.7694   22055844.4604
        49.3004         45.3004
 19  3 26 19  3 30.0000000  0 10G05G07G08G09G11G16G23G27G28G30
 129323636.4574  100771658.3074                   24609474.8954   24609468.7884
        40.6004         37.6004
 108554035.3394   84587561.0164                   20657141.9034   20657139.2854
        55.3004         47.6004
 111055204.9964   86536540.6434                   21133098.3514   21133093.7534
        50.6004         44.0004
 108343569.5514   84423554.3214                   20617097.6354   20617093.4524
        54.0004         48.6004
 130594651.7144  101762078.8084                   24851334.3834   24851331.2964
        41.3004         35.6004
 127809439.2294   99591775.5764                   24321329.4994   24321328.2144
        42.3004         34.3004
 117723155.3324   91732327.7034                   22401972.3914   22401971.6564
        48.0004         42.0004
 116355415.6644   90666569.6654                   22141696.2344   22141691.3524
        48.6004         47.0004
 121343568.1274   94553423.8814                   23090910.2844   23090908.6414
        46.3004         36.6004
 115834954.8084   90261001.8044                   22042654.5874   22042649.9124
        49.0004         45.0004
 19  3 26 19  4  0.0000000  0 10G05G07G08G09G11G16G23G27G28G30
 129324711.9204  100772496.3234                   24609678.9814   24609673.0394
        41.6004         37.0004
 108526395.3364   84566023.3574                   20651882.0744   20651879.4424
        55.6004         47.6004
 111040126.6734   86524791.3094                   21130229.2944   21130223.7344
        50.6004         44.3004
 108396539.7434   84464829.7854                   20627177.4154   20627173.1524
        54.0004         48.3004
 130500353.7604  101688599.9654                   24833387.5154   24833386.5974
        42.3004         36.6004
 127915233.1324   99674212.4204                   24341461.6944   24341458.4954
        40.0004         36.0004
 117820106.7714   91807874.2504                   22420421.7934   22420419.9174
        48.0004         42.0004
 116405233.3124   90705388.6284                   22151176.3844   22151170.8644
        48.6004         47.0004
 121264918.6504   94492138.5994                   23075942.4144   23075941.3934
        46.0004         37.6004
 115765753.2924   90207078.5664                   22029486.4884   22029480.9124
        49.0004         46.0004
 19  3 26 19  4 30.0000000  0 10G05G07G08G09G11G16G23G27G28G30
 129326308.0514  100773740.0074                   24609981.8244   24609977.8674
        42.3004         36.0004
 108499001.0174   84544677.1374                   20646668.8224   20646666.8054
        55.6004         47.3004
 111025666.1094   86513523.3474                   21127477.5254   21127472.1104
        50.3004         44.6004
 108450027.9374   84506508.8844                   20637356.4214   20637351.7284
        53.6004         48.3004
 130406030.4834  101615101.3604                   24815439.3434   24815437.8644
        41.6004         36.6004
 128021028.5474   99756650.3674                   24361594.2314   24361589.0484
        36.6004         39.0004
 117917358.3874   91883654.6834                   22438928.6464   22438927.0684
        48.0004         41.6004
 116455621.9004   90744652.4724                   22160764.7194   22160758.3584
        47.6004         47.0004
 121186522.4494   94431050.7414                   23061025.4464   23061021.7534
        44.3004         39.0004
 115696687.2444   90153260.8944                   22016343.6674   22016338.9034
        49.0004         45.6004
 19  3 26 19  5  0.0000000  0 10G05G07G08G09G11G16G23G27G28G30
 129328424.9774  100775389.5424                   24610383.5764   24610378.2614
        39.6004         37.3004
 108471854.1344   84523523.7214                   20641502.9304   20641501.0224
        55.6004         47.3004
 111011824.3824   86502737.6004                   21124843.7944   21124838.4354
        50.6004         45.0004
 108504033.3694   84548591.0254                   20647633.3114   20647628.6484
        53.3004         48.3004
 130311685.3244  101541585.7424                   24797485.4004   24797483.2034
        40.6004         37.3004
 128126824.4144   99839088.5554                   24381728.0844   24381724.2524
        37.0004         38.6004
 118014908.5464   91959667.7544                   22457491.6394   22457489.8584
        48.0004         41.0004
 116506580.1634   90784360.2124                   22170461.6304   22170455.8844
        47.6004         46.0004
 121108381.0664   94370161.4434                   23046153.9054   23046151.5464
        44.6004         39.3004
 115627758.3324   90099550.0814                   22003226.6794   22003221.7814
        49.0004         45.6004
 19  3 26 19  5 30.0000000  0 10G05G07G08G09G11G16G23G27G28G30
 129331060.6664  100777443.3264                   24610885.8374   24610881.0854
        41.3004         36.3004
 108444954.2474   84502562.7764                   20636383.9404   20636381.3914
        55.3004         47.3004
 110998600.8004   86492433.5214                   21122328.4374   21122321.9584
        50.6004         45.3004
 108558553.2514   84591074.0344                   20658007.8904   20658003.3654
        53.3004         48.3004
 130217319.5234  101468054.0074                   24779531.3774   24779525.7244
        40.6004         38.0004
 128232617.8634   99921524.9534                   24401858.9484   24401855.8854
        40.0004         39.0004
 118112753.3704   92035910.4274                   22476110.1194   22476110.8924
        48.3004         40.3004
 116558104.8874   90824509.3364                   22180265.2544   22180259.9324
        47.3004         45.0004
 121030493.9094   94309470.1934                   23031332.9724   23031329.6914
        44.6004         38.3004
 115558966.2044   90045945.8314                   21990136.4114   21990131.1394
        49.0004         46.3004
 19  3 26 19  6  0.0000000  0 10G05G07G08G09G11G16G23G27G28G30
 129334214.5804  100779900.8364                   24611485.4664   24611482.6854
        42.6004         35.3004
 108418303.0244   84481795.5974                   20631312.2894   20631310.1754
        55.3004         47.0004
 110985996.3984   86482611.9174                   21119929.8294   21119923.3084
        50.6004         45.3004
 108613586.4334   84633957.0214                   20668480.6174   20668475.9834
        53.3004         48.3004
 130122936.5294  101394508.9044                   24761572.5294   24761566.1684
        40.3004         37.6004
 128338407.4174  100003958.3254                   24421989.3774   24421986.4704
        42.0004         38.6004
 118210890.7564   92112381.0824                   22494786.2344   22494786.0784
        49.0004         40.3004
 116610194.3834   90865098.5454                   22190177.5084   22190173.2534
        47.6004         43.6004
 120952861.7234   94248977.6304                   23016559.0414   23016557.3614
        45.0004         36.6004
 115490312.0804   89992449.1284                   21977072.4644   21977066.9844
        49.3004         45.6004
 19  3 26 19  6 30.0000000  0 11G05G07G08G09G11G16G18G23G27G28G30
 129337886.3544  100782761.9464                   24612184.6154   24612178.5574
        40.6004         37.0004
 108391901.5334   84461223.0144                   20626288.2544   20626285.8214
        55.3004         47.0004
 110974011.9694   86473273.4214                   21117648.3074   21117643.5094
        50.6004         45.0004
 108669131.7734   84677239.0804                   20679050.5274   20679045.4014
        53.3004         48.6004
 130028538.9814  101320952.4484                   24743606.2184   24743603.3144
        40.6004         37.0004
 128444192.2114  100086387.9734                   24442120.6724   24442117.3204
        43.0004         38.3004
    -30816.6244                                          0.9464   25231038.9464

 118309319.0134   92189078.3734                   22513515.7134   22513515.0474
        48.3004         40.6004
 116662847.0234   90906126.5604                   22200196.6474   22200193.1314
        48.0004         42.6004
 120875485.3794   94188684.4324                   23001836.3474   23001833.9804
        45.3004         38.3004
 115421797.3164   89939061.0284                   21964034.1344   21964028.7674
        49.3004         46.0004
 19  3 26 19  7  0.0000000  0 11G05G07G08G09G11G16G18G23G27G28G30
 129342075.5184  100786026.2174                   24612983.2284   24612977.5524
        42.0004         37.3004
 108365751.5634   84440846.4174                   20621311.6884   20621309.7994
        55.0004         47.0004
 110962648.4344   86464418.7384                   21115486.1524   21115480.3294
        50.3004         45.3004
 108725188.2224   84720919.4144                   20689717.7264   20689713.2854
        53.6004         48.6004
 129934130.4474  101247387.4254                   24725638.9854   24725636.3364
        41.0004         38.6004
 128549970.7274  100168812.7644                   24462249.1764   24462246.8774
        43.3004         36.6004
 135654372.5164                                          0.6554   25814168.6554
        36.0004
 118408035.7144   92266000.4214                   22532301.3454   22532300.3064
        48.0004         41.0004
 116716061.3424   90947592.2614                   22210322.8114   22210318.9214
        47.3004         43.0004
 120798366.0154   94128591.4764                   22987161.1424   22987158.5824
        46.0004         40.0004
 115353423.4264   89885782.6804                   21951022.8074   21951017.8774
        49.3004         46.3004
 19  3 26 19  7 30.0000000  0 11G05G07G08G09G11G16G18G23G27G28G30
 129346780.4624  100789692.3704                   24613879.4954   24613873.0604
        42.6004         38.0004
 108339853.1114   84420665.8114                   20616382.7904   20616380.9194
        54.6004         47.0004
 110951904.8334   86456047.1204                   21113441.1304   21113436.2154
        50.3004         45.3004
 108781753.1874   84764996.0014                   20700482.0404   20700477.1114
        53.3004         48.6004
 129839712.2234  101173814.8864                   24707672.4294   24707670.5704
        43.0004         38.0004
 128655740.0794  100251230.4374                   24482373.9314   24482372.9984
        41.3004         36.0004
 135567801.6494  105637246.7104                   25797701.4044   25797695.6144
        33.3004         30.6004
 118507037.8144   92343144.8544                   22551140.5844   22551139.6464
        48.0004         40.6004
 116769834.2154   90989493.1974                   22220555.1334   22220551.3944
        47.0004         43.0004
 120721503.2834   94068698.5094                   22972535.1624   22972533.1934
        46.6004         39.3004
 115285190.2754   89832614.0184                   21938038.7174   21938033.6464
        49.6004         46.3004
 19  3 26 19  8  0.0000000  0 11G05G07G08G09G11G16G18G23G27G28G30
 129352000.7324  100793760.0954                   24614872.6984   24614867.3104
        43.0004         38.3004
 108314207.8694   84400682.5064                   20611502.8224   20611501.5634
        55.0004         47.0004
 110941781.9394   86448159.1654                   21111514.8124   21111509.9904
        50.3004         45.0004
 108838825.6174   84809468.0124                   20711342.7214   20711337.5214
        53.0004         48.6004
 129745288.1254  101100237.7454                   24689705.7814   24689701.0574
        42.6004         39.0004
 128761499.6874  100333640.4664                   24502502.8304   24502497.7474
        39.6004         37.3004
 135481134.2254  105569713.6654                   25781208.7314   25781201.9474
        34.0004         29.0004
 118606323.2384   92420510.0744                   22570033.4834   22570033.7184
        48.3004         39.6004
 116824164.1014   91031828.1544                   22230893.7164   22230889.6744
        46.6004         43.6004
 120644898.2034   94009006.2784                   22957956.3454   22957954.6234
        46.0004         38.3004
 115217099.3834   89779556.1924                   21925081.1594   21925076.3234
        49.6004         46.3004
 19  3 26 19  8 30.0000000  0 11G05G07G08G09G11G16G18G23G27G28G30
 129357735.6804  100798228.8554                   24615963.6334   24615959.2304
        43.6004         37.3004
 108288816.7554   84380897.2174                   20606671.4194   20606669.9954
        55.3004         46.6004
 110932280.3574   86440755.3484                   21109706.9154   21109701.2714
        50.6004         44.6004
 108896404.0134   84854334.2794                   20722299.5374   20722294.0964
        53.0004         48.3004
 129650860.6934  101026658.0014                   24671737.9234   24671732.3934
        43.0004         39.6004
 128867247.5544  100416041.3424                   24522622.6964   24522622.0874
        39.6004         36.3004
 135394373.4214  105502108.0204                   25764697.5694   25764692.6184
        35.6004         30.0004
 118705889.3954   92498094.0494                   22588981.3304   22588980.3444
        49.0004         39.3004
 116879049.0174   91074595.6334                   22241338.3184   22241334.6864
        47.3004         43.0004
 120568551.5324   93949515.3804                   22943427.5574   22943426.9194
        46.3004         37.6004
 115149151.8104   89726610.0444                   21912151.2934   21912146.2994
        49.6004         46.0004
 19  3 26 19  9  0.0000000  0 11G05G07G08G09G11G16G18G23G27G28G30
 129363984.6554  100803098.1954                   24617152.6794   24617146.8474
        42.3004         37.0004
 108263681.2974   84361311.1494                   20601888.7404   20601886.8224
        55.3004         47.3004
 110923400.9184   86433836.3164                   21108016.8574   21108011.6944
        50.6004         45.0004
 108954487.0994   84899593.8164                   20733352.3624   20733346.9134
        53.0004         48.3004
 129556433.2114  100953078.2274                   24653766.5264   24653764.2374
        43.0004         38.0004
 128972982.4424  100498432.1084                   24542746.8034   24542743.4864
        40.6004         35.6004
 135307522.1954  105434431.7224                   25748168.9644   25748164.7894
        35.3004         32.0004
 118805734.2154   92575895.1614                   22607980.5714   22607979.9334
        48.6004         39.0004
 116934487.2634   91117794.2684                   22251888.5264   22251884.0324
        47.6004         44.0004
 120492464.0374   93890226.4714                   22928949.4584   22928947.4884
        46.0004         38.6004
 115081348.8974   89673776.6174                   21899248.8844   21899244.7654
        50.6004         45.6004
 19  3 26 19  9 30.0000000  0 11G05G07G08G09G11G16G18G23G27G28G30
 129370746.1974  100808366.8924                   24618440.6364   24618432.6054
        42.3004         37.6004
 108238801.9334   84341924.6384                   20597154.2784   20597152.4244
        55.3004         47.0004
 110915143.0104   86427401.6004                   21106445.2014   21106440.5244
        51.0004         44.6004
 109013072.7474   84945244.9474                   20744500.9654   20744495.8394
        52.6004         48.0004
 129462007.7254  100879500.0234                   24635798.6734   24635795.3754
        42.6004         38.6004
 129078702.6754  100580811.4604                   24562862.7244   24562861.7464
        42.3004         36.6004
 135220582.5714  105366686.7574                   25731626.5484   25731620.4384
        34.6004         33.3004
 118905855.0854   92653911.3964                   22627032.1514   22627032.2254
        48.0004         38.0004
 116990476.1214   91161421.9554                   22262543.5704   22262537.7134
        47.3004         45.0004
 120416635.9764   93831139.7194                   22914520.2154   22914519.2314
        46.6004         39.3004
 115013691.1284   89621056.2834                   21886373.4844   21886368.8964
        50.0004         45.6004
 19  3 26 19 10  0.0000000  0 11G05G07G08G09G11G16G18G23G27G28G30
 129378019.6784  100814034.4724                   24619823.9414   24619817.5804
        42.0004         38.0004
 108214180.1274   84322738.8114                   20592468.6554   20592467.1734
        55.0004         47.0004
 110907507.3954   86421451.7744                   21104992.2794   21104987.7824
        51.0004         44.6004
 109072159.4664   84991286.5324                   20755744.6874   20755739.3524
        52.6004         48.0004
 129367587.2554  100805925.6924                   24617830.4924   24617826.3664
        41.6004         38.6004
 129184406.3484  100663177.9504                   24582978.1774   24582976.2054
        42.6004         37.0004
 135133557.4934  105298875.0724                   25715068.2294   25715059.8944
        34.3004         35.3004
 119006249.6514   92732140.8694                   22646139.0504   22646137.9694
        48.3004         39.0004
 117047013.7004   91205477.1904                   22273302.5054   22273296.8344
        48.0004         45.3004
 120341067.6614   93772255.3744                   22900140.1534   22900137.6584
        45.6004         39.6004
 114946179.6684   89568449.9734                   21873526.6874   21873520.5924
        49.3004         46.3004
 19  3 26 19 10 30.0000000  0 11G05G07G08G09G11G16G18G23G27G28G30
 129385804.8334  100820100.7974                   24621305.6564   24621300.6074
        44.0004         37.6004
 108189817.5454   84303754.9884                   20587833.0794   20587830.6864
        55.0004         47.3004
 110900494.6864   86415987.3414                   21103658.0944   21103653.5924
        51.3004         44.6004
 109131746.2764   85037717.7964                   20767083.6854   20767078.5924
        52.6004         48.0004
 129273175.4794  100732358.1514                   24599863.8664   24599860.2484
        41.3004         37.0004
 129290092.6674  100745530.8814                   24603089.0574   24603087.1264
        42.3004         37.3004
 135046450.3904  105230999.6144                   25698492.3624   25698483.9564
        34.3004         32.0004
 119106915.8424   92810582.0124                   22665293.5764   22665293.8744
        48.3004         38.6004
 117104098.5064   91249958.8674                   22284165.2804   22284160.8294
        48.6004         45.0004
 120265760.4954   93713574.5324                   22885809.7284   22885805.0434
        44.0004         39.6004
 114878816.1834   89515958.9704                   21860708.2254   21860702.3044
        49.6004         46.3004
 19  3 26 19 11  0.0000000  0 11G05G07G08G09G11G16G18G23G27G28G30
 129394099.4424  100826564.1064                   24622884.1854   24622880.9584
        44.6004         37.0004
 108165714.1204   84284973.1074                   20583246.1654   20583243.7834
        55.0004         47.0004
 110894104.0494   86411007.6334                   21102442.1864   21102436.6874
        50.6004         44.6004
 109191830.3114   85084536.5104                   20778517.1184   20778512.6494
        53.0004         47.6004
 129178774.0544  100658798.6824                   24581898.7454   24581895.1794
        40.6004         37.6004
 129395758.7004  100827868.0184                   24623197.1214   24623194.0284
        41.3004         37.3004
 134959262.8774  105163061.4704                   25681902.2814   25681893.0194
        35.6004         32.6004
 119207849.9504   92889231.9294                   22684501.6784   22684500.4244
        47.6004         39.3004
 117161727.2024   91294864.3454                   22295131.9544   22295127.6744
        48.6004         45.0004
 120190713.8264   93655096.6604                   22871526.2434   22871524.2684
        44.0004         39.6004
 114811600.5434   89463583.1714                   21847917.3654   21847912.4324
        50.3004         45.3004
 19  3 26 19 11 30.0000000  0 11G05G07G08G09G11G16G18G23G27G28G30
 129402903.4394  100833424.3204                   24624558.8814   24624554.6854
        44.6004         36.6004
 108141871.6804   84266394.5804                   20578708.9774   20578706.9664
        55.3004         47.0004
 110888335.9584   86406513.0314                   21101344.5334   21101339.1344
        51.0004         44.6004
 109252410.5924   85131741.9014                   20790045.5124   20790040.6234
        53.3004         47.6004
 129084386.3254  100585249.8544                   24563938.6094   24563935.4744
        41.6004         36.6004
 129501404.0764  100910189.0284                   24643299.6494   24643299.0414
        41.3004         36.3004
 134871998.2424  105095063.2214                   25665290.5034   25665284.8014
        35.0004         34.0004
 119309050.2494   92968089.2314                   22703759.3964   22703758.1984
        47.6004         39.6004
 117219898.3074   91340192.4614                   22306201.7954   22306196.9814
        49.0004         45.3004
 120115928.7034   93596822.5744                   22857297.7784   22857294.2674
        45.3004         39.0004
 114744534.4504   89411323.8874                   21835154.9594   21835149.7114
        50.3004         45.3004
 19  3 26 19 12  0.0000000  0 11G05G07G08G09G11G16G18G23G27G28G30
 129412215.4854  100840680.4324                   24626333.2754   24626326.0584
        44.0004         37.6004
 108118291.5414   84248020.4444                   20574222.1454   20574219.4274
        55.0004         47.6004
 110883191.4954   86402504.3704                   21100365.5234   21100359.7924
        50.3004         45.0004
 109313485.6664   85179332.8554                   20801667.6624   20801662.6064
        52.6004         47.6004
 128990015.1624  100511713.9574                   24545979.9644   24545975.9664
        40.0004         36.6004
 129607027.1544  100992492.6764                   24663399.7604   24663398.7854
        40.6004         36.3004
 134784659.7424  105027007.4054                   25648672.3654   25648666.3754
        35.6004         33.0004
 119410514.5884   93047152.3094                   22723066.7164   22723066.9224
        48.0004         39.6004
 117278609.8884   91385941.7374                   22317374.6814   22317368.3314
        48.3004         46.0004
 120041406.1864   93538753.1274                   22843116.6614   22843113.0044
        44.6004         41.0004
 114677619.2534   89359182.1964                   21822421.8934   21822415.5414
        49.6004         46.0004
 19  3 26 19 12 30.0000000  0 11G05G07G08G09G11G16G18G23G27G28G30
 129422034.9284  100848331.9124                   24628199.1764   24628195.6224
        44.3004         36.6004
 108094974.7264   84229851.5014                   20569785.4334   20569782.5614
        55.3004         47.3004
 110878670.4104   86398981.4614                   21099505.0714   21099499.9664
        51.0004         44.3004
 109375053.7314   85227307.9584                   20813383.4914   20813377.7594
        52.3004         47.6004
 128895663.4484  100438193.1994                   24528026.0504   24528022.8134
        40.3004         37.3004
 129712626.4334  101074777.8024                   24683494.1884   24683492.2214
        41.0004         36.0004
 134697250.0974  104958896.1334                   25632037.9594   25632034.4064
        36.6004         30.3004
 119512240.4204   93126419.1174                   22742425.0614   22742423.4634
        47.3004         40.3004
 117337859.6574   91432110.3884                   22328649.5364   22328644.4434
        48.6004         45.3004
 119967146.3904   93480888.4154                   22828984.6494   22828982.4764
        45.0004         40.6004
 114610855.9094   89307158.8364                   21809716.2224   21809712.0244
        50.6004         45.3004
 19  3 26 19 13  0.0000000  0 11G05G07G08G09G11G16G18G23G27G28G30
 129432360.5084  100856377.8054                   24630162.8724   24630161.1914
        45.3004         36.0004
 108071922.1034   84211888.4234                   20565398.9184   20565395.8864
        55.3004         47.6004
 110874772.5424   86395944.1684                   21098763.4184   21098757.3514
        50.3004         45.0004
 109437112.9164   85275665.7424                   20825192.9754   20825187.5814
        52.0004         47.6004
 128801333.6834  100364689.5644                   24510075.1954   24510072.8844
        40.6004         37.0004
 129818200.3354  101157043.1014                   24703584.1784   24703584.4364
        42.0004         35.3004
 134609772.0294  104890731.5114                   25615396.8144   25615387.1864
        37.6004         32.3004
 119614224.9474   93205887.5214                   22761832.5764   22761831.9324
        48.3004         40.3004
 117397645.2864   91478696.5714                   22340025.6174   22340020.0724
        48.0004         45.3004
 119893149.6664   93423228.6434                   22814903.5874   22814901.5974
        45.3004         38.6004
 114544245.2824   89255254.4714                   21797040.2484   21797035.3754
        50.0004         45.6004
 19  3 26 19 13 30.0000000  0 11G05G07G08G09G11G16G18G23G27G28G30
 129443191.3624  100864817.4244                   24632222.5304   24632220.3534
        43.6004         35.3004
 108049135.0064   84194132.2464                   20561062.4744   20561060.0284
        55.6004         47.6004
 110871497.8894   86393392.5064                   21098140.3084   21098135.3114
        51.3004         44.3004
 109499661.6614   85324405.0074                   20837094.9694   20837090.0814
        52.3004         47.0004
 128707029.4624  100291205.7684                   24492129.6024   24492127.0024
        41.3004         34.6004
 129923747.4794  101239287.5884                   24723667.5124   24723667.9594
        41.6004         35.6004
 134522228.2794  104822515.6074                   25598734.4974   25598727.6024
        39.0004         33.6004
 119716466.0514   93285555.8544                   22781288.2784   22781286.6894
        47.6004         41.0004
 117457964.6854   91525698.6864                   22351503.7514   22351498.3324
        48.3004         44.6004
 119819416.9244   93365774.5814                   22800871.5784   22800869.4204
        45.6004         38.3004
 114477788.6754   89203470.1254                   21784394.5584   21784389.4794
        50.6004         45.6004
 19  3 26 19 14  0.0000000  0 11G05G07G08G09G11G16G18G23G27G28G30
 129454526.7564  100873650.1634                   24634380.4224   24634377.9144
        43.6004         35.6004
 108026614.8384   84176584.0684                   20556776.8964   20556774.5884
        55.6004         47.6004
 110868846.8294   86391326.7444                   21097636.5914   21097630.1494
        50.6004         44.6004
 109562698.1594   85373524.3484                   20849090.5434   20849085.8064
        52.6004         47.3004
 128612753.4044  100217743.9554                   24474192.5214   24474187.9564
        40.6004         34.6004
 130029266.2144  101321509.9624                   24743750.4634   24743746.2994
        41.6004         36.0004
 134434622.0064  104754251.0324                   25582063.6164   25582057.4914
        38.6004         31.3004
 119818961.2414   93365422.1714                   22800792.1654   22800791.5024
        48.3004         41.0004
 117518815.5824   91573114.9634                   22363082.6304   22363078.9014
        49.0004         43.6004
 119745948.5624   93308526.5254                   22786891.0774   22786887.9404
        45.0004         39.3004
 114411487.1174   89151806.5954                   21771778.1224   21771772.8594
        50.6004         45.6004
 19  3 26 19 14 30.0000000  0 11G05G07G08G09G11G16G18G23G27G28G30
 129466364.6674  100882874.4874                   24636633.7604   24636632.4314
        44.0004         35.0004
 108004362.3454   84159244.4724                   20552542.0694   20552539.5814
        55.3004         48.0004
 110866818.9514   86389746.5974                   21097250.1664   21097244.6584
        50.6004         45.0004
 109626220.4544   85423022.2324                   20861179.0974   20861173.9414
        52.6004         47.6004
 128518508.1434  100144306.1674                   24456254.4704   24456251.6284
        39.3004         36.0004
 130134755.1344  101403709.0734                   24763823.4044   24763822.2334
        41.6004         35.6004
 134346955.7004  104685939.6204                   25565381.9784   25565374.3764
        39.0004         32.3004
 119921707.6624   93445484.2614                   22820344.5054   22820343.6994
        48.0004         41.3004
 117580195.5594   91620943.5184                   22374762.9304   22374758.3254
        49.0004         43.6004
 119672744.8454   93251484.7144                   22772961.9624   22772956.8374
        43.6004         41.6004
 114345341.5084   89100264.5854                   21759190.6614   21759185.6814
        50.6004         46.3004
 19  3 26 19 15  0.0000000  0 11G05G07G08G09G11G16G18G23G27G28G30
 129478704.1304  100892489.6424                   24638979.6114   24638979.4244
        43.3004         34.0004
 107982378.3684   84142114.1064                   20548358.1674   20548356.2764
        55.6004         47.3004
 110865414.3534   86388652.1144                   21096982.9764   21096977.8934
        51.0004         44.3004
 109690226.7034   85472897.2094                   20873359.0564   20873354.3994
        53.3004         47.3004
 128424296.1774  100070894.2834                   24438325.8074   24438324.1514
        40.0004         36.3004
 130240212.4524  101485883.5364                   24783891.7564   24783888.4874
        39.6004         36.0004
 134259232.4864  104617583.8784                   25548686.8144   25548682.6104
        39.3004         31.0004
 120024703.0274   93525740.3374                   22839944.7394   22839942.8404
        47.6004         41.0004
 117642102.2674   91669182.4904                   22386544.3104   22386538.3174
        48.6004         44.0004
 119599806.0044   93194649.3064                   22759082.5464   22759078.0794
        44.6004         40.6004
 114279352.9004   89048844.9104                   21746633.4294   21746628.9774
        51.0004         45.6004
 19  3 26 19 15 30.0000000  0 11G05G07G08G09G11G16G18G23G27G28G30
 129491544.1964  100902494.8224                   24641425.7174   24641419.8254
        41.3004         37.0004
 107960664.2874   84125194.0414                   20544226.0884   20544224.0704
        55.6004         47.3004
 110864633.1224   86388043.3664                   21096834.1474   21096828.2244
        50.6004         45.0004
 109754715.1474   85523147.9334                   20885631.0444   20885626.2444
        53.0004         47.6004
 128330120.9134   99997511.0194                   24420406.8224   24420403.7854
        40.6004         35.3004
 130345636.8434  101568032.3804                   24803952.8104   24803950.3294
        39.6004         35.3004
 134171455.3314  104549186.1474                   25531982.7194   25531977.7764
        38.6004         32.6004
 120127944.5224   93606188.1854                   22859591.0544   22859587.5824
        47.0004         41.3004
 117704533.4974   91717830.1784                   22398423.8574   22398419.6184
        49.3004         43.3004
 119527132.7314   93138020.8424                   22745253.9394   22745249.0864
        45.3004         40.3004
 114213522.4294   88997548.4624                   21734106.1484   21734101.3114
        50.6004         46.0004
 19  3 26 19 16  0.0000000  0 11G05G07G08G09G11G16G18G23G27G28G30
 129504884.3334  100912889.7184                   24643963.2064   24643956.1484
        40.0004         37.0004
 107939222.0304   84108485.7984                   20540145.5774   20540144.1174
        55.6004         47.6004
 110864475.8944   86387920.8564                   21096804.0994   21096798.7944
        50.6004         45.3004
 109819684.7304   85573773.5564                   20897993.8574   20897989.4444
        53.0004         47.6004
 128235985.7174   99924158.9784                   24402492.8034   24402488.5234
        40.0004         37.0004
 130451028.0624  101650155.3514                   24824008.0114   24824005.8924
        39.6004         35.3004
 134083627.8134  104480749.2014                   25515273.2834   25515266.1244
        40.0004         33.0004
 120231430.6734   93686826.6884                   22879282.8924   22879281.7474
        47.0004         40.6004
 117767487.6904   91766885.3864                   22410402.9914   22410399.1404
        49.3004         43.3004
 119454726.1224   93081600.1464                   22731474.5354   22731470.3854
        45.3004         39.3004
 114147851.9804   88946376.6974                   21721610.0194   21721604.7354
        50.3004         46.3004
 19  3 26 19 16 30.0000000  0 11G05G07G08G09G11G16G18G23G27G28G30
 129518723.3584  100923673.3574                   24646598.8694   24646591.8204
        41.0004         38.3004
 107918052.2124   84091989.8424                   20536117.5104   20536115.6574
        55.6004         47.3004
 110864941.8644   86388283.9574                   21096892.7624   21096887.4294
        51.0004         45.0004
 109885133.3334   85624772.4504                   20910447.9804   20910443.3304
        53.0004         47.6004
 128141893.5974   99850840.4694                   24384587.0744   24384586.1884
        42.0004         34.6004
 130556383.9734  101732250.7984                   24844056.2074   24844053.7454
        39.6004         34.6004
 133995752.5924  104412275.1754                   25498547.1934   25498542.3194
        38.6004         33.0004
 120335158.5784   93767653.5664                   22899021.9744   22899019.8534
        46.0004         40.3004
 117830962.2394   91816346.0594                   22422482.4964   22422478.1654
        49.3004         43.3004
 119382586.4374   93025387.4354                   22717746.0424   22717743.2334
        45.6004         38.3004
 114082342.3704   88895330.2684                   21709143.9654   21709139.2164
        50.6004         46.3004
 19  3 26 19 17  0.0000000  0 11G05G07G08G09G11G16G18G23G27G28G30
 129533058.9054  100934843.8394                   24649326.7964   24649320.7394
        41.0004         37.3004
 107897155.3304   84075706.5604                   20532141.0204   20532139.0374
        55.6004         47.6004
 110866030.6414   86389132.3574                   21097099.7774   21097094.9574
        51.0004         44.6004
 109951058.2864   85676142.5294                   20922993.3824   20922989.2894
        53.3004         47.3004
 128047846.1554   99777556.8104                   24366690.7434   24366687.2324
        41.0004         35.0004
 130661702.3514  101814317.0634                   24864099.8864   24864095.6054
        40.6004         34.0004
 133907831.6144  104343765.4574                   25481816.3454   25481812.4794
        39.3004         32.6004
 120439124.9724   93848666.2774                   22918805.6704   22918803.9634
        45.6004         39.6004
 117894954.0184   91866209.7664                   22434660.5064   22434654.4674
        48.6004         43.6004
 119310713.2784   92969382.3724                   22704069.8754   22704067.1224
        46.3004         39.3004
 114016993.9664   88844409.4394                   21696708.6484   21696703.2334
        50.3004         46.6004
 19  3 26 19 17 30.0000000  0 11G05G07G08G09G11G16G18G23G27G28G30
 129547890.7354  100946401.1044                   24652148.9264   24652144.1954
        42.3004         37.3004
 107876533.3654   84059637.4984                   20528216.7994   20528214.7124
        55.6004         48.0004
 110867742.4334   86390466.2224                   21097425.4714   21097419.9414
        50.6004         45.0004
 110017458.2934   85727882.7774                   20935628.7114   20935623.8574
        53.3004         47.6004
 127953847.1974   99704310.8624                   24348802.9304   24348799.3394
        41.0004         36.0004
 130766982.3844  101896353.4294                   24884133.6464   24884131.0844
        41.3004         35.0004
 133819868.6114  104275223.0084                   25465079.6064   25465072.6254
        40.0004         32.3004
 120543327.5874   93929863.0744                   22938635.3344   22938633.4484
        45.3004         39.6004
 117959461.2314   91916475.1224                   22446935.3564   22446930.1104
        48.3004         43.3004
 119239107.4694   92913585.7004                   22690445.4154   22690440.4844
        46.3004         41.0004
 113951808.4234   88793615.5224                   21684304.1894   21684298.4004
        50.0004         47.0004
 19  3 26 19 18  0.0000000  0 11G05G07G08G09G11G16G18G23G27G28G30
 129563217.6504  100958344.1214                   24655067.2404   24655060.8954
        42.3004         37.3004
 107856187.3984   84043783.4924                   20524344.6394   20524342.7134
        55.6004         47.6004
 110870077.5444   86392285.7904                   21097869.6024   21097864.5734
        51.0004         44.6004
 110084331.6914   85779991.9024                   20948354.2694   20948350.1024
        53.6004         47.6004
 127859899.6224   99631105.0334                   24330926.6934   24330924.4334
        42.6004         36.0004
 130872223.0664  101978359.1044                   24904159.6804   24904156.1834
        40.3004         33.0004
 133731866.6974  104206650.2444                   25448330.6904   25448325.5074
        38.6004         32.0004
 120647764.5604   94011242.4624                   22958510.0644   22958507.1444
        45.3004         38.3004
 118024481.7574   91967140.4714                   22459308.0144   22459302.1414
        47.6004         43.3004
 119167769.8394   92857998.0104                   22676869.6744   22676865.9184
        47.0004         39.6004
 113886787.1084   88742949.5754                   21671930.6904   21671926.1144
        50.3004         46.3004
 19  3 26 19 18 30.0000000  0 11G05G07G08G09G11G16G18G23G27G28G30
 129579037.9894  100970671.6014                   24658075.5944   24658072.2074
        43.3004         37.0004
 107836118.1474   84028145.1194                   20520525.7384   20520523.7764
        55.3004         47.6004
 110873035.2764   86394590.5284                   21098432.5504   21098426.8844
        50.3004         45.3004
 110151676.1034   85832468.0594                   20961169.5944   20961164.8584
        53.3004         48.0004
 127766006.2004   99557941.3704                   24313058.9514   24313054.2164
        41.3004         38.3004
 130977422.5084  102060332.6144                   24924178.9774   24924173.6064
        39.6004         33.3004
 133643828.3444  104138049.1264                   25431581.5874   25431574.0564
        39.6004         30.3004
 120752432.9234   94092802.1784                   22978425.0564   22978424.4624
        45.3004         37.0004
 118090012.7424   92018203.5664                   22471777.7404   22471773.1924
        47.6004         43.6004
 119096700.3444   92802619.2134                   22663343.6234   22663342.5214
        47.3004         38.6004
 113821930.7184   88692412.1364                   21659589.1714   21659583.4674
        49.6004         47.0004
 19  3 26 19 19  0.0000000  0 11G05G07G08G09G11G16G18G23G27G28G30
 129595350.3704  100983382.5214                   24661179.9654   24661176.4794
        44.0004         37.0004
 107816327.0664   84012723.4964                   20516759.8924   20516758.0324
        55.6004         47.6004
 110876615.6044   86397380.3944                   21099113.8594   21099108.6614
        50.6004         45.3004
 110219489.8434   85885309.9154                   20974074.3274   20974069.0094
        53.0004         48.3004
 127672169.8304   99484822.1934                   24295203.3154   24295197.2774
        41.3004         37.3004
 131082579.3424  102142273.0324                   24944190.0994   24944185.8604
        39.3004         30.6004
 133555756.7024  104069421.9864                   25414820.8194   25414814.1694
        39.3004         30.0004
 120857330.2184   94174540.3144                   22998387.1964   22998387.1114
        46.3004         36.3004
 118156052.0544   92069662.7474                   22484345.3014   22484339.9514
        47.6004         43.0004
 119025899.6684   92747449.8724                   22649870.9444   22649869.7244
        48.0004         38.3004
 113757240.6364   88642004.2934                   21647279.2554   21647272.9164
        49.6004         47.3004
 19  3 26 19 19 30.0000000  0 11G05G07G08G09G11G16G18G23G27G28G30
 129612153.7544  100996476.0604                   24664378.5034   24664374.4614
        44.3004         37.3004
 107796815.0184   83997519.3034                   20513046.7984   20513044.4714
        55.3004         48.0004
 110880818.1484   86400655.1144                   21099913.9614   21099908.3844
        50.6004         45.3004
 110287770.9244   85938515.9454                   20987067.5974   20987062.6464
        53.0004         48.3004
 127578393.4844   99411749.7654                   24277356.8824   24277354.7034
        41.6004         36.0004
 131187692.2994  102224179.1984                   24964188.4694   24964187.1964
        38.0004         33.6004
 133467654.5864  104000771.0564                   25398056.2694   25398048.3294
        38.3004         32.3004
 120962453.6544   94256454.6464                   23018391.5524   23018389.9744
        46.3004         37.6004
 118222597.2124   92121516.1244                   22497008.7774   22497001.6514
        46.3004         43.6004
 118955368.0964   92692490.2614                   22636449.0314   22636446.5504
        47.3004         39.3004
 113692717.9454   88591726.8984                   21635000.6964   21634994.4404
        50.0004         47.3004
 19  3 26 19 20  0.0000000  0 11G05G07G08G09G11G16G18G23G27G28G30
 129629447.3384  101009951.5394                   24667669.6884   24667665.5264
        44.6004         36.6004
 107777583.8714   83982534.0014                   20509387.7114   20509385.0854
        55.6004         48.0004
 110885642.9624   86404414.7174                   21100832.1314   21100826.9204
        51.3004         45.0004
 110356518.0014   85992085.0774                   21000149.5224   21000144.6854
        52.6004         48.0004
 127484680.6994   99338726.8654                   24259525.6214   24259520.2104
        42.0004         37.3004
 131292760.6334  102306050.5524                   24984185.0524   24984180.9814
        39.0004         32.3004
 133379525.7334  103932099.2594                   25381282.2804   25381277.7814
        39.6004         32.0004
 121067801.4574   94338543.7794                   23038438.9024   23038436.2544
        45.6004         39.0004
 118289646.3344   92173762.1904                   22509766.8444   22509764.1074
        49.0004         41.3004
 118885106.6644   92637741.1304                   22623077.7504   22623075.3484
        47.3004         38.6004
 113628364.3934   88541581.2824                   21622754.5554   21622749.5204
        51.0004         47.0004
 19  3 26 19 20 30.0000000  0 11G05G07G08G09G11G16G18G23G27G28G30
 129647228.2414  101023806.7414                   24671052.5594   24671048.6074
        44.3004         38.0004
 107758633.7894   83967767.7044                   20505781.6954   20505779.5674
        55.6004         48.0004
 110891088.5904   86408658.0744                   21101868.1234   21101863.1824
        51.0004         45.3004
 110425727.7744   86046014.7544                   21013319.7594   21013315.2014
        52.3004         48.0004
 127391032.9144   99265754.6004                   24241703.5074   24241699.4684
        42.0004         36.6004
 131397782.1144  102387885.4694                   25004170.0564   25004166.4244
        37.6004         32.6004
 133291372.0384  103863408.2364                   25364508.0494   25364500.2004
        38.3004         31.6004
 121173369.8144   94420804.8074                   23058528.7984   23058528.0714
        47.6004         39.0004
 118357195.7794   92226398.1054                   22522620.9114   22522617.7314
        48.3004         42.0004
 118815114.0144   92583201.4594                   22609758.4964   22609755.5814
        47.0004         40.0004
 113564179.8564   88491567.3684                   21610540.5664   21610535.5794
        51.0004         47.0004
 19  3 26 19 21  0.0000000  0 11G05G07G08G09G11G16G18G23G27G28G30
 129665496.8124  101038041.9894                   24674528.3804   24674525.2614
        44.0004         37.3004
 107739966.9774   83953222.1334                   20502229.3874   20502226.5414
        55.3004         48.0004
 110897156.5074   86413386.3394                   21103023.0534   21103017.4874
        50.6004         45.3004
 110495399.8424   86100304.6624                   21026578.4074   21026573.3624
        52.3004         48.0004
 127297454.7884   99192836.6344                   24223897.7494   24223895.0124
        43.0004         36.0004
 131502756.3084  102469683.4924                   25024145.8934   25024142.7534
        38.3004         33.6004
 133203197.8854  103794701.1724                   25347730.5284   25347723.3414
        39.0004         33.0004
 121279157.6204   94503236.7984                   23078658.8694   23078656.6294
        46.3004         40.3004
 118425244.6284   92279423.1584                   22535570.8704   22535566.4944
        48.0004         43.3004
 118745392.2154   92528872.8514                   22596491.3884   22596489.0144
        48.0004         39.6004
 113500167.0384   88441687.2634                   21598358.8534   21598353.9484
        51.0004         46.6004
 19  3 26 19 21 30.0000000  0 11G05G07G08G09G11G16G18G23G27G28G30
 129684250.7524  101052655.4004                   24678097.7214   24678093.5564
        42.3004         37.0004
 107721583.4414   83938897.3014                   20498730.9214   20498728.7874
        55.6004         48.0004
 110903844.8684   86418598.0574                   21104295.8544   21104290.1074
        50.6004         45.3004
 110565530.9534   86154952.2584                   21039923.9874   21039918.3134
        52.0004         48.6004
 127203948.1444   99119974.3844                   24206101.3234   24206097.4724
        40.6004         35.0004
 131607680.9354  102551442.8894                   25044113.0084   25044109.8004
        38.6004         33.6004
 133115004.9314  103725979.5104                   25330949.1004   25330940.2224
        38.6004         35.0004
 121385161.0494   94585836.8254                   23098829.8594   23098829.9824
        47.6004         40.0004
 118493789.1374   92332834.4544                   22548615.1374   22548610.2504
        49.0004         43.6004
 118675940.4454   92474754.6164                   22583274.1014   22583272.0794
        47.6004         40.0004
 113436325.9134   88391940.9454                   21586210.3704   21586206.1644
        51.6004         47.0004
 19  3 26 19 22  0.0000000  0 11G05G07G08G09G11G16G18G23G27G28G30
 129703488.5904  101067645.9034                   24681758.6034   24681754.6164
        42.6004         39.0004
 107703484.9304   83924794.5644                   20495286.9304   20495284.8304
        55.3004         48.0004
 110911153.6854   86424293.2574                   21105686.6124   21105680.6304
        50.6004         45.3004
 110636119.4564   86209956.2624                   21053356.7294   21053351.5084
        51.6004         48.6004
 127110516.2054   99047170.3274                   24188321.5244   24188321.4134
        41.6004         33.6004
 131712555.0004  102633162.9034                   25064069.8344   25064065.1354
        38.0004         34.3004
 133026796.6944  103657245.9714                   25314162.0994   25314155.6654
        38.6004         34.3004
 121491378.0114   94668603.2394                   23119044.5734   23119042.3464
        47.3004         41.6004
 118562827.2054   92386630.3474                   22561752.5024   22561747.4584
        48.6004         44.3004
 118606759.4704   92420847.4014                   22570110.2984   22570107.3834
        47.6004         41.0004
 113372658.0064   88342329.6194                   21574095.2684   21574089.9094
        51.0004         47.3004
 19  3 26 19 22 30.0000000  0 11G05G07G08G09G11G16G18G23G27G28G30
 129723209.3364  101083012.6814                   24685511.9534   24685508.5964
        43.6004         36.6004
 107685672.5844   83910914.8164                   20491897.3404   20491894.9974
        55.3004         48.0004
 110919082.7234   86430471.7384                   21107195.1404   21107189.9624
        51.0004         45.0004
 110707163.5534   86265315.2814                   21066875.5204   21066870.7524
        52.0004         48.3004
 127017162.0014   98974426.8704                   24170558.6284   24170553.4374
        40.6004         35.3004
 131817377.7224  102714842.9424                   25084017.4184   25084011.4504
        38.6004         33.6004
 132938576.3464  103588502.9764                   25297372.3604   25297368.1564
        39.6004         33.3004
 121597806.3224   94751534.2864                   23139297.6744   23139294.6864
        47.0004         42.6004
 118632356.5794   92440809.0614                   22574983.1344   22574979.2374
        49.3004         43.6004
 118537849.7554   92367151.5884                   22556997.8434   22556993.9824
        47.3004         41.0004
 113309164.7564   88292854.3754                   21562012.5254   21562006.9294
        51.0004         47.3004
 19  3 26 19 23  0.0000000  0 11G05G07G08G09G11G16G18G23G27G28G30
 129743412.1804  101098755.1074                   24689356.3434   24689349.3244
        42.0004         38.3004
 107668148.2704   83897259.5084                   20488562.4454   20488560.2444
        55.3004         48.0004
 110927632.2634   86437133.7224                   21108822.0534   21108817.6734
        51.3004         44.6004
 110778661.8764   86321028.2424                   21080481.2754   21080477.1414
        52.3004         48.0004
 126923889.3854   98901746.9244                   24152808.8544   24152808.2774
        43.6004         32.3004
 131922148.3134  102796482.3144                   25103953.0284   25103950.3844
        38.6004         34.6004
 132850347.7624  103519753.5364                   25280582.7614   25280577.9344
        40.0004         35.0004
 121704443.7734   94834628.3564                   23159588.7484   23159588.1294
        48.0004         41.0004
 118702375.4434   92495369.1914                   22588307.1344   22588303.2794
        49.3004         43.6004
 118469212.3844   92313667.9704                   22543936.1244   22543931.9654
        47.3004         40.6004
 113245848.0114   88243516.6644                   21549963.1494   21549958.6284
        51.6004         46.6004
 19  3 26 19 23 30.0000000  0 11G05G07G08G09G11G16G18G23G27G28G30
 129764094.7614  101114871.3564                   24693290.6794   24693287.4254
        42.6004         36.0004
 107650912.6334   83883829.1374                   20485283.0484   20485280.9364
        55.3004         48.3004
 110936801.1044   86444278.2794                   21110567.1504   21110561.7964
        51.0004         45.0004
 110850611.5574   86377092.9104                   21094173.1284   21094168.7504
        52.0004         48.6004
 126830700.3934   98829132.1904                   24135075.2364   24135072.8514
        42.3004         34.0004
 132026864.4714  102878079.3074                   25123881.5194   25123878.1914
        38.0004         35.3004
 132762113.1514  103450999.4164                   25263792.2804   25263787.3654
        39.3004         34.3004
 121811287.1254   94917882.8534                   23179919.6284   23179918.2124
        46.6004         41.6004
 118772880.4184   92550308.1464                   22601723.6434   22601718.4734
        48.6004         44.3004
 118400846.9164   92260396.2084                   22530927.2434   22530922.1384
        47.0004         42.3004
 113182708.1634   88194316.7934                   21537948.1864   21537943.9124
        51.3004         46.6004
 19  3 26 19 24  0.0000000  0 11G05G07G08G09G11G16G18G23G27G28G30
 129785255.0764  101131359.8634                   24697316.4424   24697313.3674
        42.3004         36.0004
 107633965.9824   83870623.9664                   20482058.5994   20482055.8584
        55.6004         48.0004
 110946588.2814   86451904.6624                   21112429.3244   21112424.3384
        51.0004         44.6004
 110923009.9264   86433507.2024                   21107950.4024   21107945.5974
        52.0004         48.0004
 126737597.5854   98756584.5504                   24117358.1564   24117356.2034
        43.6004         32.6004
 132131524.7354  102959632.6494                   25143797.3224   25143793.5344
        37.0004         35.0004
 132673874.9804  103382242.5054                   25246999.6614   25246996.6664
        39.0004         35.3004
 121918333.4914   95001295.5374                   23200292.3224   23200289.8304
        47.6004         42.3004
 118843868.4484   92605623.4874                   22615232.2094   22615227.4614
        49.0004         44.0004
 118332753.0094   92207336.0794                   22517969.6944   22517964.2814
        47.0004         42.3004
 113119745.8514   88145255.2734                   21525966.9734   21525962.1674
        51.3004         46.6004
 19  3 26 19 24 30.0000000  0 11G05G07G08G09G11G16G18G23G27G28G30
 129806892.7044  101148220.3404                   24701434.4844   24701431.8034
        43.3004         37.0004
 107617310.4054   83857645.5874                   20478888.7734   20478886.1954
        55.6004         48.3004
 110956993.7184   86460012.7994                   21114409.2914   21114403.9414
        50.6004         45.0004
 110995855.7754   86490270.1734                   21121812.5024   21121807.1214
        51.3004         48.3004
 126644585.1294   98684107.4284                   24099660.6434   24099656.1454
        43.3004         34.3004
 132236128.3794  103041141.9794                   25163704.4594   25163700.8674
        38.3004         34.0004
 132585637.0564  103313485.7404                   25230209.9684   25230206.2284
        39.0004         35.0004
 122025580.8704   95084864.8104                   23220700.0574   23220697.9864
        46.6004         41.6004
 118915337.8744   92661313.9274                   22628833.5914   22628827.8774
        49.0004         44.3004
 118264931.6564   92154488.3034                   22505063.1004   22505058.9484
        47.3004         42.0004
 113056963.1504   88096333.6974                   21514019.9774   21514015.5814
        51.3004         46.3004
 19  3 26 19 25  0.0000000  0 11G05G07G08G09G11G16G18G23G27G28G30
 129829005.7724  101165451.2784                   24705643.6454   24705640.9274
        44.3004         37.6004
 107600946.8334   83844894.7534                   20475774.5964   20475772.3564
        55.6004         48.6004
 110968017.2584   86468602.5774                   21116507.7334   21116501.3774
        50.6004         45.6004
 111069147.0214   86547380.2164                   21135759.1224   21135753.9074
        51.3004         48.3004
 126551664.9104   98611702.0874                   24081975.3404   24081975.8334
        45.0004         31.3004
 132340674.0674  103122606.0934                   25183595.9414   25183592.4314
        37.0004         34.6004
 132497402.4834  103244731.6594                   25213418.3214   25213412.6034
        36.3004         36.0004
 122133026.4914   95168588.6074                   23241145.7894   23241144.5344
        47.3004         41.3004
 118987286.1244   92717377.4664                   22642524.0604   22642519.8974
        49.3004         44.0004
 118197383.1234   92101853.1324                   22492208.4084   22492203.4314
        46.3004         42.6004
 112994361.2794   88047553.0334                   21502107.5984   21502101.9944
        51.0004         47.0004
 19  3 26 19 25 30.0000000  0 11G05G07G08G09G11G16G18G23G27G28G30
 129851592.0334  101183050.9284                   24709941.7194   24709940.0814
        45.0004         35.6004
 107584876.0984   83832372.1104                   20472717.0304   20472714.0444
        55.6004         48.6004
 110979657.4124   86477672.8354                   21118722.6584   21118716.2544
        50.0004         45.6004
 111142880.7434   86604835.0404                   21149790.4314   21149785.5044
        51.3004         48.0004
 126458839.8554   98539370.9304                   24064312.2774   24064309.4904
        44.3004         34.0004
 132445160.1694  103204023.8294                   25203481.1084   25203474.3254
        36.3004         36.6004
 132409173.5824  103175982.0134                   25196629.6164   25196624.7394
        36.6004         37.3004
 122240667.1204   95252464.3434                   23261629.8654   23261627.6504
        47.0004         41.0004
 119059709.8334   92773811.5074                   22656305.3354   22656301.5624
        49.0004         43.6004
 118130107.3754   92049430.5204                   22479406.6934   22479401.9874
        46.6004         42.6004
 112931940.6994   87998913.6334                   21490229.0194   21490224.5834
        51.3004         46.3004
 19  3 26 19 26  0.0000000  0 11G05G07G08G09G11G16G18G23G27G28G30
 129874650.4304  101201018.4524                   24714330.1124   24714325.0524
        42.3004         38.0004
 107569099.6164   83820078.7414                   20469715.0204   20469712.3634
        55.6004         48.6004
 110991914.0034   86487223.4314                   21121054.4464   21121049.0704
        50.3004         45.0004
 111217055.3724   86662633.4354                   21163905.4224   21163900.6134
        51.6004         47.3004
 126366113.9334   98467116.9784                   24046665.9354   24046666.3914
        46.0004         32.6004
 132549585.8344  103285394.4264                   25223350.5214   25223347.5004
        37.6004         35.6004
 132320954.1554  103107239.7184                   25179842.8034   25179835.4504
        35.6004         38.6004
 122348501.0024   95336490.6624                   23282149.4254   23282147.1574
        46.3004         40.3004
 119132607.0254   92830614.5054                   22670177.2934   22670173.2324
        49.0004         43.3004
 118063105.0604   91997220.9694                   22466656.5124   22466651.6544
        46.6004         43.0004
 112869703.1954   87950416.8894                   21478385.5084   21478380.4314
        51.0004         46.0004
 19  3 26 19 26 30.0000000  0 11G05G07G08G09G11G16G18G23G27G28G30
 129898180.0734  101219353.2184                   24718807.0964   24718803.2714
        42.6004         37.6004
 107553619.0204   83808015.9404                   20466768.7294   20466766.3754
        55.6004         48.6004
 111004787.0094   86497254.3634                   21123504.3644   21123499.0824
        50.3004         45.0004
 111291669.3044   86720774.1434                   21178103.5024   21178098.6714
        51.0004         47.3004
 126273490.2564   98394942.7374                   24029041.6684   24029038.5334
        44.6004         34.6004
 132653950.6514  103366717.6034                   25243213.8054   25243205.9594
        37.6004         34.0004
 132232747.6214  103038507.4444                   25163055.4314   25163049.7884
        35.6004         36.6004
 122456525.9244   95420665.8584                   23302704.9234   23302704.4794
        46.6004         38.6004
 119205975.5954   92887784.7964                   22684139.2144   22684134.9894
        48.6004         43.3004
 117996376.6084   91945224.8184                   22453958.5944   22453955.1174
        47.3004         42.0004
 112807650.5094   87902064.1534                   21466577.1644   21466572.5684
        51.0004         46.0004
 19  3 26 19 27  0.0000000  0 11G05G07G08G09G11G16G18G23G27G28G30
 129922178.9644  101238053.6084                   24723372.5034   24723368.6314
        41.3004         37.3004
 107538435.2174   83796184.4074                   20463879.3774   20463876.7424
        56.0004         48.6004
 111018275.9524   86507765.2364                   21126071.1894   21126065.7474
        50.6004         44.6004
 111366720.1264   86779255.2894                   21192385.6234   21192380.3184
        51.3004         47.3004
 126180971.2104   98322850.0294                   24011436.8944   24011433.7704
        45.6004         35.3004
 132758252.7434  103447991.9084                   25263058.6194   25263057.3674
        38.3004         34.6004
 132144556.9374  102969787.5384                   25146276.6114   25146267.9504
        35.6004         38.0004
 122564738.9044   95504987.5944                   23323298.2524   23323296.3044
        46.6004         38.6004
 119279812.7354   92945320.2174                   22698190.1764   22698185.5874
        48.6004         44.0004
 117929921.9404   91893442.0024                   22441312.1904   22441309.7754
        48.0004         41.3004
 112745783.6554   87853856.2354                   21454803.6154   21454799.1484
        51.0004         45.6004
 19  3 26 19 27 30.0000000  0 11G05G07G08G09G11G16G18G23G27G28G30
 129946645.4514  101257118.3574                   24728029.3054   24728024.2254
        40.6004         38.0004
 107523549.4904   83784585.1404                   20461046.8704   20461044.2794
        55.6004         48.6004
 111032379.5624   86518755.0624                   21128754.7664   21128749.3084
        50.3004         45.0004
 111442205.5524   86838075.0854                   21206750.1264   21206745.1664
        51.0004         47.6004
 126088559.9514   98250841.2874                   23993850.2344   23993847.3294
        45.0004         37.3004
 132862491.0844  103529216.6004                   25282896.8144   25282893.5024
        38.0004         32.6004
 132056385.0594  102901082.3534                   25129497.0384   25129490.9614
        37.0004         38.0004
 122673137.4974   95589453.9464                   23343925.7274   23343923.9174
        46.3004         39.0004
 119354115.7464   93003218.6434                   22712329.6224   22712325.5964
        48.3004         44.0004
 117863741.4804   91841872.8444                   22428718.1244   22428716.1404
        48.3004         41.0004
 112684103.8194   87805794.0314                   21443066.4474   21443062.8754
        51.3004         45.3004
 19  3 26 19 28  0.0000000  0 11G05G07G08G09G11G16G18G23G27G28G30
 129971577.7084  101276546.0884                   24732774.7974   24732769.7234
        41.6004         36.3004
 107508962.3704   83773218.5574                   20458270.9464   20458268.3984
        55.6004         48.3004
 111047097.0014   86530223.2014                   21131555.2074   21131550.5594
        50.6004         44.3004
 111518123.2764   86897231.7344                   21221196.3754   21221191.9044
        51.0004         47.0004
 125996259.3884   98178918.8534                   23976287.7724   23976284.5734
        45.6004         37.6004
 132966664.0404  103610390.2754                   25302720.1374   25302715.8294
        38.3004         29.3004
 131968235.0044  102832394.1034                   25112722.7634   25112716.9044
        38.3004         37.3004
 122781718.6644   95674062.5814                   23364587.0694   23364587.8794
        47.6004         37.3004
 119428881.7864   93061477.8984                   22726556.7194   22726552.0474
        47.3004         43.0004
 117797835.4374   91790517.5104                   22416177.0964   22416176.1354
        49.0004         40.6004
 112622612.0204   87757878.3694                   21431366.1404   21431361.3474
        51.3004         45.3004
 19  3 26 19 28 30.0000000  0 11G05G07G08G09G11G16G18G23G27G28G30
 129996974.3144  101296335.6314                   24737607.8134   24737600.3014
        41.0004         37.6004
 107494675.3664   83762085.8334                   20455551.6824   20455549.2894
        56.0004         48.3004
 111062427.7184   86542169.2104                   21134472.6484   21134467.4744
        50.6004         44.6004
 111594471.2044   86956723.6184                   21235725.3734   21235720.7174
        51.6004         47.3004
 125904072.6384   98107085.0774                   23958744.7714   23958741.2814
        45.6004         38.6004
 133070770.9314  103691512.5434                   25322525.4064   25322527.0134
        38.0004         29.6004
 131880110.1594  102763725.4524                   25095950.7524   25095946.3074
        39.0004         36.6004
 122890480.2394   95758811.8074                   23385283.9844   23385283.1744
        47.3004         38.0004
 119504108.4674   93120096.0664                   22740871.6974   22740867.3434
        47.0004         43.3004
 117732203.8254   91739376.0354                   22403687.3994   22403685.0214
        48.3004         41.6004
 112561309.7394   87710110.3784                   21419700.6664   21419695.6214
        51.3004         45.3004
 19  3 26 19 29  0.0000000  0 11G05G07G08G09G11G16G18G23G27G28G30
 130022833.7174  101316485.7864                   24742527.6624   24742522.5234
        41.0004         37.0004
 107480690.0934   83751188.2244                   20452890.2304   20452888.1414
        55.6004         48.3004
 111078371.1094   86554592.6344                   21137506.7874   21137502.2984
        51.0004         44.6004
 111671247.1814   87016549.0294                   21250335.2454   21250329.5244
        50.6004         47.6004
 125812002.8684   98035342.4414                   23941224.5254   23941221.7244
        45.6004         39.3004
 133174810.5764  103772582.3504                   25342328.5834   25342324.9504
        38.0004         32.3004
 131792013.4044  102695078.7634                   25079189.0974   25079182.0634
        38.6004         37.3004
 122999419.3484   95843699.3384                   23406016.3174   23406014.0824
        47.3004         38.3004
 119579793.0984   93179071.0774                   22755275.1264   22755269.9054
        46.3004         43.6004
 117666847.0364   91688448.7184                   22391250.9554   22391247.5314
        47.6004         42.3004
 112500198.2424   87662491.0474                   21408070.5694   21408065.9984
        50.6004         45.6004
 19  3 26 19 29 30.0000000  0 11G05G07G08G09G11G16G18G23G27G28G30
 130049154.4364  101336995.4304                   24747536.2104   24747532.3524
        41.6004         36.6004
 107467007.4854   83740526.4514                   20450286.6894   20450284.3464
        55.6004         48.6004
 111094926.5854   86567493.0024                   21140657.2534   21140652.2714
        50.6004         45.0004
 111748449.1374   87076706.3744                   21265025.7484   21265021.9174
        51.3004         47.3004
 125720053.0694   97963693.3254                   23923726.2394   23923721.5074
        44.0004         41.3004
 133278781.8944  103853598.9394                   25362113.7324   25362109.4554
        37.3004         32.6004
 131703948.3644  102626456.7244                   25062428.3784   25062423.9184
        38.3004         37.0004
 123108533.8084   95928723.5184                   23426777.4074   23426777.9474
        47.3004         37.0004
 119655933.2034   93238401.0214                   22769763.3694   22769757.9214
        45.3004         44.0004
 117601765.4794   91637735.8524                   22378866.3024   22378863.7344
        48.3004         42.0004
 112439278.9714   87615021.4974                   21396477.6234   21396473.0124
        50.6004         45.6004
 19  3 26 19 30  0.0000000  0 11G05G07G08G09G11G16G18G23G27G28G30
 130075933.8664  101357862.4224                   24752633.9354   24752629.8244
        43.0004         36.6004
 107453627.9414   83730100.8314                   20447740.9444   20447738.4414
        56.0004         48.3004
 111112092.3164   86580868.9124                   21143923.6504   21143918.5314
        51.0004         44.6004
 111826074.1664   87137193.4024                   21279797.7094   21279792.2284
        51.0004         47.3004
 125628225.4784   97892139.4214                   23906252.5064   23906250.4104
        45.6004         39.6004
 133382683.0954  103934560.9074                   25381883.7014   25381881.9794
        37.0004         28.6004
 131615917.2634  102557861.1444                   25045677.1094   25045673.8374
        39.0004         33.6004
 123217820.4034   96013881.8664                   23447574.8404   23447574.0974
        47.3004         37.3004
 119732525.4734   93298083.3094                   22784338.3624   22784332.8754
        45.0004         44.0004
 117536958.5684   91587236.9974                   22366533.8664   22366530.7524
        48.0004         42.3004
 112378552.5124   87567702.1964                   21384921.9284   21384917.2824
        51.0004         45.6004
 19  3 26 19 30 30.0000000  0 11G05G07G08G09G11G16G18G23G27G28G30
 130103170.9304  101379086.0514                   24757817.7724   24757811.7144
        42.3004         39.0004
 107440553.5134   83719912.9664                   20445253.0284   20445250.2814
        56.0004         48.3004
 111129868.9264   86594720.8274                   21147306.6534   21147300.7924
        51.0004         44.6004
 111904120.8114   87198008.9404                   21294649.5134   21294644.7554
        51.3004         47.0004
 125536524.2114   97820683.9554                   23888802.4084   23888796.4804
        44.0004         41.0004
 133486513.8424  104015467.9574                   25401642.4144   25401639.7094
        37.0004         31.6004
 131527924.2514  102489295.2504                   25028932.6864   25028927.4694
        36.0004         36.6004
 123327277.0204   96099172.6324                   23468405.8244   23468402.3614
        46.3004         38.6004
 119809568.0234   93358116.4524                   22798999.5744   22798993.9184
        45.6004         43.6004
 117472427.3464   91536952.9824                   22354254.3634   22354251.4244
        48.3004         42.0004
 112318020.9444   87520534.7554                   21373404.3524   21373399.2244
        51.6004         45.6004
 19  3 26 19 31  0.0000000  0 11G05G07G08G09G11G16G18G23G27G28G30
 130130863.1494  101400664.3484                   24763088.3514   24763081.9974
        42.3004         39.0004
 107427784.1994   83709962.8554                   20442823.1234   20442820.3994
        56.0004         48.6004
 111148253.8564   86609046.7594                   21150805.5574   21150799.2644
        50.6004         45.3004
 111982585.8144   87259150.4814                   21309580.5024   21309575.8584
        51.0004         47.0004
 125444951.4774   97749328.6564                   23871376.4534   23871374.1264
        46.0004         40.3004
 133590272.1614  104096318.5554                   25421391.3634   25421385.3174
        36.6004         30.3004
 131439971.1934  102420760.5174                   25012198.2544   25012190.3864
        34.0004         36.3004
 123436900.4164   96184593.3874                   23489263.9364   23489264.2984
        47.0004         37.0004
 119887057.1564   93418497.6164                   22813745.2924   22813741.2434
        46.6004         44.0004
 117408170.9704   91486883.1354                   22342026.7114   22342024.3284
        48.3004         42.3004
 112257684.6044   87473519.4454                   21361922.9834   21361918.3724
        51.6004         46.0004
 19  3 26 19 31 30.0000000  0 11G05G07G08G09G11G16G18G23G27G28G30
 130159009.2824  101422596.3344                   24768442.2444   24768438.2394
        44.0004         37.3004
 107415322.0334   83700252.0754                   20440451.4834   20440448.8934
        56.0004         48.3004
 111167247.1844   86623846.7594                   21154419.1964   21154414.1284
        51.0004         44.6004
 112061467.2744   87320616.5364                   21324591.4714   21324586.4684
        50.6004         46.3004
 125353510.4844   97678075.9734                   23853974.6854   23853972.0134
        45.3004         40.3004
 133693957.5694  104177112.3114                   25441120.8004   25441117.0534
        37.0004         31.0004
 131352062.0484  102352259.9844                   24995466.4444   24995462.9294
        33.3004         35.0004
 123546688.0654   96270142.1514                   23510157.7224   23510156.1094
        46.6004         38.3004
 119964990.7674   93479225.0944                   22828576.3944   22828571.2284
        46.6004         44.3004
 117344189.9704   91437027.8544                   22329851.7354   22329848.8214
        48.3004         42.0004
 112197545.2754   87426657.6584                   21350478.3514   21350473.0474
        51.3004         46.0004
 19  3 26 19 32  0.0000000  0 11G05G07G08G09G11G16G18G23G27G28G30
 130187607.8054  101444880.9114                   24773884.2294   24773881.3554
        44.3004         34.0004
 107403168.4724   83690781.7674                   20438138.5354   20438135.9614
        55.6004         48.6004
 111186848.2704   86639120.3324                   21158149.5984   21158143.8724
        50.6004         45.3004
 112140763.7534   87382405.9794                   21339680.9304   21339676.0154
        50.6004         46.6004
 125262204.8554   97606928.7834                   23836599.8574   23836598.1424
        46.0004         39.6004
 133797569.2084  104257848.6044                   25460834.4004   25460832.4634
        37.3004         33.3004
 131264200.3734  102283796.4764                   24978745.1244   24978743.0384
        32.3004         35.0004
 123656638.2504   96355817.4934                   23531081.1074   23531078.4764
        46.0004         38.6004
 120043366.7264   93540297.2204                   22843490.5734   22843483.6674
        45.6004         45.0004
 117280485.2814   91387387.8794                   22317728.9854   22317726.9134
        48.6004         41.6004
 112137604.7744   87379950.7894                   21339070.7704   21339066.2794
        51.0004         46.3004
 19  3 26 19 32 30.0000000  0 11G05G07G08G09G11G16G18G23G27G28G30
 130216656.7474  101467516.4214                   24779410.2814   24779404.3324
        40.6004         35.0004
 107391324.2394   83681552.4944                   20435884.4254   20435882.5634
        56.0004         48.3004
 111207056.1844   86654866.7484                   21161995.2964   21161989.5624
        51.0004         45.3004
 112220472.5204   87444516.6854                   21354849.5294   21354844.5274
        50.6004         46.3004
 125171037.3694   97535889.2414                   23819252.1004   23819249.0714
        46.0004         39.6004
 133901105.5624  104338526.2314                   25480535.1104   25480533.5704
        35.0004         31.3004
 131176389.2764  102215372.2604                   24962039.5784   24962030.7544
        33.6004         36.0004
 123766747.9284   96441617.1694                   23552032.1844   23552032.4194
        46.6004         37.6004
 120122181.9744   93601711.6834                   22858487.8854   22858483.3434
        47.3004         43.3004
 117217056.8284   91337963.1504                   22305657.8854   22305656.5144
        48.3004         41.3004
 112077864.1814   87333399.6814                   21327702.4464   21327697.9914
        51.3004         46.6004
 19  3 26 19 33  0.0000000  0 11G05G07G08G09G11G16G18G23G27G28G30
 130246154.6494  101490501.7484                   24785026.1274   24785019.0674
        39.6004         35.3004
 107379790.9644   83672565.5284                   20433689.7434   20433687.8394
        56.0004         48.3004
 111227870.1884   86671085.4364                   21165955.3544   21165950.2024
        50.6004         44.6004
 112300591.4924   87506947.0294                   21370095.1604   21370091.1914
        51.0004         45.6004
 125080011.2814   97464959.8614                   23801928.2554   23801926.7134
        46.0004         39.3004
 134004566.0464  104419144.8044                   25500228.5804   25500220.7634
        35.6004         34.0004
 131088631.8464  102146989.9704                   24945340.9154   24945337.3834
        36.3004         31.0004
 123877014.9914   96527539.4904                   23573017.6274   23573014.6624
        46.0004         38.6004
 120201434.0474   93663466.5374                   22873569.8234   22873565.3834
        47.6004         43.3004
 117153904.6704   91288753.7164                   22293641.6134   22293637.6534
        47.6004         42.3004
 112018325.0114   87287005.5274                   21316372.6544   21316369.3804
        52.3004         46.3004
 19  3 26 19 33 30.0000000  0 11G05G07G08G09G11G16G18G23G27G28G30
 130276099.0064  101513834.9784                   24790724.3144   24790716.2424
        39.6004         37.3004
 107368568.8644   83663821.0344                   20431554.3974   20431552.5174
        56.3004         48.3004
 111249288.5134   86687775.0364                   21170030.6384   21170025.3554
        50.6004         44.3004
 112381117.7424   87569694.7364                   21385419.2354   21385414.1534
        51.0004         46.3004
 124989128.7724   97394142.3414                   23784635.3384   23784633.4654
        46.3004         39.6004
 134107949.0464  104499702.9514                   25519898.3274   25519895.8404
        36.3004         33.3004
 131000930.8074  102078651.5484                   24928649.6754   24928644.4014
        36.0004         34.6004
 123987435.7794   96613581.5334                   23594031.0434   23594027.2634
        46.0004         40.0004
 120281119.6264   93725559.1624                   22888733.5134   22888727.4824
        46.6004         43.6004
 117091028.1924   91239759.1014                   22281675.9134   22281672.3414
        47.0004         42.6004
 111958987.9724   87240768.8804                   21305081.3384   21305077.5834
        52.3004         46.6004
 19  3 26 19 34  0.0000000  0 12G05G07G08G09G11G13G16G18G23G27G28G30
 130306487.9154  101537514.6034                   24796507.9494   24796501.7864
        42.3004         38.0004
 107357660.0884   83655320.6944                   20429478.1164   20429476.8214
        56.3004         48.3004
 111271310.3324   86704934.8954                   21174221.8494   21174216.0304
        50.3004         44.6004
 112462049.2154   87632758.1924                   21400820.1244   21400814.6884
        50.6004         46.3004
 124898394.0444   97323440.0314                   23767370.9554   23767365.7614
        45.0004         40.3004
     -2162.4574                                          0.4664   24795336.4664

 134211254.0634  104580200.3124                   25539558.9504   25539552.8994
        35.3004         32.0004
 130913289.7264  102010359.8254                   24911971.5004   24911967.7464
        36.6004         35.0004
 124098008.1874   96699741.7744                   23615068.5694   23615069.7514
        46.6004         37.6004
 120361236.2324   93787987.6694                   22903978.5614   22903973.5064
        47.0004         43.6004
 117028428.3754   91190980.0564                   22269762.9104   22269759.4544
        47.3004         42.3004
 111899854.6864   87194691.0094                   21293829.1344   21293824.7914
        52.3004         47.6004
 19  3 26 19 34 30.0000000  0 12G05G07G08G09G11G13G16G18G23G27G28G30
 130337320.4224  101561539.8754                   24802374.1504   24802371.4054
        44.0004         38.0004
 107347065.5564   83647065.2224                   20427462.1424   20427460.3234
        56.0004         48.6004
 111293935.1674   86722564.6464                   21178527.5414   21178522.0394
        50.3004         44.6004
 112543383.7884   87696135.7584                   21416297.3804   21416292.8134
        51.0004         46.0004
 124807809.8164   97252854.9534                   23750130.6604   23750129.7604
        46.0004         38.6004
 133343030.1924                                         -0.6704   25374335.3304
        34.6004
 134314479.6674  104660635.7994                   25559199.4224   25559198.2574
        35.6004         33.3004
 130825712.0864  101942117.6074                   24895306.4374   24895300.5094
        36.3004         35.3004
 124208729.8654   96786018.3634                   23636140.1844   23636137.3984
        44.6004         38.3004
 120441781.3514   93850750.0934                   22919305.5854   22919301.6554
        47.0004         43.3004
 116966105.4064   91142416.7264                   22257903.1664   22257900.3834
        47.0004         42.0004
 111840926.6704   87148773.0954                   21282615.8414   21282611.2314
        52.3004         48.0004
 19  3 26 19 35  0.0000000  0 12G05G07G08G09G11G13G16G18G23G27G28G30
 130368593.8694  101585908.7314                   24808322.8864   24808322.2294
        45.0004         36.0004
 107336785.8904   83639055.0904                   20425506.4454   20425504.4654
        56.6004         48.3004
 111317161.4004   86740663.0114                   21182946.9914   21182941.6034
        50.6004         44.3004
 112625118.7834   87759825.3414                   21431850.9354   21431845.7454
        51.0004         46.0004
 124717378.4754   97182389.0204                   23732922.1754   23732919.9204
        45.6004         38.0004
 133235046.1554  103819524.8764                   25353789.7084   25353788.0214
        38.3004         35.6004
 134417624.9284  104741008.7574                   25578827.6624   25578825.5544
        35.0004         32.3004
 130738200.5824  101873926.8134                   24878653.7224   24878649.7874
        38.0004         34.3004
 124319597.8634   96872408.8724                   23657237.6884   23657234.5764
        44.3004         38.6004
 120522751.9784   93913844.0684                   22934713.5664   22934708.6204
        46.6004         43.6004
 116904058.8584   91094068.8374                   22246096.2474   22246093.4734
        47.6004         40.6004
 111782204.9854   87103015.9534                   21271441.0524   21271436.9124
        52.6004         47.3004
 19  3 26 19 35 30.0000000  0 12G05G07G08G09G11G13G16G18G23G27G28G30
 130400306.5324  101610619.9074                   24814359.3674   24814354.8764
        43.3004         36.6004
 107326822.6884   83631291.5604                   20423610.3284   20423608.4344
        56.3004         48.6004
 111340988.0304   86759229.2314                   21187481.5094   21187475.9074
        51.0004         44.6004
 112707251.8804   87823825.1294                   21447480.8304   21447475.4924
        51.0004         45.6004
 124627103.4754   97112044.9044                   23715744.6894   23715740.5554
        44.6004         37.6004
 133127174.9484  103735469.4514                   25333261.7544   25333260.0474
        37.3004         31.0004
 134520688.8384  104821318.1374                   25598441.2934   25598438.5234
        35.3004         34.6004
 130650758.5844  101805790.2474                   24862015.4224   24862009.0814
        38.0004         34.6004
 124430609.3534   96958911.2644                   23678361.5514   23678362.2604
        46.0004         37.0004
 120604145.3434   93977267.4374                   22950202.6584   22950197.1564
        45.6004         43.6004
 116842288.9124   91045936.4584                   22234342.2154   22234340.7604
        48.6004         40.6004
 111723690.9914   87057420.6384                   21260305.3114   21260301.8444
        52.6004         47.6004
 19  3 26 19 36  0.0000000  0 12G05G07G08G09G11G13G16G18G23G27G28G30
 130432456.1414  101635671.5084                   24820476.7854   24820471.6154
        40.6004         35.3004
 107317176.6954   83623775.2054                   20421774.7474   20421772.8574
        56.3004         49.0004
 111365413.9314   86778262.4014                   21192129.3174   21192123.6294
        50.6004         45.0004
 112789780.6364   87888133.2264                   21463184.2284   21463179.6704
        50.3004         45.3004
 124536987.7244   97041824.8924                   23698595.5554   23698591.8874
        44.0004         36.6004
 133019419.2694  103651503.9424                   25312761.4974   25312754.8464
        37.3004         35.3004
 134623670.6564  104901563.6464                   25618037.3644   25618033.8114
        35.3004         32.0004
 130563389.2694  101737710.2584                   24845387.7024   24845384.2374
        39.0004         33.3004
 124541762.0074   97045523.6434                   23699515.7964   23699512.6854
        44.3004         37.6004
 120685958.6494   94041018.0384                   22965771.2374   22965765.8074
        45.0004         44.0004
 116780795.6244   90998019.6624                   22222640.5734   22222637.6594
        48.0004         42.3004
 111665385.9534   87011988.1494                   21249209.9984   21249206.1094
        52.0004         47.6004
 19  3 26 19 36 30.0000000  0 12G05G07G08G09G11G13G16G18G23G27G28G30
 130465042.0294  101661063.0254                   24826671.8494   24826673.3414
        39.3004         32.6004
 107307849.6394   83616507.3684                   20420000.1564   20419998.1354
        56.3004         48.6004
 111390438.3914   86797761.9874                   21196890.5094   21196885.8454
        51.3004         44.3004
 112872703.2004   87952748.1914                   21478963.3584   21478960.2224
        50.6004         44.3004
 124447034.9244   96971731.8124                   23681476.8364   23681474.1404
        43.0004         35.6004
 132911781.7494  103567630.7134                   25292276.2004   25292270.7224
        36.3004         34.0004
 134726569.6094  104981744.7064                   25637614.6634   25637614.1234
        34.6004         34.0004
 130476096.3984  101669689.8834                   24828778.3704   24828771.5684
        39.6004         36.6004
 124653053.6294   97132244.2714                   23720694.8214   23720691.6304
        45.3004         37.3004
 120768189.7054   94105094.1604                   22981419.2494   22981414.3654
        45.0004         43.6004
 116719579.7204   90950318.9914                   22210990.5804   22210986.7494
        47.3004         42.0004
 111607291.8074   86966719.9824                   21238156.5844   21238152.4324
        53.0004         47.6004
 19  3 26 19 37  0.0000000  0 12G05G07G08G09G11G13G16G18G23G27G28G30
 130498061.3444  101686792.4054                   24832960.2454   24832956.8714
        41.6004         34.0004
 107298842.4514   83609488.7744                   20418286.1104   20418284.1704
        56.3004         49.0004
 111416060.0864   86817726.9454                   21201766.4634   21201762.0364
        51.6004         44.6004
 112956016.8824   88017667.9314                   21494818.1434   21494814.0334
        50.3004         45.0004
 124357247.6934   96901767.7734                   23664391.4294   23664388.2304
        42.3004         35.0004
 132804265.1444  103483851.4104                   25271809.7704   25271810.2554
        37.3004         29.0004
 134829384.1044  105061859.9324                   25657182.5804   25657179.6074
        34.6004         33.3004
 130388882.9384  101601731.3934                   24812179.6314   24812175.1344
        40.3004         35.6004
 124764481.2404   97219070.9044                   23741897.0204   23741895.4804
        44.6004         37.0004
 120850835.3944   94169493.3644                   22997146.8014   22997140.3074
        44.6004         43.6004
 116658640.8264   90902834.1654                   22199393.8894   22199391.8254
        47.6004         41.6004
 111549409.5854   86921616.9654                   21227142.9984   21227138.1134
        52.6004         48.0004
 19  3 26 19 37 30.0000000  0 12G05G07G08G09G11G13G16G18G23G27G28G30
 130531511.9424  101712857.7934                   24839328.3394   24839324.3424
        43.6004         37.6004
 107290155.7504   83602719.9144                   20416633.2794   20416630.7174
        56.3004         49.0004
 111442277.9794   86838156.4624                   21206755.4264   21206751.1954
        51.6004         44.6004
 113039719.0104   88082890.3324                   21510746.6124   21510741.3634
        50.3004         45.3004
 124267628.8934   96831934.9594                   23647336.3374   23647334.9654
        42.0004         34.3004
 132696871.3214  103400167.8884                   25251380.2004   25251375.6644
        37.0004         35.3004
 134932113.1504  105141908.5874                   25676725.2894   25676729.4394
        35.3004         33.3004
 130301751.8114  101533837.0864                   24795598.6634   24795594.5104
        41.3004         35.6004
 124876041.8844   97306001.1704                   23763125.4364   23763123.8354
        44.3004         36.6004
 120933892.6924   94234213.3084                   23012952.3194   23012947.3584
        46.0004         43.3004
 116597978.7054   90855565.0174                   22187850.3174   22187849.3374
        48.6004         41.3004
 111491740.3674   86876679.9384                   21216168.6924   21216163.0514
        52.3004         48.3004
 19  3 26 19 38  0.0000000  0 12G05G07G08G09G11G13G16G18G23G27G28G30
 130565391.8454  101739257.6324                   24845775.6254   24845769.5924
        43.3004         39.3004
 107281791.1334   83596202.0274                   20415041.4324   20415039.1474
        56.3004         49.0004
 111469090.5184   86859049.3444                   21211857.3134   21211853.1794
        51.6004         44.3004
 113123807.4004   88148413.7214                   21526747.4254   21526743.4464
        50.6004         44.6004
 124178182.0124   96762236.1104                   23630317.6664   23630312.6984
        41.3004         34.6004
 132589603.2484  103316582.5074                   25230964.7524   25230963.5424
        36.6004         30.6004
 135034756.2524  105221890.1294                   25696263.9634   25696261.5884
        34.6004         34.3004
 130214706.4454  101466009.5914                   24779033.6784   24779030.4504
        42.0004         35.6004
 124987733.2664   97393033.3234                   23784381.4964   23784377.7904
        45.0004         37.0004
 121017358.9984   94299251.9894                   23028834.4944   23028830.8774
        46.3004         43.0004
 116537593.3854   90808511.5574                   22176359.8054   22176357.3404
        48.3004         41.6004
 111434285.7684   86831910.1404                   21205234.2954   21205229.7924
        52.3004         47.6004
 19  3 26 19 38 30.0000000  0 12G05G07G08G09G11G13G16G18G23G27G28G30
 130599699.5344  101765990.8554                   24852304.4494   24852298.1314
        42.6004         39.3004
 107273749.9094   83589936.1384                   20413511.1274   20413508.8484
        56.3004         49.0004
 111496496.6074   86880404.7404                   21217073.1484   21217068.2664
        51.6004         44.6004
 113208279.7474   88214236.3084                   21542822.9064   21542818.4434
        51.0004         45.0004
 124088910.1044   96692673.6384                   23613327.3014   23613324.5394
        42.0004         34.6004
 132482463.4904  103233096.8824                   25210576.9184   25210576.5794
        38.6004         26.3004
 135137312.5024  105301804.0364                   25715781.0674   25715778.0764
        34.6004         33.6004
 130127750.3894  101398251.6894                   24762487.8204   24762483.5834
        42.0004         36.3004
 125099553.1374   97480165.5994                   23805659.1034   23805657.1294
        45.3004         35.3004
 121101231.7444   94364607.3684                   23044794.5434   23044789.5484
        45.0004         43.6004
 116477485.5394   90761674.3224                   22164921.8844   22164918.9454
        48.0004         42.3004
 111377047.3424   86787308.7744                   21194341.5794   21194338.2404
        52.3004         46.6004
 19  3 26 19 39  0.0000000  0 12G05G07G08G09G11G13G16G18G23G27G28G30
 130634432.8004  101793055.6824                   24858913.2064   24858906.4734
        40.3004         39.6004
 107266032.9394   83583922.9194                   20412042.6884   20412040.9194
        56.6004         49.0004
 111524495.1544   86902221.7784                   21222401.5674   21222396.7354
        51.6004         44.6004
 113293133.4074   88280356.0074                   21558970.5374   21558964.3754
        50.3004         45.3004
 123999816.0334   96623249.7004                   23596375.7784   23596373.1434
        43.3004         35.0004
 132375454.3154  103149713.1034                   25190208.7494   25190212.3864
        35.3004         32.6004
 135239780.8294  105381649.5484                   25735280.1224   25735275.5314
        35.0004         33.0004
 130040886.7324  101330565.7904                   24745958.9484   24745954.1814
        41.6004         36.3004
 125211498.4514   97567395.6624                   23826960.7684   23826959.6154
        45.3004         35.6004
 121185507.8784   94430277.0624                   23060831.9544   23060826.5884
        44.6004         43.3004
 116417654.8474   90715053.0604                   22153535.6544   22153533.6384
        48.3004         41.3004
 111320026.1824   86742876.7074                   21183491.1094   21183487.1994
        52.0004         46.6004
 19  3 26 19 39 30.0000000  0 12G05G07G08G09G11G13G16G18G23G27G28G30
 130669589.4894  101820450.4164                   24865600.1854   24865596.3374
        38.3004         35.0004
 107258641.3274   83578163.2224                   20410635.8684   20410633.9204
        56.0004         49.0004
 111553084.7604   86924499.3874                   21227842.1864   21227836.9014
        51.3004         45.0004
 113378365.9624   88346770.9744                   21575187.7764   21575184.9164
        51.0004         44.3004
 123910902.7244   96553966.6744                   23579455.0664   23579450.4264
        41.0004         38.3004
 132268578.3214  103066433.0594                   25169875.9734   25169874.6744
        40.3004         32.6004
 135342160.8794  105461426.2124                   25754761.2064   25754756.8634
        33.0004         35.0004
 129954118.4624  101262954.2564                   24729447.0864   24729441.6304
        40.6004         36.3004
 125323566.5614   97654721.3514                   23848287.4074   23848284.3324
        44.0004         38.0004
 121270184.6194   94496258.9274                   23076945.9344   23076940.7564
        44.3004         42.6004
 116358101.4644   90668647.8674                   22142202.2134   22142201.3104
        48.0004         41.0004
 111263223.7474   86698615.0744                   21172682.5504   21172677.5164
        51.3004         46.6004
 19  3 26 19 40  0.0000000  0 13G01G05G07G08G09G11G13G16G18G23G27G28
                                G30
    -23206.9594                                          0.2484   25129106.2484
        39.6004
 130705168.2104  101848174.1194                   24872369.6184   24872367.6744
        40.6004         35.6004
 107251576.7944   83572658.3894                   20409291.4954   20409289.7034
        56.0004         48.6004
 111582264.7424   86947237.0314                   21233394.9894   21233389.0084
        51.3004         45.3004
 113463975.5444   88413479.7214                   21591479.8884   21591474.7604
        50.3004         45.0004
 123822173.9794   96484827.4654                   23562571.3464   23562568.3654
        43.6004         37.3004
 132161838.1574  102983259.1944                   25149565.3024   25149559.5324
        33.6004         35.3004
 135444451.9654  105541133.4704                   25774223.7464   25774224.8784
        36.3004         33.3004
 129867449.5634  101195420.1164                   24712953.2114   24712950.3304
        40.6004         36.0004
 125435755.6174   97742141.2834                   23869635.1604   23869633.7944
        44.6004         35.6004
 121355259.7014   94562551.2044                   23093135.7174   23093129.5374
        43.6004         43.3004
 116298825.7964   90622459.0524                   22130922.8184   22130920.9714
        48.0004         41.3004
 111206641.9954   86654525.4044                   21161916.0074   21161911.1034
        51.6004         46.6004
 19  3 26 19 40 30.0000000  0 13G01G05G07G08G09G11G13G16G18G23G27G28
                                G30
 135115832.0674                                          0.1284   25711688.1284
        38.0004
 130741165.9594  101876224.3044                   24879220.0544   24879219.5964
        42.6004         35.0004
 107244839.7844   83567408.7724                   20408009.2814   20408007.3864
        56.0004         48.6004
 111612033.1064   86970433.1614                   21239059.9394   21239053.6164
        51.3004         46.0004
 113549958.8754   88480479.6994                   21607841.9394   21607836.9194
        50.0004         45.3004
 123733632.2344   96415833.8984                   23545721.3194   23545718.5484
        43.6004         38.3004
 132055236.3554  102900192.5214                   25129282.5204   25129275.6604
        38.6004         30.3004
 135546652.0444  105620770.0074                   25793676.2884   25793671.6224
        34.3004         32.3004
 129780882.2854  101127965.1714                   24696481.3354   24696475.3274
        40.0004         38.0004
 125548062.1564   97829652.8324                   23891006.6584   23891006.8034
        46.0004         35.3004
 121440729.6234   94629151.1024                   23109399.6694   23109392.9784
        43.0004         44.0004
 116239826.9724   90576485.9654                   22119696.7234   22119694.1174
        48.3004         41.6004
 111150281.5124   86610608.1614                   21151191.1354   21151185.2764
        51.3004         47.0004
 19  3 26 19 41  0.0000000  0 13G01G05G07G08G09G11G13G16G18G23G27G28
                                G30
 135026347.2324  105215341.7604                   25694670.6774   25694659.6274
        38.6004         34.0004
 130777581.4594  101904599.9834                   24886151.4154   24886147.2024
        41.3004         36.0004
 107238431.9554   83562415.6574                   20406789.5834   20406787.7284
        55.6004         48.3004
 111642388.8054   86994086.9534                   21244835.9724   21244830.6154
        51.3004         45.6004
 113636314.0564   88547769.4184                   21624275.1984   21624270.0774
        50.0004         45.3004
 123645280.9894   96346988.8584                   23528909.7194   23528904.4244
        43.3004         40.3004
 131948775.8444  102817236.5134                   25109019.3474   25109019.2444
        40.3004         34.3004
 135648761.0264  105700335.3444                   25813106.6514   25813099.7764
        33.6004         35.0004
 129694420.8434  101060592.6934                   24680027.4344   24680024.2194
        41.3004         37.0004
 125660483.8644   97917254.0784                   23912400.4424   23912399.7344
        44.6004         36.0004
 121526592.0694   94696056.8694                   23125738.4824   23125732.8234
        44.0004         43.0004
 116181105.7454   90530729.2184                   22108523.0094   22108520.4734
        48.6004         42.0004
 111094144.2784   86566864.8804                   21140507.9234   21140502.3864
        51.3004         46.6004
 19  3 26 19 41 30.0000000  0 13G01G05G07G08G09G11G13G16G18G23G27G28
                                G30
 134936727.8974  105145508.6404                   25677614.6914   25677605.0714
        39.3004         35.0004
 130814411.6244  101933298.8214                   24893162.7874   24893156.3284
        40.6004         37.6004
 107232353.6124   83557679.2854                   20405632.6864   20405631.1764
        55.6004         48.3004
 111673330.0794   87018197.0414                   21250723.4024   21250718.3334
        51.6004         45.6004
 113723037.8234   88615346.3554                   21640778.3124   21640772.9294
        50.0004         45.3004
 123557122.6414   96278294.0914                   23512133.3314   23512131.6074
        45.6004         39.0004
 131842458.1684  102734391.2974                   25088779.0174   25088781.9054
        32.3004         32.6004
 135750777.2684  105779828.5454                   25832516.7874   25832515.5204
        34.3004         36.3004
 129608067.5644  100993304.4964                   24663595.5184   24663591.1964
        41.6004         37.6004
 125773017.5554   98004942.5504                   23933816.1404   23933814.4884
        45.6004         35.3004
 121612843.4714   94763265.7224                   23142151.2004   23142146.9484
        45.0004         43.0004
 116122661.2914   90485188.1164                   22097400.9874   22097397.9164
        48.6004         42.3004
 111038230.9214   86523296.0434                   21129867.1364   21129862.5104
        51.6004         46.0004
 19  3 26 19 42  0.0000000  0 13G01G05G07G08G09G11G13G16G18G23G27G28
                                G30
 134846977.1824  105075573.1204                   25660535.7444   25660526.7794
        38.0004         32.6004
 130851654.9234  101962319.4484                   24900248.2854   24900242.7194
        40.6004         38.6004
 107226606.3354   83553200.8894                   20404539.4524   20404537.5884
        55.6004         48.3004
 111704855.6844   87042762.4654                   21256722.4404   21256717.6184
        51.3004         45.3004
 113810128.0464   88683208.8344                   21657350.9954   21657346.1344
        50.0004         45.3004
 123469160.3514   96209752.0864                   23495394.3064   23495391.8464
        45.3004         40.0004
 131736286.4954  102651660.3644                   25068582.5344   25068583.9104
        41.6004         34.0004
 135852700.5454  105859249.2994                   25851916.9894   25851911.0594
        32.6004         36.6004
 129521826.1864  100926103.4634                   24647185.2764   24647177.6694
        41.0004         39.3004
 125885660.8664   98092716.4854                   23955249.3164   23955248.8054
        44.3004         35.6004
 121699481.3334   94830775.7104                   23158638.3444   23158632.4214
        45.0004         43.3004
 116064493.9964   90439862.9884                   22086331.6944   22086329.2544
        48.3004         41.6004
 110982543.2064   86479903.0284                   21119269.4004   21119265.6284
        52.0004         45.6004
 19  3 26 19 42 30.0000000  0 13G01G05G07G08G09G11G13G16G18G23G27G28
                                G30
 134757098.0904  105005537.6364                   25643431.8714   25643424.3304
        37.0004         35.3004
 130889309.2424  101991660.4234                   24907414.9134   24907409.8604
        41.6004         38.6004
 107221191.2304   83548981.3204                   20403509.3114   20403506.8624
        55.6004         48.3004
 111736964.5724   87067782.3854                   21262832.5194   21262828.0224
        51.6004         45.0004
 113897582.4694   88751355.1064                   21673993.2324   21673987.5434
        50.0004         45.3004
 123381397.8634   96141365.8144                   23478692.9064   23478689.0964
        44.6004         41.6004
 131630263.4964  102569044.9554                   25048409.5274   25048405.9444
        37.6004         32.6004
 135954530.5214  105938597.2914                   25871291.8564   25871289.4454
        34.6004         36.0004
 129435700.2674  100858992.4124                   24630795.9564   24630789.1794
        42.0004         39.3004
 125998411.6514   98180574.1604                   23976706.9864   23976705.1924
        44.6004         36.6004
 121786503.1144   94898584.8564                   23175198.0974   23175192.8094
        45.6004         43.3004
 116006604.1144   90394754.0214                   22075314.6594   22075312.9524
        48.3004         41.3004
 110927082.8214   86436687.1404                   21108716.3744   21108712.5154
        52.6004         46.0004
 19  3 26 19 43  0.0000000  0 13G01G05G07G08G09G11G13G16G18G23G27G28
                                G30
 134667093.2074  104935404.1394                   25626304.1544   25626296.0904
        35.6004         38.0004
 130927372.8544  102021320.3234                   24914659.9724   24914651.7064
        41.0004         37.6004
 107216109.5964   83545021.6034                   20402542.5314   20402540.3414
        56.0004         48.6004
 111769655.2844   87093255.6714                   21269053.2844   21269048.2604
        51.6004         45.3004
 113985398.6754   88819783.2904                   21690704.2074   21690698.9844
        50.3004         45.0004
 123293837.9824   96073137.3754                   23462032.1454   23462029.3524
        46.3004         41.6004
 131524392.0394  102486547.8534                   25028264.1364   25028258.7354
        38.0004         35.3004
 136056266.5224  106017872.1274                   25890653.2264   25890649.7634
        35.6004         34.3004
 129349692.9324  100791973.7164                   24614427.9814   24614423.4614
        43.0004         38.0004
 126111267.3474   98268513.5444                   23998183.2684   23998181.0004
        45.0004         37.6004
 121873905.9614   94966690.9584                   23191830.8344   23191825.6124
        46.0004         43.0004
 115948991.4774   90349861.0874                   22064351.5474   22064349.9754
        48.6004         41.3004
 110871851.2084   86393649.5424                   21098207.6294   21098202.2814
        53.0004         46.6004
 19  3 26 19 43 30.0000000  0 13G01G05G07G08G09G11G13G16G18G23G27G28
                                G30
 134576964.2104  104865174.0024                   25609154.1994   25609146.4384
        34.0004         32.3004
 130965842.0384  102051296.2814                   24921980.0964   24921973.5434
        42.3004         35.0004
 107211361.8304   83541322.0444                   20401639.0094   20401636.5954
        55.6004         49.0004
 111802925.1944   87119180.2824                   21275385.1294   21275379.7764
        51.6004         45.3004
 114073573.0244   88888490.5374                   21707483.2624   21707478.1564
        50.0004         45.3004
 123206482.8924   96005068.5274                   23445409.3614   23445404.7894
        46.0004         42.6004
 131418673.4534  102404169.6894                   25008140.4594   25008139.8624
        37.6004         33.0004
 136157906.4694  106097072.0544                   25909991.8644   25909989.7684

 129263806.5284  100725049.2884                   24598084.8304   24598079.8454
        43.0004         37.0004
 126224224.0984   98356531.6884                   24019678.5014   24019675.0024
        44.3004         38.6004
 121961686.0334   95035090.9934                   23208534.6414   23208528.2844
        45.0004         43.0004
 115891655.1884   90305183.5004                   22053440.8894   22053439.2424
        48.3004         42.0004
 110816848.7614   86350790.5154                   21087741.1924   21087734.9614
        52.6004         47.3004
 19  3 26 19 44  0.0000000  0 13G01G05G07G08G09G11G13G16G18G23G27G28
                                G30
 134486715.1844  104794850.3344                   25591977.4954   25591968.5484
        33.6004         34.6004
 131004716.6344  102081588.1364                   24929374.8994   24929371.1434
        42.6004         36.0004
 107206949.9244   83537884.1914                   20400799.4614   20400797.3024
        55.6004         49.0004
 111836774.4464   87145556.3074                   21281826.2994   21281820.8674
        51.3004         45.3004
 114162104.2914   88957475.9204                   21724330.6924   21724325.6804
        50.6004         45.6004
 123119336.9314   95937162.6614                   23428824.4804   23428822.1614
        46.3004         43.0004
 131313111.8664  102321913.9544                   24988055.2704   24988053.0594
        37.0004         34.0004
 136259451.3864  106176197.8614                   25929315.9684   25929313.4434

 129178045.8514  100658222.7994                   24581766.0014   24581759.3494
        42.0004         37.3004
 126337280.6174   98444627.5644                   24041190.8254   24041189.4844
        44.0004         38.0004
 122049841.8214   95103783.7674                   23225310.1994   23225304.6874
        45.0004         43.0004
 115834596.4304   90260722.1664                   22042582.3694   22042581.2494
        48.0004         41.6004
 110762078.1864   86308112.1704                   21077318.0404   21077313.2304
        53.3004         47.3004
 19  3 26 19 44 30.0000000  0 13G01G05G07G08G09G11G13G16G18G23G27G28
                                G30
 134396348.6374  104724435.0334                   25574781.7534   25574775.4524
        35.0004         30.0004
 131043993.4954  102112193.4324                   24936851.9884   24936847.2024
        42.6004         36.0004
 107202874.7664   83534708.7454                   20400023.9094   20400021.8024
        56.0004         48.6004
 111871201.2474   87172382.3824                   21288376.8734   21288372.1414
        52.0004         45.0004
 114250989.7264   89026737.2644                   21741245.0914   21741239.9524
        51.0004         45.3004
 123032403.0864   95869422.0514                   23412281.8944   23412280.1914
        46.6004         42.3004
 131207709.4134  102239782.2134                   24968001.9134   24967997.4514
        39.0004         34.0004
 136360901.0834  106255249.4264                   25948623.8164   25948620.9424

 129092413.8354  100591496.5744                   24565469.6634   24565464.4194
        42.3004         36.3004
 126450434.1344   98532799.0244                   24062724.9664   24062722.7894
        44.3004         39.0004
 122138370.1594   95172766.8704                   23242156.7054   23242152.9434
        46.3004         41.6004
 115777814.9534   90216476.8904                   22031777.2634   22031776.3754
        48.3004         41.0004
 110707540.6924   86265615.4384                   21066939.0954   21066934.9004
        53.3004         47.0004
 19  3 26 19 45  0.0000000  0 12G01G05G07G08G09G11G13G18G23G27G28G30
 134305866.1954  104653929.4104                   25557564.6204   25557556.1994
        33.6004         31.6004
 131083669.8344  102143110.0264                   24944400.6154   24944394.8014
        42.0004         36.6004
 107199136.3494   83531795.6904                   20399312.3834   20399310.1734
        56.0004         48.3004
 111906203.3154   87199656.7124                   21295037.3384   21295032.8254
        52.3004         44.6004
 114340225.7404   89096271.7874                   21758225.9264   21758221.0074
        51.0004         45.3004
 122945683.0954   95801848.1134                   23395780.4324   23395776.7874
        46.3004         42.6004
 131102467.5414  102157775.6314                   24947969.6304   24947966.2474
        34.3004         34.0004
 129006912.7814  100524872.4014                   24549197.3744   24549193.8654
        41.3004         36.3004
 126563680.9764   98621043.2164                   24084275.4814   24084272.3754
        44.0004         39.0004
 122227267.1154   95242037.2094                   23259072.8434   23259068.3284
        45.6004         41.0004
 115721309.4514   90172446.6674                   22021024.5314   22021024.0624
        49.0004         41.0004
 110653236.6704   86223300.6234                   21056605.2754   21056601.2484
        54.0004         47.0004
 19  3 26 19 45 30.0000000  0 12G01G05G07G08G09G11G13G18G23G27G28G30
 134215272.2374  104583336.9054                   25540322.7764   25540317.4694
        36.6004         32.0004
 131123744.8824  102174337.2834                   24952023.2604   24952021.6124
        41.6004         35.3004
 107195737.3604   83529147.1294                   20398665.4474   20398663.3204
        55.6004         48.6004
 111941779.9274   87227378.7464                   21301807.2744   21301803.1164
        52.0004         45.0004
 114429811.2744   89166078.6604                   21775273.7734   21775268.3864
        50.3004         45.6004
 122859181.8854   95734444.6284                   23379319.1984   23379316.7034
        46.0004         42.0004
 130997390.5544  102075897.4234                   24927979.8174   24927972.1254
        38.3004         32.6004
 128921547.4374  100458354.0284                   24532953.7134   24532949.4204
        39.6004         36.0004
 126677020.1244   98709359.3144                   24105842.3394   24105840.4044
        44.0004         39.0004
 122316531.5464   95311593.8744                   23276058.6104   23276054.6104
        45.0004         41.6004
 115665081.6034   90128632.7924                   22010325.6504   22010325.5494
        49.6004         41.0004
 110599169.0774   86181170.0374                   21046316.8294   21046312.3734
        53.6004         48.0004
 19  3 26 19 46  0.0000000  0 12G01G05G07G08G09G11G13G18G23G27G28G30
 134124568.0074  104512658.6254                   25523060.5354   25523052.8094
        35.0004         29.6004
 131164215.1234  102205872.4874                   24959727.0304   24959722.7354
        41.3004         35.3004
 107192677.5024   83526762.8244                   20398083.0564   20398081.3454
        56.0004         48.3004
 111977928.6214   87255546.5574                   21308686.4814   21308682.1784
        52.0004         45.0004
 114519742.3024   89236154.7644                   21792386.1624   21792381.3204
        50.0004         45.0004
 122772901.1014   95667212.9034                   23362899.7864   23362896.9674
        45.6004         42.3004
 130892479.6434  101994148.7104                   24908013.4524   24908005.0044
        35.6004         37.3004
 128836319.6274  100391942.8154                   24516737.6994   24516731.0694
        39.6004         37.3004
 126790447.3184   98797744.0294                   24127425.6874   24127424.1204
        43.0004         38.6004
 122406159.0074   95381433.4244                   23293115.0344   23293111.2254
        46.0004         41.3004
 115609130.0844   90085034.2534                   21999679.1034   21999676.9064
        49.0004         42.0004
 110545337.9094   86139223.6854                   21036073.7604   21036068.5314
        53.6004         48.3004
 19  3 26 19 46 30.0000000  0 12G01G05G07G08G09G11G13G18G23G27G28G30
 134033757.8674  104441897.5054                   25505775.6184   25505773.0284
        35.0004         25.6004
 131205079.3594  102237714.7464                   24967503.3394   24967500.0484
        43.3004         35.6004
 107189959.3694   83524644.8004                   20397565.9744   20397563.8114
        56.0004         48.6004
 112014648.9594   87284159.8064                   21315674.6214   21315669.7704
        52.0004         45.3004
 114610017.6834   89306499.1804                   21809565.2894   21809560.3244
        49.6004         44.6004
 122686844.6454   95600155.9834                   23346524.0734   23346521.0104
        45.6004         41.3004
 130787738.8644  101912532.5674                   24888079.8164   24888077.8954
        39.3004         33.0004
 128751234.0964  100325642.4694                   24500544.1324   24500540.8154
        41.3004         35.6004
 126903961.4124   98886196.4484                   24149027.4244   24149025.9744
        43.0004         38.0004
 122496147.9694   95451554.6844                   23310238.8954   23310235.3424
        46.3004         41.0004
 115553455.8804   90041651.7864                   21989083.5514   21989082.2644
        49.0004         41.6004
 110491745.9684   86097463.7484                   21025875.8554   21025870.1144
        53.3004         48.6004
 19  3 26 19 47  0.0000000  0 12G01G05G07G08G09G11G13G18G23G27G28G30
 133942843.3254  104371055.1384                   25488485.8484   25488475.2264
        38.0004         29.0004
 131246334.4174  102269861.4854                   24975354.9114   24975348.8884
        42.0004         36.6004
 107187582.9354   83522793.0274                   20397114.1914   20397111.9414
        56.0004         48.6004
 112051938.4134   87313216.5154                   21322771.0454   21322764.4734
        51.3004         46.0004
 114700633.7334   89377109.0614                   21826808.9924   21826803.9454
        49.3004         44.6004
 122601015.0204   95533275.7964                   23330190.9504   23330189.1974
        45.6004         40.6004
 130683169.6434  101831050.0874                   24868180.1514   24868178.7294
        38.0004         33.3004
 128666293.1424  100259454.7674                   24484382.2924   24484375.2914
        41.3004         36.3004
 127017558.9674   98974713.9014                   24170646.2714   24170642.3764
        42.6004         39.0004
 122586494.6014   95521954.6194                   23327432.1164   23327425.7424
        44.6004         42.6004
 115498057.8744   89998484.5514                   21978542.9394   21978541.5834
        49.6004         41.6004
 110438393.6474   86055890.5364                   21015723.3844   21015717.4294
        53.0004         48.6004
 19  3 26 19 47 30.0000000  0 12G01G05G07G08G09G11G13G18G23G27G28G30
 133851828.2564  104300134.5134                   25471162.4724   25471152.9724
        37.3004         30.0004
 131287978.8424  102302311.6524                   24983279.2284   24983273.0814
        41.6004         36.3004
 107185550.3674   83521209.2074                   20396727.1324   20396725.2484
        56.0004         48.6004
 112089796.3304   87342716.1984                   21329975.4524   21329969.2994
        51.6004         46.0004
 114791588.9984   89447983.2584                   21844117.7984   21844111.8454
        49.0004         45.3004
 122515416.1954   95466575.4574                   23313901.8334   23313897.7524
        44.3004         41.0004
 130578775.7334  101749704.3004                   24848317.4204   24848312.1534
        34.6004         33.6004
 128581501.2284  100193383.1954                   24468244.9364   24468241.1054
        43.0004         35.3004
 127131238.4014   99063295.1354                   24192279.5604   24192276.7094
        43.0004         38.3004
 122677197.0684   95592631.8164                   23344692.1804   23344685.2004
        43.3004         42.6004
 115442936.9654   89955533.2244                   21968052.2934   21968051.6974
        49.3004         41.6004
 110385283.5494   86014506.0484                   21005615.7644   21005611.5534
        53.0004         48.3004
 19  3 26 19 48  0.0000000  0 12G01G05G07G08G09G11G13G18G23G27G28G30
 133760714.8474  104229137.0864                   25453823.3414   25453816.3094
        37.3004         32.3004
 131330009.8964  102335063.0364                   24991276.1774   24991271.1434
        40.6004         36.3004
 107183861.7754   83519893.4174                   20396405.8764   20396403.3844
        56.0004         48.6004
 112128220.6774   87372657.2454                   21337287.5134   21337281.1494
        51.6004         46.3004
 114882880.0514   89519119.1084                   21861489.5944   21861484.6544
        49.0004         45.0004
 122430050.7334   95400056.9774                   23297657.6914   23297653.8024
        45.0004         41.6004
 130474559.1004  101668496.4124                   24828479.4084   24828482.4494
        40.3004         31.0004
 128496860.7414  100127429.6144                   24452140.1414   24452134.5264
        43.6004         35.3004
 127244996.1844   99151937.4534                   24213925.2924   24213924.3574
        43.3004         37.0004
 122768251.6854   95663583.4454                   23362018.5904   23362012.9104
        43.0004         42.0004
 115388092.1974   89912797.0624                   21957617.0794   21957615.1094
        50.0004         42.0004
 110332416.2764   85973310.7654                   20995554.8204   20995550.7854
        52.6004         48.3004
 19  3 26 19 48 30.0000000  0 12G01G05G07G08G09G11G13G18G23G27G28G30
 133669506.2694  104158065.6114                   25436466.0824   25436460.6074
        40.0004         29.3004
 131372425.9454  102368114.4544                   24999346.8574   24999342.5834
        41.6004         34.3004
 107182518.6294   83518846.8144                   20396150.4264   20396147.9474
        56.0004         48.6004
 112167209.8604   87403038.4294                   21344706.1744   21344700.6864
        51.6004         46.0004
 114974504.6494   89590514.8684                   21878925.5014   21878919.5804
        48.6004         45.6004
 122344922.0774   95333722.9804                   23281457.9454   23281457.8304
        46.3004         39.6004
 130370522.7234  101587429.2674                   24808687.0044   24808684.2654
        39.3004         34.6004
 128412375.5304  100061596.9834                   24436061.7834   24436057.2724
        44.0004         36.3004
 127358829.8614   99240638.9194                   24235587.6424   24235585.0994
        44.0004         38.0004
 122859656.0124   95734807.5574                   23379412.1964   23379405.9974
        42.6004         41.6004
 115333524.1634   89870276.5734                   21947233.0584   21947229.6504
        49.0004         43.0004
 110279793.7014   85932306.1574                   20985541.0514   20985537.1734
        52.6004         48.0004
 19  3 26 19 49  0.0000000  0 12G01G05G07G08G09G11G13G18G23G27G28G30
 133578205.0694  104086921.9774                   25419093.2664   25419084.8734
        38.0004         34.3004
 131415224.1224  102401463.6804                   25007491.6044   25007491.6824
        45.0004         32.3004
 107181522.0804   83518070.2844                   20395960.5164   20395958.4634
        56.3004         48.6004
 112206761.9544   87433858.2414                   21352232.3204   21352226.6564
        51.3004         46.0004
 115066459.9604   89662168.3184                   21896423.8744   21896417.2174
        48.0004         46.0004
 122260032.4304   95267575.2684                   23265303.9514   23265300.6284
        45.3004         41.0004
 130266668.8994  101506504.1194                   24788923.3794   24788921.5904
        39.0004         30.0004
 128328048.7354   99995887.8324                   24420014.8544   24420009.9134
        43.6004         38.0004
 127472736.9234   99329397.5424                   24257262.2314   24257259.7364
        43.0004         38.0004
 122951406.8704   95806301.7004                   23396872.0814   23396867.2664
        43.3004         41.3004
 115279232.1624   89827971.1394                   21936902.0374   21936898.3574
        49.3004         43.3004
 110227417.0284   85891493.1644                   20975575.2084   20975570.0784
        52.3004         48.3004
 19  3 26 19 49 30.0000000  0 13G01G05G07G08G09G11G13G17G18G23G27G28
                                G30
 133486813.9214  104015708.2434                   25401703.9284   25401693.4954
        38.0004         34.3004
 131458401.6984  102435108.5144                   25015706.9144   25015706.1114
        44.3004         34.6004
 107180872.5024   83517564.1204                   20395837.0874   20395834.8844
        56.3004         48.6004
 112246875.1604   87465115.2854                   21359865.2294   21359860.2564
        51.3004         45.3004
 115158743.1424   89734077.2554                   21913984.3554   21913977.9014
        47.6004         46.0004
 122175385.2564   95201616.4884                   23249196.4014   23249195.5784
        47.0004         39.6004
 130163000.4474  101425723.6284                   24769197.2004   24769196.1964
        40.0004         34.3004
    -11493.3514                                          0.1224   24863108.1224
        39.0004
 128243883.1854   99930304.3424                   24403999.8834   24403993.8334
        42.3004         40.0004
 127586714.3704   99418211.0014                   24278952.4694   24278950.1034
        43.6004         38.6004
 123043501.2054   95878063.5054                   23414396.1814   23414390.7654
        43.3004         41.3004
 115225215.9614   89785880.6494                   21926623.8794   21926619.6714
        49.6004         43.6004
 110175287.5284   85850872.7854                   20965655.6874   20965649.9164
        52.3004         48.3004
 19  3 26 19 50  0.0000000  0 13G01G05G07G08G09G11G13G17G18G23G27G28
                                G30
 133395336.1114  103944426.9624                   25384294.8834   25384288.5854
        38.3004         35.3004
 131501956.8444  102469047.5604                   25023996.3604   25023993.3304
        42.0004         35.3004
 107180571.5344   83517329.6004                   20395779.9004   20395777.9914
        56.0004         49.0004
 112287548.1444   87496808.5244                   21367605.2894   21367600.2474
        51.0004         45.6004
 115251351.9244   89806239.9124                   21931607.3854   21931602.5234
        48.0004         46.3004
 122090984.0124   95135849.3084                   23233135.0824   23233133.1364
        46.0004         40.3004
 130059520.1644  101345089.5844                   24749503.6414   24749503.5854
        39.6004         32.6004
 133696114.1254                                          0.9204   25441524.9204
        38.6004
 128159882.8814   99864849.6404                   24388013.9984   24388008.8704
        41.0004         40.6004
 127700759.9474   99507077.5574                   24300656.7314   24300650.6404
        43.0004         39.3004
 123135936.4744   95950090.9824                   23431986.7144   23431981.4394
        44.0004         40.6004
 115171476.0634   89744005.4404                   21916396.4954   21916393.3164
        49.6004         44.0004
 110123407.0394   85810446.4294                   20955782.1914   20955777.2644
        51.6004         48.3004
 19  3 26 19 50 30.0000000  0 13G01G05G07G08G09G11G13G17G18G23G27G28
                                G30
 133303774.1574  103873080.1124                   25366871.1534   25366861.9614
        35.0004         38.0004
 131545887.1564  102503278.9214                   25032356.1394   25032354.3814
        41.6004         34.6004
 107180620.1964   83517367.5224                   20395789.0424   20395786.9784
        56.0004         49.0004
 112328778.9024   87528936.3844                   21375451.4654   21375446.5704
        53.3004         46.6004
 115344283.4574   89878654.0504                   21949292.2114   21949286.6684
        48.0004         46.0004
 122006831.4874   95070275.9324                   23217122.0234   23217119.0604
        46.3004         40.0004
 129956230.2064  101264604.0524                   24729851.3754   24729847.6954
        40.0004         35.0004
 133584848.9924  104092085.2794                   25420357.6744   25420350.7824
        41.0004         34.6004
 128076050.7234   99799525.9684                   24372060.3264   24372054.6304
        40.3004         41.0004
 127814871.0524   99595995.1584                   24322370.2074   24322367.8954
        43.6004         38.0004
 123228709.5634   96022381.6904                   23449641.0364   23449636.3714
        45.0004         40.0004
 115118012.0244   89702345.2024                   21906222.7144   21906218.7354
        49.3004         43.6004
 110071776.7984   85770215.0734                   20945956.5084   20945952.9434
        52.0004         47.6004
 19  3 26 19 51  0.0000000  0 13G01G05G07G08G09G11G13G17G18G23G27G28
                                G30
 133212131.2134  103801670.1184                   25349431.9914   25349423.8104
        37.0004         38.3004
 131590190.4244  102537800.8294                   25040787.4384   25040784.0944
        42.6004         32.6004
 107181019.4684   83517678.6414                   20395865.1614   20395863.3234
        56.6004         49.0004
 112370565.7514   87561497.5644                   21383403.0524   21383398.4054
        54.0004         46.6004
 115437535.2314   89951317.7284                   21967037.2744   21967030.9684
        48.0004         46.3004
 121922930.6284   95004898.6524                   23201155.8974   23201153.5624
        47.3004         39.3004
 129853133.6374  101184269.0224                   24710232.0384   24710228.5644
        40.0004         34.3004
 133473564.4974  104005370.1464                   25399180.3584   25399174.7664
        40.6004         34.6004
 127992390.1334   99734336.0124                   24356142.3394   24356136.2794
        41.0004         40.6004
 127929045.3214   99684961.9784                   24344096.4014   24344093.6364
        43.0004         37.6004
 123321817.7364   96094933.4924                   23467357.7744   23467355.0034
        45.6004         39.3004
 115064823.3414   89660899.5024                   21896100.8814   21896097.4074
        49.6004         43.3004
 110020398.3924   85730179.9564                   20936179.7384   20936176.8344
        53.0004         46.6004
 19  3 26 19 51 30.0000000  0 13G01G05G07G08G09G11G13G17G18G23G27G28
                                G30
 133120409.7624  103730199.0374                   25331978.1084   25331970.3234
        35.0004         36.6004
 131634863.7034  102572611.1604                   25049287.3724   25049284.1844
        42.3004         34.3004
 107181769.9044   83518263.3934                   20396007.9264   20396005.9934
        56.3004         49.0004
 112412906.5084   87594490.3524                   21391460.3234   21391454.5584
        53.3004         47.0004
 115531104.2354   90024228.6154                   21984842.7264   21984837.6044
        48.3004         45.6004
 121839284.3104   94939719.7244                   23185237.2494   23185235.4854
        47.3004         39.3004
 129750232.7264  101104086.6054                   24690652.2064   24690646.6674
        38.0004         37.3004
 133362262.7974  103918641.5554                   25378000.2604   25377993.4984
        39.3004         35.0004
 127908904.2304   99669282.1144                   24340254.2804   24340249.7774
        41.3004         39.6004
 128043279.3734   99773975.3504                   24365833.7064   24365832.1774
        43.0004         38.3004
 123415257.7774   96167743.8934                   23485138.9574   23485135.8924
        45.6004         38.6004
 115011909.9244   89619668.2814                   21886031.4674   21886028.8504
        50.0004         43.0004
 109969273.0104   85690341.9954                   20926451.4064   20926447.8194
        53.0004         47.0004
 19  3 26 19 52  0.0000000  0 13G01G05G07G08G09G11G13G17G18G23G27G28
                                G30
 133028613.5934  103658669.6674                   25314507.6254   25314498.2674
        35.3004         38.6004
 131679905.4464  102607708.6554                   25057860.1044   25057856.8794
        43.0004         34.3004
 107182873.5094   83519123.3344                   20396217.8404   20396215.8444
        56.3004         48.6004
 112455800.6704   87627914.3794                   21399622.7014   21399617.6864
        53.6004         47.0004
 115624988.6484   90097385.2564                   22002708.1094   22002702.9134
        48.0004         45.6004
 121755896.4304   94874742.1594                   23169368.2954   23169367.4254
        47.6004         39.0004
 129647531.1434  101024059.4884                   24671108.4154   24671102.8494
        38.3004         36.6004
 133250947.0664  103831902.1314                   25356816.4174   25356810.5014
        38.3004         35.0004
 127825597.1614   99604367.5934                   24324401.5794   24324397.6694
        42.6004         39.3004
 128157571.5164   99863034.0514                   24387584.3174   24387581.8234
        43.3004         37.0004
 123509027.5454   96240811.1974                   23502984.0734   23502980.6114
        46.0004         39.3004
 114959272.2304   89578651.9294                   21876015.0124   21876012.0654
        50.0004         43.0004
 109918402.9134   85650702.9614                   20916771.2494   20916766.4484
        53.0004         47.3004
 19  3 26 19 52 30.0000000  0 13G01G05G07G08G09G11G13G17G18G23G27G28
                                G30
 132936745.1154  103587083.9524                   25297025.0974   25297018.5044
        36.6004         37.0004
 131725312.8434  102643090.9434                   25066500.7554   25066496.6574
        41.6004         36.3004
 107184330.7724   83520258.8604                   20396495.1224   20396492.9084
        56.3004         48.6004
 112499245.7264   87661767.6604                   21407890.3334   21407884.2734
        53.3004         47.3004
 115719185.1524   90170785.1124                   22020633.2664   22020628.5904
        48.6004         45.0004
 121672769.4714   94809967.9314                   23153552.1034   23153549.9804
        48.3004         38.6004
 129545030.5434  100944188.8534                   24651603.8854   24651596.9384
        38.6004         35.0004
 133139619.2504  103745153.2254                   25335630.9244   25335625.8304
        39.0004         34.0004
 127742471.6284   99539594.4764                   24308582.6934   24308579.1794
        44.0004         38.3004
 128271918.9034   99952135.7944                   24409344.6844   24409340.2124
        42.3004         36.6004
 123603123.5584   96314132.7274                   23520889.2254   23520885.9564
        46.3004         39.6004
 114906909.5354   89537849.8634                   21866050.7114   21866047.4054
        49.6004         43.3004
 109867788.9734   85611263.5384                   20907140.2884   20907134.9514
        53.0004         47.3004
 19  3 26 19 53  0.0000000  0 13G01G05G07G08G09G11G13G17G18G23G27G28
                                G30
 132844807.4194  103515444.3594                   25279534.2284   25279524.8204
        37.3004         37.3004
 131771083.7054  102678756.4754                   25075210.0514   25075207.4174
        42.3004         36.6004
 107186143.0884   83521671.0524                   20396840.3674   20396837.8734
        56.0004         48.6004
 112543239.5984   87696048.5974                   21416262.3454   21416256.7414
        54.0004         47.6004
 115813691.4114   90244426.3134                   22038617.2714   22038610.2894
        46.6004         46.0004
 121589906.6864   94745399.5604                   23137783.6244   23137779.7754
        48.0004         40.0004
 129442734.1394  100864477.4074                   24632134.8534   24632133.2654
        41.3004         34.0004
 133028281.5974  103658396.6364                   25314446.5694   25314437.5264
        39.3004         36.6004
 127659531.2584   99474965.6394                   24292800.6274   24292796.2554
        45.0004         39.0004
 128386319.1844  100041278.7194                   24431112.8824   24431107.4524
        41.6004         36.6004
 123697543.2024   96387706.4164                   23538856.2704   23538851.8344
        46.0004         40.6004
 114854821.9814   89497262.1974                   21856139.0024   21856134.5234
        49.3004         44.0004
 109817432.9464   85572025.0834                   20897557.8564   20897552.2374
        53.3004         47.3004
 19  3 26 19 53 30.0000000  0 13G01G05G07G08G09G11G13G17G18G23G27G28
                                G30
 132752803.2664  103443752.9384                   25262024.9084   25262015.0174
        39.0004         38.0004
 131817215.5234  102714703.2834                   25083990.3014   25083982.8984
        40.6004         36.6004
 107188311.1774   83523360.4674                   20397252.9154   20397250.6664
        56.0004         48.6004
 112587780.5324   87730755.8144                   21424738.4634   21424733.4074
        54.0004         48.0004
 115908504.4614   90318306.5844                   22056659.1884   22056654.6654
        47.6004         45.3004
 121507310.8374   94681039.1954                   23122063.7024   23122064.9034
        49.3004         38.6004
 129340644.2384  100784926.9344                   24612708.8004   24612707.2304
        41.3004         34.6004
 132916935.5894  103571633.5864                   25293255.5794   25293250.8444
        40.3004         36.6004
 127576779.1594   99410483.4934                   24277053.4134   24277048.3354
        45.3004         39.6004
 128500769.0604  100130460.3034                   24452893.3064   24452889.3354
        42.6004         36.6004
 123792283.2844   96461529.8014                   23556886.3464   23556881.1524
        46.3004         41.6004
 114803009.0184   89456888.4844                   21846279.0924   21846275.2594
        49.6004         44.0004
 109767336.0664   85532988.5684                   20888024.7054   20888019.7514
        53.6004         47.3004
 19  3 26 19 54  0.0000000  0 13G01G05G07G08G09G11G13G17G18G23G27G28
                                G30
 132660736.1294  103372012.4414                   25244505.5054   25244496.8464
        40.0004         35.6004
 131863706.0614  102750929.6594                   25092832.5764   25092828.5504
        39.3004         33.3004
 107190836.4154   83525328.1854                   20397733.2104   20397731.1424
        56.3004         48.6004
 112632867.0304   87765888.1534                   21433317.9204   21433312.4274
        53.6004         48.0004
 116003622.1624   90392424.2374                   22074760.2694   22074754.4194
        47.3004         46.0004
 121424985.9544   94616889.9514                   23106398.9454   23106397.8894
        49.3004         38.6004
 129238764.3364  100705540.0004                   24593323.2424   24593317.0924
        39.0004         36.6004
 132805584.3644  103484866.5344                   25272069.8814   25272059.6954
        38.0004         38.3004
 127494219.3344   99346151.2174                   24261343.1454   24261336.9934
        45.0004         40.0004
 128615266.6754  100219679.0994                   24474679.8264   24474676.6534
        42.3004         35.6004
 123887341.4994   96535601.0904                   23574975.4624   23574970.0394
        46.0004         41.3004
 114751471.3194   89416729.2634                   21836470.9624   21836467.4564
        49.0004         44.0004
 109717500.4494   85494155.6254                   20878540.5784   20878536.1894
        54.0004         47.0004
 19  3 26 19 54 30.0000000  0 13G01G05G07G08G09G11G13G17G18G23G27G28
                                G30
 132568608.3024  103300224.6334                   25226973.9354   25226964.8884
        40.0004         35.3004
 131910552.2874  102787433.2064                   25101745.7424   25101747.3184
        40.6004         31.6004
 107193719.1374   83527574.4584                   20398281.6324   20398279.7414
        56.3004         48.6004
 112678496.5204   87801443.5974                   21442000.7834   21441995.5494
        53.6004         48.0004
 116099041.2144   90466776.7024                   22092918.6774   22092913.1114
        48.0004         46.3004
 121342934.2204   94552953.5564                   23090786.0134   23090782.3754
        48.0004         39.3004
 129137096.3064  100626318.1484                   24573975.3514   24573971.2284
        40.3004         35.6004
 132694229.4494  103398096.5964                   25250880.0324   25250872.9564
        40.3004         35.0004
 127411854.3734   99281970.7404                   24245668.3464   24245663.9484
        44.3004         40.0004
 128729808.8844  100308932.6414                   24496478.1334   24496473.7874
        43.0004         37.3004
 123982714.3134   96609917.5244                   23593124.3504   23593119.7884
        45.6004         40.6004
 114700207.7954   89376783.6814                   21826716.9364   21826713.2964
        49.6004         44.0004
 109667926.9104   85455526.9074                   20869106.6954   20869102.3874
        54.0004         47.0004
 19  3 26 19 55  0.0000000  0 13G01G05G07G08G09G11G13G17G18G23G27G28
                                G30
 132476423.1044  103228392.1054                   25209432.0694   25209422.2374
        40.0004         36.3004
 131957752.2264  102824212.3154                   25110733.8134   25110728.4434
        42.0004         35.0004
 107196960.8704   83530100.4834                   20398898.5124   20398896.2054
        56.0004         48.6004
 112724667.8844   87837421.2774                   21450786.5004   21450781.2634
        53.3004         47.6004
 116194759.1724   90541362.0704                   22111132.7034   22111126.7824
        47.6004         46.0004
 121261158.7454   94489232.4404                   23075224.4464   23075222.6284
        49.0004         38.0004
 129035642.9464  100547263.6964                   24554666.0954   24554661.8704
        37.0004         36.6004
 132582873.5684  103311325.8354                   25229685.6924   25229681.1154
        41.0004         35.0004
 127329687.8984   99217944.9644                   24230032.0034   24230028.7994
        43.3004         39.0004
 128844393.2714  100398219.0684                   24518282.9204   24518279.2164
        43.3004         35.3004
 124078399.0934   96684477.0724                   23611332.9234   23611327.3164
        45.3004         39.0004
 114649218.4494   89337051.7554                   21817013.5414   21817010.8774
        49.6004         43.3004
 109618617.2334   85417103.7884                   20859723.8154   20859718.8384
        53.6004         47.0004
 19  3 26 19 55 30.0000000  0 13G01G05G07G08G09G11G13G17G18G23G27G28
                                G30
 132384183.0704  103156516.8524                   25191878.2064   25191869.8184
        39.6004         37.3004
 132005302.8364  102861264.6724                   25119781.4154   25119777.0064
        42.0004         35.6004
 107200562.0344   83532906.5814                   20399583.7714   20399581.8974
        56.0004         48.6004
 112771378.3534   87873819.0474                   21459675.1704   21459670.1104
        53.3004         47.6004
 116290772.9774   90616178.0004                   22129403.0274   22129396.7784
        47.0004         46.0004
 121179662.3664   94425728.7794                   23059713.3864   23059713.6274
        48.3004         38.3004
 128934407.0634  100468378.5664                   24535403.7444   24535401.4234
        41.0004         35.3004
 132471518.8844  103224556.0304                   25208496.6674   25208493.0404
        42.3004         34.0004
 127247722.7324   99154076.0474                   24214435.7744   24214430.3274
        42.6004         39.0004
 128959017.0594  100487536.1524                   24540093.1664   24540090.0954
        42.6004         35.3004
 124174392.5754   96759277.1514                   23629598.2154   23629593.7514
        44.3004         38.0004
 114598502.7714   89297533.0774                   21807363.3104   21807360.1774
        50.0004         44.0004
 109569572.5464   85378887.1624                   20850390.3144   20850386.8324
        54.3004         47.0004
 19  3 26 19 56  0.0000000  0 13G01G05G07G08G09G11G13G17G18G23G27G28
                                G30
 132291892.2814  103084602.0644                   25174313.9124   25174307.5934
        39.3004         36.0004
 132053203.0264  102898589.4544                   25128896.0234   25128891.5164
        40.0004         34.0004
 107204524.8644   83535994.4944                   20400337.8974   20400335.3324
        55.6004         48.6004
 112818627.4524   87910636.5204                   21468666.7634   21468661.0274
        53.0004         48.0004
 116387081.0014   90691223.1704                   22147730.5164   22147724.3464
        47.3004         45.6004
 121098448.9904   94362445.6654                   23044260.7534   23044258.0534
        47.3004         39.0004
 128833392.1534  100389665.7454                   24516183.3974   24516177.5924
        40.0004         36.3004
 132360168.3404  103137789.5294                   25187308.0164   25187301.9024
        38.6004         37.6004
 127165963.6204   99090367.6914                   24198876.7114   24198874.1324
        42.3004         38.3004
 129073678.8114  100576882.8684                   24561914.4224   24561909.8154
        42.0004         36.6004
 124270692.9264   96834316.3544                   23647923.0234   23647919.9674
        44.0004         37.3004
 114548061.0804   89258227.8984                   21797764.1984   21797761.6124
        50.0004         44.0004
 109520795.4544   85340879.0424                   20841108.7774   20841104.5264
        54.0004         47.0004
 19  3 26 19 56 30.0000000  0 13G01G05G07G08G09G11G13G17G18G23G27G28
                                G30
 132199552.5874  103012649.1804                   25156742.7264   25156735.5294
        38.0004         38.3004
 132101448.8114  102936183.5224                   25138076.0024   25138071.4824
        40.3004         35.3004
 107208849.2104   83539364.1094                   20401161.1074   20401158.7714
        55.6004         48.3004
 112866411.7584   87947871.0284                   21477760.2264   21477754.7754
        53.0004         48.3004
 116483679.3944   90766494.6134                   22166111.8184   22166106.2484
        47.0004         45.6004
 121017520.4524   94299384.5304                   23028862.2474   23028862.9594
        50.0004         37.6004
 128732599.9354  100311126.3054                   24496999.7254   24496997.7844
        39.6004         35.0004
 132248822.8704  103051027.0114                   25166119.2134   25166113.5934
        38.3004         36.6004
 127084412.1804   99026821.1874                   24183358.3804   24183351.9764
        40.3004         40.0004
 129188374.7824  100666256.1804                   24583739.1634   24583736.5924
        42.0004         35.6004
 124367296.1314   96909591.5794                   23666306.8034   23666302.5784
        44.0004         38.0004
 114497892.3604   89219135.4234                   21788217.6614   21788215.3254
        50.3004         44.0004
 109472286.2844   85303079.7054                   20831878.2544   20831873.6704
        54.0004         47.6004
 19  3 26 19 57  0.0000000  0 13G01G05G07G08G09G11G13G17G18G23G27G28
                                G30
 132107167.5684  102940660.9554                   25139163.3754   25139154.2934
        37.3004         37.6004
 132150038.2774  102974045.3564                   25147322.8184   25147321.0054
        43.6004         33.6004
 107213536.5124   83543016.5464                   20402052.9984   20402050.2034
        55.6004         48.6004
 112914729.6704   87985521.3384                   21486954.5654   21486948.9354
        53.0004         48.0004
 116580565.9754   90841990.6214                   22184548.3854   22184542.8644
        47.3004         45.3004
 120936880.5394   94236548.2824                   23013515.0604   23013511.8754
        47.3004         39.3004
 128632033.1944  100232762.7064                   24477862.0354   24477858.2124
        37.0004         36.6004
 132137486.0514  102964271.1894                   25144931.0754   25144928.2414
        42.0004         34.3004
 127003072.9544   98963440.0734                   24167879.6284   24167874.8924
        42.0004         39.6004
 129303102.8074  100755654.5404                   24605572.2124   24605568.7634
        42.3004         35.0004
 124464199.7764   96985100.9184                   23684747.8144   23684742.8134
        45.0004         40.0004
 114447997.2704   89180256.1704                   21778722.0104   21778718.8234
        49.6004         43.6004
 109424047.1394   85265490.7744                   20822698.4184   20822694.1144
        54.0004         47.3004
 19  3 26 19 57 30.0000000  0 13G01G05G07G08G09G11G13G17G18G23G27G28
                                G30
 132014739.6654  102868639.3394                   25121576.4644   25121566.9244
        36.6004         37.0004
 132198968.7324  103012172.9764                   25156636.0834   25156629.5884
        41.6004         36.3004
 107218587.1644   83546952.1134                   20403014.2664   20403011.6574
        56.0004         48.6004
 112963579.4404   88023586.0884                   21496250.2734   21496245.0314
        53.3004         47.6004
 116677737.6424   90917708.7674                   22203039.2254   22203033.8804
        47.0004         45.3004
 120856532.2344   94173939.2544                   22998225.7584   22998220.9614
        45.3004         40.6004
 128531694.5804  100154576.7784                   24458771.7234   24458763.4794
        38.6004         37.3004
 132026159.1384  102877523.0414                   25123748.4424   25123743.0884
        43.3004         35.0004
 126921948.8664   98900226.5484                   24152443.2894   24152437.0534
        43.0004         39.3004
 129417859.9974  100845075.6014                   24627410.3104   24627405.2724
        40.6004         37.0004
 124561400.5784   97060841.7614                   23703244.2074   23703238.6784
        44.6004         40.0004
 114398374.7724   89141589.3014                   21769277.3254   21769277.8754
        50.6004         42.6004
 109376079.0704   85228113.0654                   20813570.1134   20813565.6384
        53.6004         47.6004
 19  3 26 19 58  0.0000000  0 13G01G05G07G08G09G11G13G17G18G23G27G28
                                G30
 131922272.9904  102796587.5134                   25103977.9904   25103966.6964
        34.3004         41.0004
 132248238.4444  103050564.8994                   25166011.7414   25166003.6574
        40.0004         38.6004
 107224003.3434   83551172.5064                   20404044.6734   20404042.5234
        55.6004         48.6004
 113012959.6784   88062064.1914                   21505647.1554   21505642.2764
        53.3004         47.6004
 116775192.4194   90993647.5334                   22221586.1944   22221580.2014
        47.6004         46.3004
 120776478.9294   94111560.1074                   22982994.1294   22982991.6724
        48.0004         38.6004
 128431587.6494  100076571.5364                   24439721.3834   24439715.2924
        39.6004         37.3004
 131914845.3524  102790785.1444                   25102563.1564   25102559.7214
        39.6004         35.0004
 126841043.6284   98837183.5854                   24137047.4694   24137042.7094
        44.6004         39.3004
 129532644.4934  100934517.9034                   24649251.7334   24649248.1874
        40.0004         37.3004
 124658896.4574   97136812.5704                   23721796.8724   23721792.0094
        44.3004         39.6004
 114349025.3824   89103135.2404                   21759886.7564   21759886.2514
        50.0004         42.6004
 109328384.4624   85190948.4424                   20804493.8234   20804490.2014
        53.6004         47.3004
 19  3 26 19 58 30.0000000  0 13G01G05G07G08G09G11G13G17G18G23G27G28
                                G30
 131829769.4464  102724506.9524                   25086377.1534   25086367.9144
        37.3004         38.6004
 132297843.7854  103089218.3564                   25175450.6924   25175442.6464
        38.0004         37.3004
 107229784.6594   83555677.4274                   20405144.9284   20405142.5504
        56.0004         48.3004
 113062867.0674   88100953.0664                   21515144.4344   21515138.6694
        53.3004         48.0004
 116872926.6154   91069803.9954                   22240184.0414   22240177.6394
        46.6004         46.3004
 120696722.7904   94049412.5074                   22967816.9844   22967814.7714
        48.3004         39.6004
 128331714.2224   99998748.0544                   24420715.9604   24420713.1354
        41.0004         36.0004
 131803546.1414  102704058.6494                   25081384.3114   25081378.4584
        37.0004         33.0004
 126760359.8524   98774313.1304                   24121693.0524   24121689.5624
        45.6004         38.0004
 129647452.7974  101023978.8074                   24671100.0194   24671096.8844
        41.6004         35.3004
 124756683.5644   97213010.2744                   23740405.6034   23740399.7724
        43.3004         39.6004
 114299948.0514   89064893.1854                   21750548.3834   21750546.5834
        50.0004         43.6004
 109280963.8204   85153997.2934                   20795470.0224   20795466.4274
        53.6004         47.3004
 19  3 26 19 59  0.0000000  0 13G01G05G07G08G09G11G13G17G18G23G27G28
                                G30
 131737232.3614  102652400.2284                   25068766.5284   25068759.1494
        37.6004         38.0004
 132347782.7064  103128131.7954                   25184953.1334   25184950.6844
        41.6004         34.0004
 107235932.7294   83560468.1324                   20406314.7594   20406312.1194
        55.6004         48.6004
 113113300.0634   88140251.5034                   21524741.2264   21524735.1914
        53.0004         48.6004
 116970937.8414   91146176.3404                   22258834.9854   22258827.9174
        46.3004         46.6004
 120617266.9664   93987498.9424                   22952695.1084   22952689.6044
        45.3004         41.6004
 128232076.8454   99921108.5754                   24401755.1614   24401749.3634
        39.6004         37.3004
 131692263.9634  102617345.4624                   25060208.8384   25060202.6264
        40.6004         37.6004
 126679901.1154   98711618.0444                   24106381.4514   24106377.7894
        45.0004         37.0004
 129762282.6944  101113456.5244                   24692951.6454   24692948.0284
        41.0004         37.3004
 124854759.2924   97289432.8654                   23759068.5044   23759063.0074
        42.6004         40.0004
 114251142.9844   89026863.2844                   21741261.5044   21741259.5864
        50.3004         44.0004
 109233818.9994   85117261.0654                   20786498.9634   20786494.6774
        53.3004         48.0004
 19  3 26 19 59 30.0000000  0 13G01G05G07G08G09G11G13G17G18G23G27G28
                                G30
 131644665.0834  102580269.9974                   25051150.1354   25051142.6394
        36.3004         40.6004
 132398052.6164  103167303.0784                   25194519.0574   25194515.4234
        42.6004         34.0004
 107242448.5404   83565545.3834                   20407554.6404   20407551.9194
        55.6004         48.3004
 113164256.9324   88179958.1484                   21534437.9904   21534432.0974
        53.0004         48.3004
 117069223.6034   91222762.6134                   22277538.1164   22277531.0884
        45.6004         46.3004
 120538115.1014   93925822.2004                   22937632.9124   22937631.7524
        47.6004         39.3004
 128132678.5974   99843655.4544                   24382839.4504   24382834.8504
        39.6004         36.6004
 131581001.6844  102530647.7034                   25039033.8824   25039030.4134
        42.6004         35.3004
 126599671.1354   98649101.2034                   24091114.7784   24091110.1314
        43.6004         36.6004
 129877131.7734  101202949.1634                   24714806.3994   24714801.5574
        40.3004         38.6004
 124953120.9764   97366078.2714                   23777786.7784   23777780.7774
        42.3004         38.6004
 114202609.8414   88989045.2904                   21732026.3734   21732024.1044
        50.3004         44.3004
 109186951.7794   85080741.1504                   20777581.2674   20777575.3754
        53.0004         48.6004
 19  3 26 20  0  0.0000000  0 13G01G05G07G08G09G11G13G17G18G23G27G28
                                G30
 131552071.1424  102508118.9614                   25033531.7604   25033525.2034
        38.6004         38.6004
 132448651.6454  103206730.8634                   25204150.1024   25204143.0904
        42.6004         36.0004
 107249333.6804   83570910.4234                   20408864.7864   20408862.4604
        55.6004         48.3004
 113215736.1924   88220071.8484                   21544234.6764   21544228.9214
        53.3004         48.6004
 117167781.6814   91299561.0604                   22296293.1974   22296286.0114
        46.0004         46.3004
 120459270.3484   93864384.7844                   22922630.2844   22922628.9994
        48.3004         39.0004
 128033523.1724   99766391.5524                   24363967.9414   24363964.2834
        37.3004         36.6004
 131469761.9614  102443967.5294                   25017869.1504   25017864.2124
        39.6004         33.0004
 126519673.6644   98586765.5744                   24075891.1424   24075887.4954
        42.3004         35.6004
 129991997.9884  101292455.1474                   24736666.0894   24736661.6994
        40.6004         39.3004
 125051766.2854   97442944.6774                   23796556.9324   23796553.1474
        43.3004         37.6004
 114154348.9614   88951439.4484                   21722842.3004   21722840.1004
        50.0004         44.3004
 109140364.1734   85044439.1254                   20768715.9154   20768710.2974
        53.3004         48.6004
 19  3 26 20  0 30.0000000  0 13G01G05G07G08G09G11G13G17G18G23G27G28
                                G30
 131459452.2564  102435948.4694                   25015905.8544   25015898.2794
        37.6004         38.0004
 132499575.7654  103246411.9414                   25213838.1434   25213834.7074
        43.0004         34.3004
 107256587.4294   83576562.6904                   20410245.4564   20410243.1024
        55.6004         48.3004
 113267734.2974   88260589.8444                   21554129.3134   21554124.0284
        53.6004         48.3004
 117266607.8904   91376568.4384                   22315099.0694   22315092.8014
        46.0004         45.6004
 120380734.5144   93803188.0974                   22907685.1454   22907679.3484
        45.6004         41.3004
 127934611.9414   99689317.8914                   24345148.4514   24345145.1064
        41.3004         35.6004
 131358545.6294  102357305.5534                   24996703.3464   24996698.6714
        41.0004         34.6004
 126439910.7534   98524612.7154                   24060713.2074   24060709.0134
        41.3004         34.0004
 130106877.5504  101381971.5334                   24758527.7884   24758522.0794
        40.3004         39.0004
 125150690.8934   97520028.7384                   23815381.5424   23815378.4474
        44.3004         35.3004
 114106358.7434   88914044.5294                   21713709.8254   21713707.9504
        50.0004         43.6004
 109094056.3404   85008355.1064                   20759903.9154   20759898.3144
        53.3004         48.6004
 19  3 26 20  1  0.0000000  0 13G01G05G07G08G09G11G13G17G18G23G27G28
                                G30
 131366812.2414  102363761.5464                   24998276.8914   24998267.5134
        36.0004         42.0004
 132550823.2334  103286344.9784                   25223589.9814   25223583.3314
        40.0004         37.0004
 107264211.6124   83582503.6024                   20411696.1654   20411693.8994
        55.6004         48.3004
 113320249.4884   88301510.7674                   21564122.0474   21564117.0604
        53.3004         48.3004
 117365700.2224   91453783.2104                   22333955.5274   22333950.0624
        46.6004         45.3004
 120302511.3454   93742235.0324                   22892799.2864   22892798.5984
        48.3004         39.3004
 127835947.7924   99612436.8204                   24326374.8504   24326365.7994
        36.3004         37.3004
 131247355.9144  102270664.3714                   24975544.9484   24975540.9524
        43.6004         38.0004
 126360386.3104   98462645.6694                   24045577.9904   24045574.3854
        40.0004         35.0004
 130221768.4634  101471496.7624                   24780389.8454   24780385.9614
        40.3004         38.3004
 125249892.5744   97597328.7784                   23834254.6254   23834256.7774
        45.3004         34.0004
 114058639.4684   88876860.6954                   21704628.0844   21704626.6884
        49.6004         43.3004
 109048030.4894   84972490.8094                   20751145.2394   20751140.5314
        53.6004         48.6004
 19  3 26 20  1 30.0000000  0 13G01G05G07G08G09G11G13G17G18G23G27G28
                                G30
 131274154.7244  102291560.9504                   24980642.7744   24980638.5984
        39.0004         38.3004
 132602391.9044  103326528.2444                   25233405.1934   25233398.6394
        40.3004         35.6004
 107272207.6254   83588734.2554                   20413217.6704   20413215.4634
        55.6004         48.3004
 113373280.5864   88342833.7024                   21574212.9774   21574208.5644
        53.3004         48.0004
 117465056.4724   91531203.6234                   22352862.7944   22352855.9644
        46.6004         45.0004
 120224604.5514   93681528.4554                   22877973.7424   22877972.1024
        48.3004         40.0004
 127737534.3034   99535751.0084                   24307643.2464   24307644.0604
        41.0004         35.3004
 131136195.5884  102184046.0904                   24954391.5054   24954388.4694
        42.3004         35.3004
 126281104.2504   98400867.5044                   24030493.2384   24030486.0544
        40.0004         36.0004
 130336669.2814  101561029.6984                   24802255.1494   24802252.1574
        41.6004         37.0004
 125349369.1234   97674842.9494                   23853188.7824   23853185.5804
        45.0004         36.0004
 114011191.5264   88839888.2994                   21695599.0174   21695598.3204
        50.0004         43.0004
 109002288.7634   84936847.9084                   20742440.0504   20742435.8504
        53.6004         48.6004
 19  3 26 20  2  0.0000000  0 13G01G05G07G08G09G11G13G17G18G23G27G28
                                G30
 131181482.6434  102219349.0224                   24963011.1984   24963003.3524
        39.6004         37.6004
 132654279.1584  103366959.8514                   25243277.8254   25243273.9014
        43.0004         34.0004
 107280576.2334   83595255.2424                   20414810.2734   20414807.7464
        55.6004         48.6004
 113426825.5094   88384557.0184                   21584402.4334   21584397.7594
        53.0004         47.6004
 117564673.7394   91608827.4264                   22371819.0724   22371813.7004
        47.3004         45.0004
 120147016.7564   93621070.4874                   22863210.8894   22863206.7824
        48.0004         40.6004
 127639373.9424   99459262.3844                   24288965.6744   24288960.3104
        36.6004         35.0004
 131025066.8284  102097452.3844                   24933242.8114   24933239.0414
        39.6004         32.0004
 126202067.8964   98339280.8074                   24015453.2844   24015448.9584
        42.3004         35.0004
 130451576.5824  101650567.7034                   24824122.0954   24824117.8364
        42.0004         38.0004
 125449117.3634   97752568.8604                   23872169.8184   23872167.0814
        45.0004         37.0004
 113964014.3974   88803126.9084                   21686621.8944   21686621.6024
        50.3004         43.0004
 108956832.5384   84901427.4814                   20733789.6314   20733786.2514
        54.0004         48.3004
 19  3 26 20  2 30.0000000  0 13G01G05G07G08G09G11G13G17G18G23G27G28
                                G30
 131088798.5324  102147127.6884                   24945373.2704   24945362.1534
        37.3004         40.3004
 132706481.7024  103407637.1534                   25253212.0964   25253207.0724
        42.6004         34.3004
 107289318.0024   83602067.0074                   20416473.7104   20416471.1074
        55.6004         48.0004
 113480881.2124   88426678.3284                   21594689.7354   21594684.9694
        53.3004         47.3004
 117664548.6314   91686651.9934                   22390824.7584   22390819.7054
        48.3004         44.0004
 120069750.1324   93560862.7564                   22848506.9704   22848504.9804
        49.0004         39.6004
 127541469.0364   99382972.9404                   24270334.5584   24270333.2314
        41.0004         34.0004
 130913971.7064  102010884.9094                   24912104.3524   24912099.3544
        44.6004         36.3004
 126123279.9234   98277887.6644                   24000460.0664   24000456.2704
        43.6004         36.0004
 130566487.5874  101740108.6044                   24845988.9704   24845984.8704
        43.3004         36.0004
 125549133.8884   97830503.7934                   23891203.8944   23891199.3914
        44.0004         38.3004
 113917107.1104   88766575.7954                   21677696.8184   21677695.5804
        50.6004         43.3004
 108911662.7604   84866230.2494                   20725194.0134   20725190.5964
        54.3004         48.0004
 19  3 26 20  3  0.0000000  0 13G01G05G07G08G09G11G13G17G18G23G27G28
                                G30
 130996105.5864  102074899.5244                   24927732.9484   24927728.7084
        39.6004         37.0004
 132758997.1434  103448558.2654                   25263205.5844   25263200.8104
        42.0004         34.6004
 107298434.0704   83609170.4354                   20418208.2434   20418205.7584
        55.6004         48.3004
 113535445.8114   88469196.1804                   21605073.1064   21605067.7874
        52.3004         48.0004
 117764678.5434   91764675.2544                   22409878.3044   22409872.4204
        47.0004         44.6004
 119992808.0924   93500907.9394                   22833864.2894   22833863.4774
        49.0004         39.3004
 127443822.3084   99306884.5854                   24251753.3464   24251749.1684
        39.3004         37.0004
 130802912.4124  101924345.3674                   24890969.2504   24890964.7934
        43.3004         38.0004
 126044743.8624   98216690.7644                   23985515.3154   23985511.4214
        44.3004         37.0004
 130681399.8364  101829650.4844                   24867856.0564   24867852.1654
        43.3004         35.6004
 125649415.9384   97908645.6014                   23910287.7624   23910281.5654
        42.0004         40.3004
 113870469.4254   88730234.7714                   21668822.7054   21668819.2334
        49.3004         44.6004
 108866781.0574   84831257.4954                   20716654.1334   20716649.2384
        54.0004         48.3004
 19  3 26 20  3 30.0000000  0 13G01G05G07G08G09G11G13G17G18G23G27G28
                                G30
 130903407.1934  102002667.0754                   24910095.7084   24910085.9594
        36.3004         37.0004
 132811822.8934  103489721.0824                   25273258.8524   25273253.4134
        42.3004         35.6004
 107307925.2254   83616566.1374                   20420014.2424   20420011.9054
        55.6004         48.0004
 113590517.3234   88512109.0244                   21615552.5934   21615547.0624
        52.0004         47.6004
 117865060.9414   91842895.2824                   22428980.5864   22428976.0184
        47.6004         43.6004
 119916193.8074   93441208.5184                   22819283.4564   22819281.5484
        47.6004         40.0004
 127346436.8254   99230999.9074                   24233222.8054   24233220.3394
        41.6004         36.0004
 130691891.2024  101837835.5604                   24869844.3734   24869838.1774
        41.0004         37.0004
 125966463.2364   98155692.9484                   23970619.2334   23970614.9834
        44.3004         37.3004
 130796311.2834  101919191.7394                   24889723.6934   24889719.4774
        43.6004         35.6004
 125749960.8814   97986992.2594                   23929420.2014   23929414.1494
        41.0004         40.6004
 113824101.3564   88694103.8684                   21659999.7074   21659995.8554
        49.6004         44.6004
 108822189.2204   84796510.6254                   20708169.1024   20708163.5374
        54.0004         48.3004
 19  3 26 20  4  0.0000000  0 13G01G05G07G08G09G11G13G17G18G23G27G28
                                G30
 130810706.2784  101930432.6934                   24892455.3024   24892441.5814
        32.6004         40.3004
 132864956.4394  103531123.7904                   25283369.5564   25283363.0064
        42.6004         36.0004
 107317792.3064   83624254.7714                   20421891.8604   20421890.1724
        56.0004         47.6004
 113646093.1874   88555414.8884                   21626128.0594   21626122.7024
        52.0004         47.3004
 117965692.8524   91921309.7264                   22448130.8494   22448124.2934
        46.6004         44.3004
 119839910.1394   93381766.7254                   22804767.8894   22804767.1024
        48.6004         38.6004
 127249315.0024   99155320.5794                   24214738.7864   24214737.8354
        40.6004         35.3004
 130580910.4594  101751357.2194                   24848721.9384   24848717.9094
        44.0004         31.3004
 125888441.0034   98094896.4564                   23955771.5114   23955767.5514
        44.3004         37.3004
 130911219.0274  102008730.0654                   24911587.6614   24911584.6554
        43.6004         36.3004
 125850765.6614   98065541.3664                   23948602.4574   23948597.1964
        42.0004         40.3004
 113778002.1484   88658182.4394                   21651226.5604   21651223.7154
        50.0004         44.3004
 108777888.6414   84761990.7064                   20699739.0024   20699733.9574
        54.3004         48.6004
 19  3 26 20  4 30.0000000  0 13G01G05G07G08G09G11G13G17G18G23G27G28
                                G30
 130718006.6444  101858199.3464                   24874813.1154   24874804.5884
        36.6004         36.0004
 132918395.7254  103572764.7154                   25293537.8744   25293535.9544
        42.6004         34.3004
 107328036.7954   83632237.4914                   20423841.2964   20423839.1494
        55.6004         47.6004
 113702172.1774   88599112.7974                   21636799.5794   21636794.6004
        52.0004         47.0004
 118066572.1854   91999916.9554                   22467326.9484   22467321.6954
        46.3004         43.6004
 119763960.6794   93322585.3544                   22790316.5774   22790313.9154
        48.0004         39.3004
 127152460.2764   99079849.3714                   24196309.2754   24196308.0814
        41.0004         36.0004
 130469973.4904  101664912.8404                   24827613.6244   24827607.9384
        44.0004         34.3004
 125810681.4724   98034304.6564                   23940973.2404   23940971.5424
        44.0004         36.0004
 131026120.9274  102098263.8624                   24933454.2684   24933450.4164
        43.6004         35.3004
 125951828.0074   98144291.1874                   23967835.1164   23967829.3894
        43.6004         39.3004
 113732172.8074   88622471.2834                   21642503.8984   21642503.6924
        50.6004         43.3004
 108733881.5014   84727699.4434                   20691364.4884   20691359.4054
        54.3004         48.6004
 19  3 26 20  5  0.0000000  0 13G01G05G07G08G09G11G13G17G18G23G27G28
                                G30
 130625310.6484  101785968.7864                   24857174.3244   24857162.7174
        36.0004         38.0004
 132972137.1294  103614641.0694                   25303762.9974   25303761.4604
        41.0004         33.0004
 107338658.8924   83640514.4504                   20425862.7244   20425860.4614
        55.6004         47.6004
 113758751.0564   88643200.2254                   21647566.5414   21647561.3324
        52.0004         47.3004
 118167695.3144   92078714.1654                   22486570.1474   22486565.1894
        46.3004         43.6004
 119688347.4734   93263665.9704                   22775927.0194   22775924.7844
        47.6004         39.0004
 127055874.5024   99004587.8434                   24177932.1224   24177926.7924
        40.3004         37.0004
 130359081.3514  101578503.6754                   24806511.7334   24806505.7674
        41.3004         38.3004
 125733187.1544   97973919.5144                   23926227.8164   23926222.5554
        42.0004         36.0004
 131141013.8514  102187790.6904                   24955316.5204   24955314.3464
        43.6004         35.0004
 126053144.2624   98223238.8784                   23987114.3834   23987110.0644
        45.3004         38.6004
 113686611.5964   88586969.0544                   21633833.5264   21633832.9664
        50.6004         43.0004
 108690168.5604   84693637.4184                   20683045.8954   20683040.9384
        54.3004         48.3004
 19  3 26 20  5 30.0000000  0 13G01G05G07G08G09G11G13G17G18G23G27G28
                                G30
 130532622.2174  101713744.0744                   24839532.7924   24839524.9564
        36.6004         36.0004
 133026178.9544  103656751.5044                   25314049.6124   25314046.0684
        41.0004         31.3004
 107349660.0644   83649086.7864                   20427956.7684   20427954.3004
        55.6004         48.0004
 113815828.4314   88687676.0974                   21658428.4154   21658423.0044
        52.0004         47.6004
 118269060.2384   92157699.7884                   22505859.0674   22505854.1254
        45.3004         43.6004
 119613074.2534   93205011.5464                   22761603.1514   22761600.8324
        47.0004         39.0004
 126959561.4114   98929538.7224                   24159603.2274   24159599.8774
        41.0004         36.6004
 130248237.5574  101492132.0734                   24785418.5264   24785412.2654
        43.6004         36.6004
 125655961.7314   97913743.8874                   23911529.2694   23911526.8394
        39.6004         35.3004
 131255896.3734  102277309.3914                   24977179.3824   24977176.2804
        43.0004         34.6004
 126154712.3024   98302382.7844                   24006442.5064   24006437.6464
        45.3004         38.0004
 113641318.9224   88551676.0624                   21625213.9744   21625213.5294
        50.3004         43.3004
 108646752.0844   84659806.4054                   20674783.5664   20674779.5474
        54.3004         48.0004
 19  3 26 20  6  0.0000000  0 13G01G05G07G08G09G11G13G17G18G23G27G28
                                G30
 130439942.9424  101641526.5594                   24821900.9084   24821892.0954
        38.6004         38.0004
 133080516.9134  103699092.7714                   25324390.6814   25324381.8814
        40.3004         35.3004
 107361039.8444   83657954.1444                   20430122.0974   20430119.9704
        56.0004         48.3004
 113873400.3934   88732537.3554                   21669383.2504   21669377.4384
        51.3004         48.0004
 118370662.6784   92236870.4854                   22525195.2534   22525187.9874
        45.0004         44.3004
 119538142.5514   93146623.2044                   22747344.0994   22747343.7144
        47.6004         38.0004
 126863522.1334   98854702.9194                   24141329.6214   24141323.7884
        41.6004         37.6004
 130137442.7284  101405798.4904                   24764331.9984   24764327.7174
        41.6004         33.6004
 125579007.2794   97853779.4704                   23896887.9814   23896883.0264
        41.0004         33.3004
 131370764.3874  102366816.7744                   24999038.3384   24999035.9704
        43.3004         34.3004
 126256527.7654   98381719.5034                   24025815.7924   24025812.5034
        44.6004         36.6004
 113596292.9494   88516590.9114                   21616646.9534   21616645.4094
        50.3004         43.6004
 108603632.1564   84626206.4624                   20666578.3284   20666574.1744
        54.3004         48.3004
 19  3 26 20  6 30.0000000  0 13G01G05G07G08G09G11G13G17G18G23G27G28
                                G30
 130347278.3644  101569320.5114                   24804265.8324   24804255.3054
        37.3004         37.0004
 133135150.8434  103741664.6604                   25334786.8024   25334778.8054
        40.6004         37.3004
 107372801.4364   83667119.0184                   20432359.9894   20432358.3184
        56.3004         48.0004
 113931467.5344   88777784.4884                   21680432.7634   21680427.7804
        52.0004         47.6004
 118472502.1844   92316225.8944                   22544574.5274   22544566.9574
        45.0004         45.0004
 119463557.9164   93088505.3144                   22733151.8134   22733149.2094
        46.3004         39.0004
 126767761.7854   98780084.5704                   24123102.7244   24123100.5314
        40.6004         35.6004
 130026701.3164  101319506.6044                   24743260.2334   24743254.5634
        40.6004         35.3004
 125502329.6514   97794030.6494                   23882296.9974   23882294.0964
        41.6004         33.6004
 131485617.5374  102456312.5504                   25020894.3454   25020891.7474
        42.6004         34.6004
 126358590.1854   98461248.6364                   24045238.4684   24045235.0594
        43.0004         36.3004
 113551535.8274   88481715.2654                   21608130.8934   21608128.3274
        50.6004         44.0004
 108560812.6784   84592840.6434                   20658429.8094   20658425.6184
        54.3004         48.0004
 19  3 26 20  7  0.0000000  0 13G01G05G07G08G09G11G13G17G18G23G27G28
                                G30
 130254629.6134  101497126.7524                   24786633.7664   24786628.6234
        38.6004         36.6004
 133190076.0884  103784463.4694                   25345237.1494   25345230.5484
        39.3004         36.6004
 107384943.6024   83676580.4454                   20434670.5304   20434668.4044
        55.6004         48.0004
 113990025.1774   88823413.8134                   21691576.4374   21691571.6774
        52.0004         47.6004
 118574573.9204   92395762.2524                   22563996.9694   22563991.0224
        44.6004         44.6004
 119389320.7494   93030658.2094                   22719024.0874   22719020.4784
        45.0004         40.0004
 126672280.9074   98705683.8134                   24104934.7064   24104932.0104
        42.3004         34.6004
 129916014.0984  101233256.9474                   24722196.8654   24722193.1564
        44.0004         37.0004
 125425929.8524   97734498.3924                   23867759.3504   23867753.4904
        41.6004         36.6004
 131600451.2184  102545793.1794                   25042746.2044   25042743.0734
        42.0004         35.6004
 126460894.6304   98540966.3594                   24064706.0464   24064701.1684
        40.3004         37.0004
 113507045.0904   88447047.1824                   21599664.9344   21599662.2034
        50.6004         45.0004
 108518293.1254   84559708.5224                   20650338.5304   20650334.0824
        54.0004         48.0004
 19  3 26 20  7 30.0000000  0 13G01G05G07G08G09G11G13G17G18G23G27G28
                                G30
 130162000.6894  101424948.5044                   24769007.9574   24769002.1004
        39.3004         36.0004
 133245290.5044  103827487.6574                   25355743.9374   25355739.3134
        38.6004         36.0004
 107397467.8804   83686339.6214                   20437054.0144   20437051.3874
        55.6004         48.0004
 114049071.9704   88869424.2944                   21702813.2844   21702808.0264
        52.3004         47.3004
 118676876.0114   92475478.1394                   22583464.7724   22583458.4504
        45.6004         44.6004
 119315435.0944   92973084.9774                   22704963.0754   22704963.8244
        46.3004         38.0004
 126577083.0204   98631503.7994                   24086819.9694   24086813.7174
        39.6004         38.6004
 129805383.8444  101147051.6024                   24701140.3364   24701140.5984
        41.6004         32.6004
 125349812.3024   97675186.0604                   23853273.8994   23853268.6104
        42.3004         38.0004
 131715264.3694  102635257.8184                   25064594.8964   25064590.9274
        42.3004         35.0004
 126563439.1744   98620871.1124                   24084220.5174   24084216.8904
        41.6004         36.3004
 113462821.1134   88412586.9694                   21591250.0574   21591246.5444
        51.0004         44.6004
 108476075.9824   84526812.0544                   20642305.7684   20642301.0074
        54.3004         48.0004
 19  3 26 20  8  0.0000000  0 13G01G05G07G08G09G11G13G17G18G23G27G28
                                G30
 130069394.7814  101352788.1064                   24751384.8004   24751378.1844
        38.0004         34.0004
 133300791.7164  103870735.2084                   25366305.0354   25366300.1004
        39.0004         34.0004
 107410375.3024   83696397.3424                   20439509.9924   20439508.0584
        55.6004         47.3004
 114108605.8334   88915814.3134                   21714142.0024   21714136.3454
        51.6004         47.3004
 118779405.6114   92555371.2824                   22602975.7074   22602969.2474
        45.3004         44.3004
 119241903.8254   92915787.9114                   22690971.4834   22690971.2504
        46.3004         38.6004
 126482171.0284   98557546.4224                   24068756.4124   24068754.6584
        42.0004         34.3004
 129694812.9544  101060892.5794                   24680103.3894   24680097.7184
        41.0004         35.6004
 125273980.1454   97616096.1144                   23838843.9014   23838839.1794
        43.0004         39.0004
 131830054.0234  102724704.1374                   25086439.4964   25086434.4574
        41.3004         34.3004
 126666220.8134   98700960.6414                   24103778.8244   24103775.4854
        43.0004         38.0004
 113418863.7474   88378334.5034                   21582884.1344   21582881.9854
        51.3004         44.0004
 108434162.7414   84494152.3944                   20634330.0374   20634324.6054
        54.3004         48.3004
 19  3 26 20  8 30.0000000  0 13G01G05G07G08G09G11G13G17G18G23G27G28
                                G30
 129976814.7114  101280647.8984                   24733765.5704   24733762.0034
        38.6004         34.0004
 133356576.3084  103914203.7024                   25376921.5874   25376915.2214
        41.0004         36.0004
 107423666.2184   83706753.8924                   20442039.0194   20442036.9394
        55.3004         47.6004
 114168623.9464   88962581.6744                   21725562.7304   21725557.1104
        51.3004         47.6004
 118882159.5144   92635439.2244                   22622529.4844   22622523.6804
        46.0004         43.3004
 119168729.5234   92858769.0154                   22677047.3744   22677043.1574
        45.0004         40.6004
 126387547.5094   98483813.8084                   24050750.1904   24050747.0244
        40.3004         35.0004
 129584304.0054  100974781.8334                   24659074.5014   24659068.5864
        43.6004         37.0004
 125198436.2974   97557230.8394                   23824467.8034   23824463.7964
        43.6004         39.3004
 131944817.2484  102814129.8674                   25108276.2994   25108274.4974
        42.3004         35.6004
 126769236.3564   98781232.4734                   24123381.8944   24123377.2804
        44.0004         40.6004
 113375172.0494   88344289.0494                   21574568.9804   21574567.5514
        51.3004         43.3004
 108392554.5614   84461730.4414                   20626412.0764   20626407.1864
        54.3004         48.3004
 19  3 26 20  9  0.0000000  0 13G01G05G07G08G09G11G13G17G18G23G27G28
                                G30
 129884264.4664  101208530.8754                   24716156.4934   24716150.0924
        37.6004         33.3004
 133412642.1234  103957891.3424                   25387590.9064   25387587.4244
        42.6004         33.6004
 107437342.2274   83717410.5174                   20444641.7084   20444639.7424
        55.6004         48.0004
 114229124.7334   89009725.1364                   21737075.4924   21737069.5884
        51.0004         47.3004
 118985135.7854   92715680.4184                   22642124.2374   22642118.2614
        45.3004         43.6004
 119095916.3294   92802031.4884                   22663192.6594   22663190.2524
        46.6004         40.0004
 126293215.7814   98410308.6044                   24032800.8964   24032799.8644
        43.6004         37.0004
 129473859.4534  100888721.2784                   24638055.8924   24638052.1454
        41.3004         34.0004
 125123184.9834   97498593.4904                   23810148.2204   23810142.5814
        43.3004         40.0004
 132059552.8734  102903534.0824                   25130111.3704   25130107.5794
        42.0004         35.3004
 126872483.7834   98861684.9594                   24143030.6844   24143024.9084
        44.3004         41.6004
 113331746.6164   88310451.0694                   21566304.7114   21566303.8534
        51.3004         43.3004
 108351253.8514   84429548.0774                   20618552.5644   20618548.0704
        54.3004         48.3004
 19  3 26 20  9 30.0000000  0 13G01G05G07G08G09G11G13G17G18G23G27G28
                                G30
 129791746.1784  101136438.7614                   24698550.1294   24698538.4124
        33.6004         38.0004
 133468986.0234  104001795.6634                   25398313.8964   25398308.6694
        42.0004         35.3004
 107451403.2964   83728367.1894                   20447317.7334   20447315.2914
        55.6004         48.0004
 114290104.7264   89057242.0014                   21748679.4054   21748673.9754
        50.6004         46.6004
 119088330.3754   92796091.7594                   22661761.0644   22661756.5924
        46.3004         43.0004
 119023465.1174   92745576.0114                   22649403.2574   22649402.1774
        46.6004         40.3004
 126199177.1104   98337031.7554                   24014903.4774   24014901.6554
        41.6004         36.0004
 129363480.5804  100802711.7244                   24617050.6304   24617046.7954
        42.6004         35.0004
 125048228.1924   97440185.6734                   23795884.8804   23795879.0804
        43.6004         40.0004
 132174257.2154  102992913.9224                   25151939.4924   25151934.5444
        42.3004         36.0004
 126975959.0384   98942315.0134                   24162721.8444   24162714.4164
        43.3004         42.0004
 113288585.8034   88276819.2954                   21558091.7514   21558090.4304
        51.3004         43.6004
 108310260.9454   84397605.5544                   20610751.6254   20610746.8004
        54.0004         48.3004
 19  3 26 20 10  0.0000000  0 13G01G05G07G08G09G11G13G17G18G23G27G28
                                G30
 129699263.7064  101064374.6124                   24680951.8884   24680944.2044
        36.3004         35.0004
 133525606.0144  104045915.0644                   25409089.2254   25409082.8554
        41.0004         36.0004
 107465850.4524   83739624.7084                   20450066.9954   20450064.4214
        55.6004         48.0004
 114351562.5724   89105131.2234                   21760374.7824   21760368.7694
        50.3004         46.6004
 119191741.3774   92876671.7234                   22681439.9614   22681434.5224
        45.6004         42.6004
 118951379.9724   92689405.7954                   22635686.2794   22635683.4494
        46.0004         41.0004
 126105435.6154   98263986.4544                   23997068.5914   23997061.8474
        40.6004         35.3004
 129253170.7094  100716756.0954                   24596063.4304   24596055.5524
        41.6004         38.3004
 124973570.1674   97382010.6184                   23781677.3404   23781673.8564
        44.0004         38.6004
 132288928.4774  103082267.9414                   25173759.0934   25173756.6744
        42.6004         35.3004
 127079660.1774   99023121.0744                   24182455.2334   24182448.2084
        42.0004         41.3004
 113245689.8534   88243393.8924                   21549929.9254   21549927.8824
        51.6004         44.0004
 108269578.2604   84365904.7664                   20603009.7214   20603005.5174
        54.0004         48.3004
 19  3 26 20 10 30.0000000  0 13G01G05G07G08G09G11G13G17G18G23G27G28
                                G30
 129606820.1154  100992340.6824                   24663360.2694   24663352.2884
        36.6004         37.6004
 133582498.8394  104090247.0474                   25419914.4084   25419908.1824
        41.6004         35.0004
 107480684.4384   83751183.6464                   20452889.5904   20452887.5204
        55.6004         48.0004
 114413495.1504   89153390.3734                   21772159.7224   21772155.1214
        50.6004         46.0004
 119295365.6874   92957417.8954                   22701158.2714   22701153.8534
        46.0004         42.3004
 118879663.4204   92633522.8214                   22622040.3464   22622038.2814
        47.6004         40.0004
 126011993.6384   98191174.5824                   23979288.4274   23979281.2764
        41.0004         38.3004
 129142931.9384  100630855.9134                   24575083.8324   24575077.8714
        42.0004         37.3004
 124899213.8144   97324070.6504                   23767528.0264   23767523.4514
        43.3004         39.0004
 132403563.7134  103171593.9214                   25195575.0484   25195569.7934
        42.3004         34.0004
 127183584.0584   99104100.7004                   24202231.3154   24202222.8294
        40.0004         41.0004
 113203057.9464   88210174.2724                   21541817.9474   21541815.4014
        51.6004         44.3004
 108229207.0604   84334446.6804                   20595327.2474   20595322.7184
        54.0004         48.3004
 19  3 26 20 11  0.0000000  0 13G01G05G07G08G09G11G13G17G18G23G27G28
                                G30
 129514418.5874  100920339.5844                   24645776.7074   24645770.6934
        39.6004         36.6004
 133639661.7404  104134789.5034                   25430791.9204   25430784.0744
        40.0004         36.0004
 107495906.5104   83763044.9904                   20455786.6344   20455784.0284
        55.6004         48.0004
 114475900.6814   89202018.0574                   21784035.2834   21784030.6584
        51.0004         45.6004
 119399200.4714   93038328.0724                   22720918.3634   22720912.1464
        45.3004         42.6004
 118808318.8094   92577929.6254                   22608464.6464   22608461.4304
        48.0004         41.0004
 125918853.5854   98118598.0814                   23961558.2844   23961557.4564
        40.0004         34.3004
 129032766.4624  100545012.7234                   24554119.2494   24554112.8554
        42.3004         35.0004
 124825162.5024   97266368.4044                   23753436.9794   23753431.4944
        43.0004         40.0004
 132518160.6914  103260890.0714                   25217380.4974   25217377.1814
        42.0004         34.0004
 127287727.8684   99185251.7094                   24222048.7964   24222040.7144
        37.6004         38.6004
 113160690.3724   88177160.5954                   21533755.8754   21533753.8284
        52.3004         44.3004
 108189148.9344   84303232.5574                   20587705.0444   20587700.4404
        54.3004         48.6004
 19  3 26 20 11 30.0000000  0 13G01G05G07G08G09G11G13G17G18G23G27G28
                                G30
 129422063.0044  100848374.2544                   24628200.8064   24628195.2554
        40.0004         37.6004
 133697092.8264  104179540.9474                   25441722.6224   25441715.3324
        41.6004         35.3004
 107511517.8064   83775209.6204                   20458757.1644   20458754.5544
        55.3004         47.3004
 114538777.1544   89251012.7124                   21796000.3344   21795994.6974
        50.6004         45.3004
 119503243.6524   93119400.6114                   22740717.0574   22740710.9094
        45.3004         43.0004
 118737349.6384   92522629.0044                   22594958.5784   22594955.5134
        47.6004         41.3004
 125826019.2104   98046259.5054                   23943892.8634   23943893.6674
        43.3004         34.3004
 128922677.3434  100459229.0854                   24533171.4044   24533164.6304
        41.0004         38.3004
 124751420.1884   97208906.8714                   23739402.4564   23739398.6294
        43.0004         39.6004
 132632717.7524  103350155.1004                   25239181.5674   25239177.3024
        41.3004         34.0004
 127392089.4754   99266572.3754                   24241908.1154   24241902.9964
        38.3004         37.6004
 113118586.8984   88144352.7274                   21525743.7974   21525741.4264
        52.0004         43.6004
 108149406.0354   84272264.0704                   20580142.3894   20580137.1914
        54.3004         48.6004
 19  3 26 20 12  0.0000000  0 13G01G05G07G08G09G11G13G17G18G23G27G28
                                G30
 129329755.8424  100776446.6264                   24610636.1104   24610625.8424
        37.6004         39.3004
 133754788.5264  104224498.6154                   25452699.7964   25452692.6114
        40.6004         34.6004
 107527518.1064   83787677.3794                   20461801.7544   20461799.2674
        55.3004         47.6004
 114602121.8754   89300372.2214                   21808054.7944   21808048.9024
        50.3004         46.0004
 119607491.5164   93200632.6734                   22760554.1774   22760549.1514
        45.6004         42.3004
 118666757.4324   92467622.1244                   22581524.1844   22581522.2204
        48.0004         41.6004
 125733492.1374   97974160.6024                   23926290.2044   23926282.5464
        40.3004         39.6004
 128812666.2394  100373506.2974                   24512235.5634   24512230.3894
        42.3004         38.3004
 124677989.3214   97151688.0924                   23725428.6234   23725424.3434
        42.3004         39.0004
 132747231.8424  103439386.6874                   25260972.6994   25260968.1094
        40.6004         35.0004
 127496665.0964   99348059.8444                   24261809.1214   24261803.8114
        41.0004         39.6004
 113076746.5944   88111749.9204                   21517781.2924   21517778.9184
        51.6004         44.0004
 108109979.1474   84241541.8174                   20572640.0694   20572635.4374
        54.6004         49.0004
 19  3 26 20 12 30.0000000  0 13G01G05G07G08G09G11G13G17G18G23G27G28
                                G30
 129237500.7934  100704559.5584                   24593078.9454   24593075.3624
        39.6004         37.3004
 133812746.4484  104269660.5844                   25463729.0114   25463722.9284
        41.3004         34.6004
 107543908.7724   83800449.3174                   20464920.4094   20464918.5744
        55.3004         47.0004
 114665932.3244   89350094.6374                   21820197.3764   21820192.2094
        51.0004         46.0004
 119711941.7214   93282022.3964                   22780432.0424   22780425.9544
        46.0004         42.6004
 118596545.5904   92412911.6264                   22568163.6074   22568162.8784
        49.0004         40.3004
 125641275.7754   97902303.7814                   23908740.2694   23908739.4474
        44.3004         34.3004
 128702735.6534  100287846.1694                   24491315.8614   24491311.2224
        42.3004         37.3004
 124604873.4824   97094714.7384                   23711515.5174   23711513.1344
        43.3004         38.0004
 132861700.7474  103528582.9664                   25282756.1604   25282751.7534
        40.6004         34.6004
 127601452.3574   99429712.2234                   24281749.3154   24281743.2844
        43.3004         41.0004
 113035168.9204   88079351.7674                   21509868.7534   21509867.2914
        51.6004         43.3004
 108070870.1894   84211067.3134                   20565197.8454   20565192.3754
        54.3004         49.3004
 19  3 26 20 13  0.0000000  0 13G01G05G07G08G09G11G13G17G18G23G27G28
                                G30
 129145300.4134  100632715.1834                   24575536.5724   24575529.4774
        38.6004         39.6004
 133870963.2674  104315024.3054                   25474806.2244   25474799.8924
        39.3004         35.0004
 107560689.8114   83813525.4454                   20468113.6304   20468112.0214
        55.3004         47.0004
 114730205.7104   89400177.7884                   21832428.4414   21832423.6274
        51.3004         46.3004
 119816590.8784   93363567.1314                   22800345.4024   22800339.2784
        45.3004         43.0004
 118526716.5644   92358499.4214                   22554877.0784   22554873.9164
        48.6004         41.3004
 125549372.2074   97830690.5274                   23891249.5834   23891247.6494
        41.3004         35.6004
 128592887.3134  100202250.2664                   24470414.1194   24470408.9614
        40.3004         38.3004
 124532075.6124   97037989.1654                   23697663.4254   23697658.2224
        42.6004         39.3004
 132976121.5554  103617741.7994                   25304529.1744   25304525.2074
        40.0004         35.6004
 127706447.9384   99511526.9474                   24301729.6504   24301724.0114
        45.0004         41.0004
 112993853.2074   88047157.7134                   21502006.0104   21502004.3004
        51.3004         43.6004
 108032080.2134   84180841.3614                   20557816.1494   20557812.2104
        55.0004         49.0004
 19  3 26 20 13 30.0000000  0 13G01G05G07G08G09G11G13G17G18G23G27G28
                                G30
 129053158.5344  100560916.3894                   24558001.8184   24557991.3704
        36.6004         42.0004
 133929436.4824  104360587.7524                   25485933.5684   25485928.7234
        40.3004         34.6004
 107577862.5774   83826906.8194                   20471381.5574   20471379.9154
        55.3004         47.0004
 114794939.9684   89450620.0504                   21844747.1924   21844742.0994
        51.0004         46.3004
 119921436.6714   93445265.1074                   22820295.8944   22820291.0084
        45.3004         42.6004
 118457273.4664   92304387.9664                   22541662.2684   22541659.0554
        48.6004         41.6004
 125457784.5574   97759323.6464                   23873823.4374   23873819.4464
        43.0004         38.3004
 128483124.4854  100116720.8794                   24449525.1274   24449522.9134
        44.0004         37.6004
 124459599.3024   96981514.1494                   23683870.9194   23683866.8654
        43.0004         38.3004
 133090492.7224  103706861.9224                   25326293.0394   25326289.8824
        40.6004         36.0004
 127811649.5424   99593502.1814                   24321748.4824   24321742.3544
        44.6004         42.6004
 112952799.4194   88015167.7684                   21494193.4554   21494192.2104
        51.0004         43.3004
 107993611.2614   84150865.5584                   20550495.5634   20550490.3154
        54.3004         49.3004
 19  3 26 20 14  0.0000000  0 13G01G05G07G08G09G11G13G17G18G23G27G28
                                G30
 128961079.3734  100489166.4224                   24540478.4764   24540470.5494
        37.0004         41.0004
 133988164.5054  104406349.8484                   25497105.4814   25497106.1634
        40.6004         33.3004
 107595428.7894   83840594.7734                   20474724.4164   20474722.4094
        55.3004         47.0004
 114860133.3584   89501420.0804                   21857153.0854   21857146.9574
        50.3004         46.0004
 120026477.1594   93527114.7914                   22840286.0424   22840279.7874
        45.3004         43.0004
 118388220.1264   92250580.1864                   22528520.6624   22528520.2174
        50.0004         40.6004
 125366516.4304   97688205.5994                   23856453.4924   23856452.6844
        42.3004         37.0004
 128373449.9364  100031260.2614                   24428654.2554   24428651.0714
        43.0004         36.6004
 124387448.6094   96925292.8754                   23670140.6264   23670136.8304
        42.3004         38.3004
 133204812.2544  103795941.8214                   25348048.1124   25348045.3694
        39.6004         35.0004
 127917055.2404   99675636.4274                   24341806.4694   24341800.6884
        42.6004         42.6004
 112912007.8764   87983382.1744                   21486431.6284   21486430.0274
        51.0004         43.6004
 107955465.7504   84121141.7874                   20543236.5354   20543232.2334
        54.6004         49.0004
 19  3 26 20 14 30.0000000  0 13G01G05G07G08G09G11G13G17G18G23G27G28
                                G30
 128869064.3514  100417466.4774                   24522967.6804   24522961.4194
        39.3004         40.0004
 134047143.0034  104452307.0564                   25508332.5144   25508325.6214
        39.0004         33.6004
 107613387.5674   83854588.6184                   20478141.8244   20478139.9444
        55.3004         47.0004
 114925782.3984   89552575.1694                   21869645.3944   21869639.7794
        50.3004         45.6004
 120131707.8284   93609112.6494                   22860310.2024   22860304.6784
        45.3004         42.3004
 118319557.8244   92197077.0934                   22515453.6854   22515454.1154
        50.3004         40.3004
 125275568.9344   97617337.4724                   23839150.1234   23839146.3504
        43.0004         38.0004
 128263864.5314   99945869.1304                   24407803.6104   24407797.0154
        42.3004         40.3004
 124315625.2344   96869326.6354                   23656474.0884   23656469.9284
        43.6004         38.6004
 133319076.7974  103884978.8284                   25369791.5564   25369789.3454
        39.0004         33.6004
 128022660.4974   99757926.1814                   24361902.5134   24361897.5334
        41.0004         41.6004
 112871476.5354   87951799.3374                   21478719.2534   21478717.5744
        51.3004         43.6004
 107917643.5464   84091669.9394                   20536039.2294   20536033.7404
        54.0004         49.3004
 19  3 26 20 15  0.0000000  0 13G01G05G07G08G09G11G13G17G18G23G27G28
                                G30
 128777118.2384  100345820.2204                   24505472.7504   24505464.9084
        39.6004         39.0004
 134106370.4894  104498458.3034                   25519602.6704   25519596.9514
        40.3004         36.0004
 107631740.5174   83868889.6184                   20481634.4204   20481632.4354
        55.6004         47.3004
 114991885.8754   89604084.3674                   21882225.1454   21882218.3834
        50.3004         46.0004
 120237127.2754   93691257.6404                   22880371.1324   22880364.8834
        45.0004         42.6004
 118251290.6114   92143881.8834                   22502463.7854   22502461.9994
        49.6004         41.3004
 125184946.3534   97546722.5184                   23821906.2684   23821900.1524
        43.0004         39.6004
 128154372.0074   99860550.4684                   24386967.5834   24386961.7284
        42.0004         38.6004
 124244133.7604   96813619.0084                   23642869.2114   23642866.0014
        43.6004         39.0004
 133433284.8914  103973971.9344                   25391526.9224   25391523.2044
        39.0004         32.0004
 128128464.0074   99840370.3664                   24382034.9874   24382031.0674
        38.0004         40.0004
 112831206.5314   87920420.1304                   21471056.1974   21471053.5324
        50.6004         44.3004
 107880147.6004   84062452.3244                   20528903.8164   20528899.4544
        54.6004         49.0004
 19  3 26 20 15 30.0000000  0 13G01G05G07G08G09G11G13G17G18G23G27G28
                                G30
 128685243.1774  100274229.2944                   24487990.3134   24487982.0874
        41.0004         38.6004
 134165842.5964  104544800.1674                   25530920.8004   25530915.4474
        42.0004         35.3004
 107650487.4584   83883497.6124                   20485201.9454   20485199.7144
        55.3004         47.3004
 115058439.8964   89655944.6214                   21894889.4254   21894884.1624
        50.6004         45.6004
 120342731.5464   93773546.5904                   22900467.4544   22900460.4944
        44.6004         42.3004
 118183420.2684   92090995.9294                   22489549.9704   22489546.0434
        49.3004         42.0004
 125094649.7354   97476361.5774                   23804721.8744   23804716.9954
        42.3004         38.0004
 128044973.5784   99775305.0034                   24366147.4334   24366142.6654
        43.6004         38.3004
 124172976.3594   96758171.7534                   23629328.8764   23629324.4904
        43.0004         39.3004
 133547433.4804  104062918.6314                   25413252.0164   25413244.4444
        37.6004         30.6004
 128234461.7524   99922965.9544                   24402207.0874   24402204.4904
        41.0004         38.0004
 112791196.2684   87889243.3154                   21463442.5464   21463440.4454
        50.6004         44.0004
 107842978.3404   84033489.2644                   20521830.7154   20521826.2754
        54.6004         49.0004
 19  3 26 20 16  0.0000000  0 13G01G05G07G08G09G11G13G17G18G23G27G28
                                G30
 128593443.2494  100202696.9264                   24470519.5484   24470513.0064
        42.3004         39.3004
 134225557.9044  104591331.5604                   25542285.0244   25542279.4104
        41.6004         35.0004
 107669630.0624   83898413.9194                   20488844.7964   20488842.5624
        55.3004         47.3004
 115125443.0154   89708154.8344                   21907639.0334   21907634.4434
        50.6004         45.0004
 120448518.5724   93855978.0094                   22920596.8554   22920592.7134
        46.0004         40.6004
 118115950.1804   92038421.8594                   22476710.0614   22476709.9694
        51.0004         40.3004
 125004683.2664   97406257.8454                   23787604.7994   23787597.6004
        43.3004         41.0004
 127935672.4184   99690135.2884                   24345348.7754   24345342.6714
        42.3004         39.3004
 124102157.1014   96702987.9224                   23615852.4924   23615847.6174
        42.6004         40.0004
 133661521.4484  104151817.9914                   25434957.9394   25434953.4234
        37.0004         33.3004
 128340651.6944  100005711.3524                   24422412.7314   24422408.2704
        42.0004         38.6004
 112751445.8434   87858268.9784                   21455878.3234   21455875.5954
        50.6004         44.3004
 107806138.0714   84004782.5634                   20514820.2054   20514815.8754
        54.6004         49.0004
 19  3 26 20 16 30.0000000  0 13G01G05G07G08G09G11G13G17G18G23G27G28
                                G30
 128501720.8644  100131225.0034                   24453065.6014   24453058.5194
        42.0004         39.3004
 134285512.6234  104638049.4894                   25553694.3134   25553687.8864
        40.6004         35.6004
 107689168.1574   83913638.4034                   20492562.5914   20492560.7314
        55.6004         47.0004
 115192891.9624   89760712.4564                   21920473.8254   21920468.1324
        50.0004         45.3004
 120554484.7784   93938549.0174                   22940762.6804   22940756.0294
        45.3004         41.3004
 118048882.5264   91986161.3514                   22463945.6184   22463945.8634
        50.0004         40.0004
 124915048.4524   97336412.6614                   23770547.3754   23770537.9374
        41.0004         40.6004
 127826469.6264   99605042.3274                   24324569.0774   24324561.4604
        41.0004         39.6004
 124031678.1654   96648069.3154                   23602441.1584   23602434.7134
        42.0004         39.3004
 133775544.9194  104240667.1624                   25456657.1554   25456651.4214
        36.0004         35.3004
 128447030.2584  100088603.7434                   24442657.1864   24442650.6464
        42.6004         38.0004
 112711954.2164   87827496.2994                   21448363.5424   21448360.6964
        50.6004         44.0004
 107769627.5354   83976332.7964                   20507873.1074   20507868.2124
        54.6004         49.0004
 19  3 26 20 17  0.0000000  0 13G01G05G07G08G09G11G13G17G18G23G27G28
                                G30
 128410079.9494  100059816.5734                   24435627.6674   24435619.8274
        41.0004         40.0004
 134345704.5594  104684952.2514                   25565148.5204   25565142.1004
        41.6004         35.0004
 107709102.6644   83929171.7844                   20496355.8184   20496354.2074
        55.6004         46.6004
 115260784.6584   89813615.8594                   21933393.3404   21933388.0774
        50.0004         45.3004
 120660627.8514   94021257.8534                   22960961.1004   22960955.3414
        46.3004         41.0004
 117982220.5944   91934217.0034                   22451260.0624   22451258.2004
        48.6004         40.6004
 124825748.6944   97266828.3734                   23753550.6164   23753548.0494
        44.6004         36.6004
 127717368.4984   99520028.5884                   24303807.0944   24303801.8554
        44.0004         39.3004
 123961543.3244   96593418.8574                   23589095.3624   23589089.0364
        41.3004         38.3004
 133889502.7704  104329465.1614                   25478343.3174   25478337.1894
        33.3004         30.0004
 128553595.2404  100171641.4274                   24462935.2304   24462929.7444
        43.0004         37.6004
 112672721.3514   87796925.2514                   21440897.1184   21440894.1254
        50.3004         44.3004
 107733448.8534   83948141.6234                   20500988.3494   20500983.0304
        54.6004         49.3004
 19  3 26 20 17 30.0000000  0 12G01G05G07G08G09G11G13G17G18G27G28G30
 128318524.1284   99988474.5194                   24418204.3844   24418196.1664
        39.3004         40.6004
 134406131.3634  104732037.9634                   25576644.1324   25576641.4364
        41.3004         35.3004
 107729435.1734   83945015.2924                   20500224.8684   20500223.2174
        55.3004         47.0004
 115329119.1784   89866863.5404                   21946397.6434   21946392.4234
        50.3004         45.6004
 120766945.4224   94104102.6904                   22981192.6084   22981186.6224
        46.3004         40.6004
 117915967.5014   91882591.2514                   22438653.3004   22438651.8394
        49.0004         41.0004
 124736787.0494   97197507.6574                   23736622.2314   23736618.3504
        42.3004         38.3004
 127608371.7924   99435096.1224                   24283064.2894   24283061.0724
        44.0004         38.0004
 123891756.4514   96539039.5114                   23575814.9574   23575809.4284
        40.6004         38.3004
 128660344.3524  100254822.5864                   24483248.8094   24483243.7094
        42.0004         38.3004
 112633747.1984   87766555.8054                   21433481.0624   21433477.8664
        50.3004         44.6004
 107697604.0224   83920210.5914                   20494167.0034   20494162.8934
        54.6004         49.0004
 19  3 26 20 18  0.0000000  0 12G01G05G07G08G09G11G13G17G18G27G28G30
 128227056.3964   99917201.0944                   24400800.0664   24400790.4154
        40.0004         40.6004
 134466789.6834  104779304.1684                   25588188.7334   25588183.3594
        41.0004         33.0004
 107750165.6874   83961168.9374                   20504170.1014   20504167.8834
        55.3004         47.0004
 115397892.7734   89920453.3604                   21959485.7634   21959479.8654
        50.3004         46.0004
 120873434.3434   94187081.0074                   23001456.9234   23001450.3214
        46.0004         41.3004
 117850125.6134   91831285.8914                   22426125.6654   22426121.9274
        48.6004         41.3004
 124648165.7724   97128452.1874                   23719759.2394   23719754.2044
        43.0004         39.6004
 127499481.3034   99350246.4774                   24262343.3624   24262337.7754
        41.6004         38.6004
 123822320.4414   96484933.5714                   23562601.7554   23562596.8814
        40.6004         37.0004
 128767274.4424  100338144.7024                   24503596.4364   24503591.3734
        40.6004         39.6004
 112595031.0014   87736387.3524                   21426112.8184   21426110.5634
        50.3004         44.6004
 107662094.2294   83892540.6144                   20487410.3184   20487404.8754
        54.3004         49.3004
 19  3 26 20 18 30.0000000  0 12G01G05G07G08G09G11G13G17G18G27G28G30
 128135679.5504   99845998.4744                   24383411.2724   24383402.7984
        41.6004         39.0004
 134527676.5434  104826748.4324                   25599776.8684   25599771.2254
        36.0004         32.0004
 107771294.3424   83977632.8194                   20508191.0414   20508188.6754
        55.3004         47.0004
 115467102.0444   89974382.6674                   21972655.5104   21972649.4384
        50.3004         46.0004
 120980091.1584   94270190.1744                   23021752.5904   23021746.9674
        46.3004         41.0004
 117784697.0764   91780302.6254                   22413674.3354   22413673.2974
        49.6004         40.3004
 124559887.1344   97059663.6494                   23702958.2544   23702956.1244
        43.3004         37.6004
 127390698.8994   99265481.0844                   24241643.8624   24241638.9584
        44.6004         38.3004
 123753237.6724   96431102.8984                   23549455.1614   23549450.6344
        40.0004         36.0004
 128874382.2064  100421605.2644                   24523978.8254   24523974.6314
        40.0004         38.3004
 112556571.5894   87706418.9804                   21418794.1494   21418792.1074
        50.6004         44.0004
 107626920.3964   83865132.4424                   20480716.4824   20480711.6004
        55.0004         49.0004
 19  3 26 20 19  0.0000000  0 12G01G05G07G08G09G11G13G17G18G27G28G30
 128044397.7734   99774869.9194                   24366040.6274   24366031.2394
        42.0004         40.0004
 134588789.8194  104874369.3404                   25611403.4174   25611397.1934
        30.6004         32.0004
 107792822.7254   83994408.1744                   20512288.0264   20512285.3364
        55.3004         47.3004
 115536745.3394   90028650.1664                   21985907.8214   21985901.3644
        49.6004         46.0004
 121086914.0454   94353428.7184                   23042080.5884   23042074.2674
        46.0004         42.0004
 117719685.4734   91729644.2524                   22401301.7844   22401300.3434
        48.6004         41.6004
 124471954.8674   96991145.0384                   23686224.9754   23686223.8774
        43.6004         37.3004
 127282027.8454   99180802.4164                   24220964.7354   24220959.2044
        45.3004         38.6004
 123684512.3494   96377550.7564                   23536375.8344   23536371.5964
        40.0004         35.0004
 128981665.8304  100505202.8074                   24544394.1494   24544388.9054
        37.3004         42.0004
 112518369.7004   87676651.2924                   21411525.7064   21411522.4454
        50.3004         45.0004
 107592085.0534   83837988.0204                   20474087.1834   20474082.7084
        54.6004         49.0004
 19  3 26 20 19 30.0000000  0 12G01G05G07G08G09G11G13G17G18G27G28G30
 127953213.8364   99703817.6134                   24348688.6154   24348682.0684
        43.6004         38.0004
 134650126.1374  104922196.5594                   25623081.6534   25623074.1044
        25.0004         36.3004
 107814750.8004   84011494.9804                   20516460.8194   20516458.1584
        55.0004         47.3004
 115606820.1204   90083253.8834                   21999242.9584   21999237.1084
        50.6004         46.0004
 121193899.5814   94436794.0214                   23062439.1004   23062433.9334
        46.0004         41.3004
 117655093.0744   91679312.5434                   22389011.4204   22389009.1774
        48.3004         42.6004
 124384370.9314   96922897.8524                   23669557.0054   23669553.7074
        42.0004         38.3004
 127173470.0134   99096211.9714                   24200304.7064   24200300.6324
        43.3004         36.0004
 123616146.9954   96324279.1094                   23523368.3804   23523363.2284
        41.0004         34.3004
 129089121.9824  100588934.7704                   24564842.7784   24564836.5114
        37.6004         41.3004
 112480424.0154   87647083.2444                   21404304.5714   21404301.4644
        50.3004         45.0004
 107557589.1664   83811108.1094                   20467522.8094   20467518.6204
        54.6004         48.6004
 19  3 26 20 20  0.0000000  0 11G01G07G08G09G11G13G17G18G27G28G30
 127862131.3094   99632844.3074                   24331356.1734   24331347.4994
        43.0004         39.0004
 107837079.3834   84028893.8654                   20520709.7904   20520707.2804
        55.3004         47.3004
 115677323.7534   90138191.7694                   22012658.9884   22012654.1034
        51.3004         45.6004
 121301045.2384   94520284.0764                   23082827.6224   23082823.6434
        46.0004         40.6004
 117590923.0384   91629309.9344                   22376800.1874   22376799.3274
        48.6004         42.0004
 124297138.4404   96854924.5044                   23652959.4064   23652956.0584
        43.0004         38.6004
 127065027.6064   99011711.4784                   24179669.1624   24179667.2224
        45.3004         36.0004
 123548145.3264   96271290.7784                   23510426.4164   23510423.2314
        41.6004         34.3004
 129196748.1134  100672799.2284                   24585324.3994   24585317.3354
        40.3004         40.6004
 112442734.3734   87617714.7014                   21397132.1204   21397129.5164
        50.3004         45.0004
 107523434.5184   83784494.0984                   20461023.4804   20461019.1714
        54.6004         48.6004
 19  3 26 20 20 30.0000000  0 11G01G07G08G09G11G13G17G18G27G28G30
 127771153.2154   99561952.3794                   24314043.5684   24314035.2594
        42.6004         39.3004
 107859809.0804   84046605.3134                   20525034.7174   20525032.7004
        55.3004         47.3004
 115748253.6014   90193461.7614                   22026156.4884   22026151.4214
        51.3004         45.3004
 121408347.8844   94603896.4684                   23103246.7324   23103241.6304
        45.0004         41.3004
 117527177.4344   91579638.0434                   22364670.2194   22364668.7004
        48.3004         42.3004
 124210259.7394   96787226.8434                   23636428.6574   23636423.4044
        43.3004         40.0004
 126956703.1134   98927302.8514                   24159054.5734   24159050.3324
        43.3004         37.6004
 123480510.0644   96218587.9874                   23497553.2124   23497549.7084
        40.3004         35.0004
 129304541.2284  100756793.8484                   24605835.8244   24605830.3664
        42.0004         38.6004
 112405299.7914   87588544.9094                   21390008.9834   21390006.2134
        50.6004         45.3004
 107489622.3634   83758146.9664                   20454589.5174   20454585.5294
        54.6004         48.6004
 19  3 26 20 21  0.0000000  0 11G01G07G08G09G11G13G17G18G27G28G30
 127680283.3844   99491144.7964                   24296749.5964   24296742.9834
        42.6004         37.6004
 107882940.7394   84064629.9814                   20529436.3214   20529434.5214
        55.6004         47.0004
 115819607.7034   90249062.3394                   22039734.3544   22039729.5064
        52.0004         44.6004
 121515805.2144   94687629.3914                   23123695.2974   23123689.6234
        45.0004         41.3004
 117463859.7164   91530299.5794                   22352621.3134   22352617.7514
        47.3004         43.3004
 124123737.7874   96719807.1954                   23619962.9544   23619955.5584
        41.6004         39.6004
 126848499.0094   98842988.0614                   24138464.3664   24138462.2814
        45.0004         35.6004
 123413244.8894   96166173.5814                   23484756.3784   23484751.6524
        42.6004         33.3004
 129412499.1434  100840916.8694                   24626378.8674   24626375.1014
        43.6004         37.0004
 112368120.6344   87559574.1564                   21382934.6394   21382930.5404
        50.6004         45.6004
 107456154.7934   83732068.3414                   20448220.8204   20448216.2334
        55.0004         48.6004
 19  3 26 20 21 30.0000000  0 11G01G07G08G09G11G13G17G18G27G28G30
 127589524.1494   99420423.3864                   24279481.2274   24279472.9454
        42.3004         37.6004
 107906474.2734   84082967.7994                   20533914.5994   20533912.5204
        55.6004         47.3004
 115891382.1984   90304990.5104                   22053391.9424   22053387.8204
        52.0004         44.3004
 121623413.3934   94771479.8754                   23144172.1944   23144166.5894
        45.0004         41.6004
 117400971.5864   91481295.8774                   22340653.3724   22340650.1964
        47.6004         44.0004
 124037574.2114   96652666.7544                   23603565.4834   23603562.2514
        44.0004         38.6004
 126740416.4774   98758767.9874                   24117897.3304   24117893.6744
        45.3004         37.3004
 123346351.9004   96114049.2154                   23472025.5314   23472022.8554
        42.6004         35.3004
 129520618.1394  100925165.4044                   24646952.8784   24646949.1804
        43.6004         35.6004
 112331195.2564   87530801.1634                   21375907.8524   21375904.5554
        51.0004         45.6004
 107423032.2694   83706258.5904                   20441917.9054   20441912.6334
        54.6004         49.3004
 19  3 26 20 22  0.0000000  0 11G01G07G08G09G11G13G17G18G27G28G30
 127498879.6634   99349791.3874                   24262230.9764   24262223.6174
        42.0004         38.0004
 107930410.7574   84101619.6004                   20538469.7034   20538467.5604
        55.6004         46.6004
 115963575.5344   90361245.0444                   22067130.7034   22067126.0204
        52.3004         44.0004
 121731170.4224   94855446.3114                   23164678.6334   23164672.0914
        44.3004         41.6004
 117338516.2494   91432629.3944                   22328768.1934   22328766.6254
        48.6004         43.0004
 123951772.9534   96585808.6584                   23587240.7114   23587235.6334
        44.3004         40.0004
 126632458.8754   98674645.2884                   24097355.2154   24097350.3484
        45.6004         38.0004
 123279835.2104   96062218.0584                   23459368.8744   23459365.3554
        43.3004         35.0004
 129628896.2444  101009537.9914                   24667557.5854   24667553.6314
        42.6004         33.6004
 112294523.7974   87502226.0164                   21368928.7394   21368926.3244
        51.3004         45.3004
 107390257.1514   83680719.5454                   20435680.9124   20435676.9894
        55.3004         48.6004
 19  3 26 20 22 30.0000000  0 11G01G07G08G09G11G13G17G18G27G28G30
 127408352.9794   99279251.2014                   24245004.1034   24244997.5494
        41.3004         38.3004
 107954750.3474   84120585.5084                   20543101.3754   20543098.7524
        54.6004         47.0004
 116036184.6444   90417823.5234                   22080947.9174   22080943.0414
        51.6004         44.0004
 121839073.2054   94939526.3274                   23185212.1144   23185206.7264
        45.3004         41.0004
 117276496.2594   91384302.1284                   22316966.5974   22316965.2634
        49.0004         43.3004
 123866336.3964   96519234.7824                   23570981.3764   23570977.5034
        44.0004         39.6004
 126524628.3194   98590621.5584                   24076835.1034   24076829.1804
        44.3004         38.6004
 123213697.3984   96010682.1224                   23446784.5984   23446779.3584
        43.3004         36.3004
 129737330.5464  101094032.2694                   24688190.7674   24688187.7644
        40.6004         36.3004
 112258105.5524   87473848.1774                   21361998.6274   21361996.4794
        51.3004         45.3004
 107357830.7464   83655452.2144                   20429510.3124   20429505.9694
        55.0004         49.0004
 19  3 26 20 23  0.0000000  0 11G01G07G08G09G11G13G17G18G27G28G30
 127317947.8394   99208805.7184                   24227799.8994   24227791.9804
        40.6004         39.0004
 107979494.3914   84139866.5724                   20547810.1604   20547808.1954
        55.3004         47.3004
 116109207.4464   90474724.3914                   22094842.6274   22094839.2824
        52.0004         44.0004
 121947119.3044   95023718.0464                   23205771.9394   23205767.1224
        45.3004         41.3004
 117214914.3454   91336316.2354                   22305248.5324   22305245.6044
        48.6004         44.0004
 123781267.3354   96452947.2054                   23554791.4714   23554791.1294
        45.3004         37.6004
 126416927.4154   98506698.8674                   24056341.8734   24056335.7194
        46.3004         38.0004
 123147942.0954   95959444.2124                   23434270.8014   23434265.8404
        43.3004         37.0004
 129845918.7614  101178646.3754                   24708857.9044   24708850.3704
        38.3004         38.6004
 112221940.4594   87445667.6024                   21355115.9944   21355114.3814
        51.6004         45.3004
 107325754.9244   83630458.0724                   20423406.5224   20423401.9034
        55.0004         49.3004
 19  3 26 20 23 30.0000000  0 11G01G07G08G09G11G13G17G18G27G28G30
 127227667.7384   99138457.6514                   24210621.7604   24210613.6074
        41.0004         38.3004
 108004643.5164   84159463.2914                   20552595.9194   20552593.6734
        55.3004         47.0004
 116182641.9394   90531946.0794                   22108816.3244   22108813.9404
        52.0004         43.3004
 122055306.0564   95108019.3374                   23226360.5394   23226354.1304
        45.3004         41.6004
 117153773.5384   91288674.0644                   22293613.1354   22293611.7054
        49.0004         43.3004
 123696568.3424   96386948.0034                   23538672.1464   23538672.1904
        44.6004         36.6004
 126309358.6804   98422879.1604                   24035871.9814   24035866.2644
        46.0004         38.3004
 123082572.5724   95908506.9694                   23421830.4044   23421826.3504
        43.0004         37.3004
 129954658.2174  101263378.3384                   24729550.0614   24729541.5654
        38.6004         40.6004
 112186028.1384   87417683.9844                   21348282.4234   21348280.7054
        52.0004         45.3004
 107294031.3234   83605738.3844                   20417369.8194   20417364.6714
        54.6004         49.0004
 19  3 26 20 24  0.0000000  0 11G01G07G08G09G11G13G17G18G27G28G30
 127137515.3174   99068209.0704                   24193465.9874   24193457.8764
        41.3004         38.3004
 108030197.2854   84179375.3074                   20557458.6954   20557456.5854
        55.6004         47.3004
 116256484.5424   90589485.7624                   22122869.3144   22122863.4764
        50.6004         45.0004
 122163629.9244   95192427.4894                   23246972.9354   23246967.2514
        45.3004         41.3004
 117093075.4904   91241376.8994                   22282062.4604   22282060.7494
        49.3004         44.0004
 123612241.8434   96321239.0694                   23522627.4434   23522624.3634
        44.3004         38.0004
 126201923.5194   98339163.5704                   24015426.5554   24015420.8424
        45.3004         38.6004
 123017591.1994   95857872.1334                   23409466.1064   23409461.8334
        43.6004         36.3004
 130063545.5324  101348225.5414                   24750269.8384   24750263.4044
        40.6004         41.0004
 112150367.3064   87389896.3354                   21341496.2544   21341494.1634
        52.0004         45.3004
 107262660.7774   83581293.8124                   20411399.9734   20411395.4074
        55.0004         49.0004
 19  3 26 20 24 30.0000000  0 11G01G07G08G09G11G13G17G18G27G28G30
 127047494.4704   98998063.0014                   24176333.9324   24176325.7174
        40.0004         39.6004
 108056156.8794   84199603.5544                   20562398.4224   20562396.5404
        55.3004         47.3004
 116330733.0694   90647341.7384                   22136998.9904   22136991.8704
        50.0004         46.0004
 122272088.6124   95276940.6714                   23267611.5904   23267605.9824
        45.3004         41.0004
 117032823.7724   91194427.5294                   22270597.6564   22270595.8044
        49.6004         44.0004
 123528290.8084   96255822.6714                   23506653.7724   23506650.0754
        45.6004         37.6004
 126094624.9034   98255554.3334                   23995008.6454   23995004.6094
        47.0004         38.0004
 122953001.6164   95807542.5964                   23397174.2294   23397169.7684
        43.3004         37.3004
 130172578.5384  101433186.2844                   24771019.8094   24771012.3234
        42.0004         41.3004
 112114957.9434   87362304.6424                   21334758.4964   21334757.0304
        52.3004         45.3004
 107231645.3274   83557125.9284                   20405497.9884   20405493.7444
        55.3004         49.3004
 19  3 26 20 25  0.0000000  0 11G01G07G08G09G11G13G17G18G27G28G30
 126957607.5344   98928021.3174                   24159229.0664   24159222.8974
        41.3004         38.6004
 108082521.9424   84220147.7484                   20567415.6214   20567413.6094
        55.3004         47.0004
 116405383.8184   90705511.1414                   22151204.6964   22151199.3024
        51.0004         45.6004
 122380678.3074   95361555.9634                   23288276.6774   23288270.7414
        45.6004         41.0004
 116973019.7964   91147827.0414                   22259217.2654   22259214.7374
        49.3004         44.3004
 123444716.8014   96190700.1004                   23490748.5564   23490746.1574
        45.3004         38.0004
 125987463.9564   98172052.3704                   23974615.7404   23974612.9894
        47.3004         37.6004
 122888805.9774   95757520.0354                   23384957.5364   23384954.9514
        43.3004         37.6004
 130281753.6174  101518257.7694                   24791794.5924   24791788.8734
        43.0004         40.0004
 112079798.5234   87334907.7114                   21328068.1024   21328065.9224
        52.3004         45.6004
 107200985.6184   83533235.2514                   20399663.6484   20399659.3374
        55.3004         49.3004
 19  3 26 20 25 30.0000000  0 11G01G07G08G09G11G13G17G18G27G28G30
 126867859.0714   98858087.4994                   24142150.4734   24142144.5174
        41.6004         38.3004
 108109294.0494   84241009.1094                   20572510.3674   20572507.8414
        55.0004         47.0004
 116480435.6414   90763993.0734                   22165486.9094   22165481.7504
        51.0004         45.0004
 122489397.3814   95446272.0774                   23308963.8214   23308958.8204
        45.3004         40.0004
 116913667.1414   91101578.2404                   22247923.4124   22247921.0044
        50.0004         44.3004
 123361523.5884   96125874.2564                   23474914.5314   23474914.7034
        45.0004         37.0004
 125880444.3954   98088660.5824                   23954251.7164   23954245.1794
        45.6004         39.6004
 122825008.3994   95707807.6754                   23372817.8574   23372814.8884
        43.3004         37.3004
 130391069.2744  101603438.7484                   24812596.2454   24812589.2224
        40.6004         39.0004
 112044889.7354   87307706.0764                   21321424.0584   21321422.8124
        52.3004         45.0004
 107170684.1244   83509623.6974                   20393897.4664   20393892.7134
        55.3004         49.6004
 19  3 26 20 26  0.0000000  0 11G01G07G08G09G11G13G17G18G27G28G30
 126778252.3644   98788264.1494                   24125098.3314   24125091.4854
        41.0004         39.6004
 108136473.4954   84262187.8864                   20577682.4044   20577680.3234
        55.3004         47.0004
 116555885.7364   90822785.3434                   22179844.2404   22179839.0044
        50.6004         45.3004
 122598242.9514   95531086.7714                   23329677.4564   23329672.2864
        45.6004         39.6004
 116854768.2804   91055683.0434                   22236715.3564   22236712.9514
        50.0004         44.3004
 123278714.1864   96061347.4444                   23459157.6604   23459158.6844
        46.0004         36.3004
 125773568.5684   98005380.8394                   23933914.1604   23933909.7794
        47.6004         39.3004
 122761611.9574   95658407.8954                   23360754.6684   23360750.3734
        42.6004         37.6004
 130500522.7824  101688727.1714                   24833423.1864   24833420.6324
        39.6004         35.6004
 112010231.1254   87280699.3814                   21314829.0894   21314827.1964
        52.3004         45.3004
 107140742.3494   83486292.4404                   20388200.1744   20388195.1484
        55.3004         49.6004
 19  3 26 20 26 30.0000000  0 11G01G07G08G09G11G13G17G18G27G28G30
 126688790.9704   98718554.0434                   24108073.2074   24108068.5914
        42.0004         38.0004
 108164061.1024   84283684.7154                   20582932.1784   20582929.7154
        55.3004         47.0004
 116631731.7904   90881886.1614                   22194276.5824   22194270.6974
        50.0004         46.0004
 122707212.4134   95615997.9934                   23350414.3974   23350407.9844
        45.0004         40.6004
 116796326.1704   91010143.7634                   22225593.6514   22225590.6884
        50.0004         44.6004
 123196290.9014   95997121.5234                   23443475.7784   23443471.1174
        44.6004         40.0004
 125666838.5674   97922214.6834                   23913602.9514   23913596.7634
        45.0004         39.3004
 122698620.0314   95609323.2984                   23348767.8344   23348762.2184
        42.3004         38.3004
 130610111.6504  101774121.0934                   24854279.7244   24854273.5794
        38.3004         35.0004
 111975822.1734   87253887.2254                   21308281.0464   21308280.4614
        53.0004         44.6004
 107111162.0424   83463242.8474                   20382571.4234   20382565.8054
        55.0004         49.6004
 19  3 26 20 27  0.0000000  0 11G01G07G08G09G11G13G17G18G27G28G30
 126599477.4264   98648959.0874                   24091078.5724   24091072.0394
        42.0004         39.0004
 108192056.6144   84305499.3924                   20588259.5024   20588257.4074
        55.3004         47.0004
 116707970.5034   90941292.9554                   22208784.5154   22208777.9104
        49.3004         46.3004
 122816302.1264   95701002.8864                   23371172.8234   23371166.4464
        44.0004         41.0004
 116738342.4264   90964961.6334                   22214558.8354   22214557.2634
        50.0004         44.3004
 123114255.7844   95933198.1514                   23427865.8674   23427859.3404
        43.6004         39.6004
 125560256.0364   97839163.3944                   23893319.9464   23893318.6914
        47.3004         38.0004
 122636034.4564   95560555.3394                   23336857.7254   23336852.6044
        41.6004         38.3004
 130719832.3544  101859617.7164                   24875158.9124   24875152.0614
        38.3004         35.3004
 111941661.1734   87227268.2774                   21301780.8764   21301778.9514
        52.6004         45.0004
 107081943.8254   83440475.4044                   20377011.6194   20377005.9694
        55.0004         50.0004
 19  3 26 20 27 30.0000000  0 11G01G07G08G09G11G13G17G18G27G28G30
 126510315.3734   98579482.2214                   24074111.7694   24074104.9154
        42.0004         38.3004
 108220460.4724   84327632.2664                   20593664.4524   20593662.5464
        55.3004         47.3004
 116784599.3564   91001003.7524                   22223367.2334   22223359.4454
        49.3004         46.6004
 122925509.5634   95786099.5464                   23391954.3494   23391949.0724
        45.0004         40.6004
 116680819.7464   90920138.7894                   22203614.0374   22203610.4774
        50.0004         45.0004
 123032611.5044   95869579.2494                   23412326.3944   23412327.3364
        46.3004         37.0004
 125453823.4484   97756229.0794                   23873069.1604   23873062.1814
        45.0004         40.6004
 122573858.7134   95512106.7614                   23325025.8824   23325020.8494
        42.0004         37.3004
 130829682.5874  101945215.2804                   24896060.9444   24896055.3644
        39.6004         36.6004
 111907748.5904   87200842.9104                   21295327.8654   21295325.7074
        52.3004         45.3004
 107053089.5394   83417991.5494                   20371520.4704   20371515.1844
        55.0004         49.6004
 19  3 26 20 28  0.0000000  0 11G01G07G08G09G11G13G17G18G27G28G30
 126421308.3624   98510126.1444                   24057175.7124   24057168.8974
        42.6004         38.0004
 108249273.5104   84350083.9794                   20599147.5144   20599145.5744
        55.3004         47.0004
 116861615.7444   91061016.5234                   22238023.2284   22238015.8814
        50.0004         46.3004
 123034832.0194   95871285.7984                   23412759.3674   23412751.9724
        44.3004         42.6004
 116623760.6754   90875677.1994                   22192755.7144   22192753.2784
        50.6004         44.0004
 122951361.1404   95806267.2714                   23396864.0764   23396861.6724
        44.0004         38.3004
 125347543.3254   97673413.4924                   23852843.1454   23852837.1394
        45.3004         39.6004
 122512096.1294   95463980.0924                   23313273.1514   23313267.5664
        42.3004         38.6004
 130939659.7954  102030911.7984                   24916989.9784   24916983.6734
        41.3004         38.3004
 111874083.6674   87174610.5254                   21288921.1134   21288919.8514
        52.6004         44.3004
 107024600.7964   83395792.5294                   20366099.1534   20366093.7404
        55.0004         49.6004
 19  3 26 20 28 30.0000000  0 11G01G07G08G09G11G13G17G18G27G28G30
 126332460.0164   98440893.6844                   24040266.6704   24040260.5154
        42.0004         38.0004
 108278496.1794   84372854.8784                   20604708.7144   20604705.9704
        55.0004         47.3004
 116939017.4324   91121329.5234                   22252752.3044   22252745.7034
        50.0004         46.6004
 123144266.9524   95956559.7074                   23433584.3504   23433577.0564
        44.0004         41.3004
 116567167.9614   90831578.9954                   22181986.2334   22181983.0864
        50.0004         44.0004
 122870507.1164   95743264.2004                   23381479.3284   23381477.5064
        45.0004         38.6004
 125241418.0064   97590718.5174                   23832646.7634   23832643.3544
        45.3004         39.0004
 122450749.7954   95416177.7744                   23301598.2274   23301595.9154
        43.0004         37.6004
 131049761.6114  102116705.3804                   24937941.4444   24937935.7624
        41.3004         40.0004
 111840665.8644   87148570.6974                   21282562.0384   21282560.6994
        52.6004         44.6004
 106996479.3194   83373879.6914                   20360747.4144   20360743.0594
        55.3004         49.6004
 19  3 26 20 29  0.0000000  0 11G01G07G08G09G11G13G17G18G27G28G30
 126243772.9444   98371786.9324                   24023390.6584   24023383.9904
        41.0004         39.0004
 108308128.3864   84395944.8984                   20610347.3304   20610344.8174
        55.0004         46.6004
 117016800.7484   91181939.8824                   22267553.9864   22267547.5264
        50.3004         46.3004
 123253810.8394   96041918.5294                   23454429.6734   23454421.6114
        43.6004         41.6004
 116511043.6234   90787845.7624                   22171306.1044   22171303.6494
        50.6004         43.6004
 122790051.6394   95680571.6054                   23366169.7434   23366167.9694
        45.6004         37.6004
 125135449.1254   97508145.4834                   23812480.1444   23812476.7334
        45.3004         38.0004
 122389821.8134   95368701.4554                   23290004.6444   23290000.1314
        42.6004         39.0004
 131159984.7224  102202593.5114                   24958916.3604   24958909.6004
        41.0004         39.6004
 111807494.1854   87122722.6484                   21276248.9214   21276247.9844
        52.6004         43.6004
 106968725.8624   83352253.6274                   20355465.6834   20355461.6824
        55.3004         49.3004
 19  3 26 20 29 30.0000000  0 11G01G07G08G09G11G13G17G18G27G28G30
 126155251.1844   98302808.9834                   24006545.3354   24006538.2624
        40.3004         38.3004
 108338171.1264   84419354.8214                   20616064.0224   20616061.5244
        55.0004         46.6004
 117094963.8524   91242846.1764                   22282427.4594   22282421.7004
        50.3004         46.0004
 123363461.5034   96127360.5364                   23475296.0734   23475288.0484
        43.3004         42.0004
 116455390.6364   90744479.7974                   22160716.0154   22160713.4694
        51.0004         43.6004
 122709998.2404   95618192.3654                   23350934.2754   23350931.5574
        44.6004         38.0004
 125029639.4404   97425696.4174                   23792346.9904   23792343.7744
        47.0004         38.6004
 122329316.1284   95321554.1944                   23278491.1854   23278485.7834
        42.6004         39.6004
 131270327.0954  102288574.5294                   24979913.9184   24979907.9814
        39.6004         39.6004
 111774568.6134   87097066.3694                   21269983.6714   21269982.5064
        52.3004         44.0004
 106941342.5224   83330915.9604                   20350254.8164   20350250.7504
        55.3004         49.3004
 19  3 26 20 30  0.0000000  0 11G01G07G08G09G11G13G17G18G27G28G30
 126066897.8564   98233962.2814                   23989733.2194   23989726.2094
        41.0004         38.6004
 108368624.4204   84443084.6534                   20621859.0234   20621856.7054
        55.0004         46.3004
 117173504.0884   91304046.3624                   22297372.1394   22297367.2324
        50.3004         45.3004
 123473215.8574   96212883.3164                   23496180.3434   23496174.6914
        44.0004         40.6004
 116400210.8954   90701482.6124                   22150214.7154   22150212.5664
        50.6004         43.6004
 122630348.3034   95556127.4874                   23335777.7964   23335774.8994
        44.3004         38.3004
 124923991.1844   97343373.2484                   23772241.6144   23772236.9344
        44.0004         40.0004
 122269235.1594   95274737.8944                   23267057.1774   23267054.1434
        43.6004         39.3004
 131380785.9284  102374646.3154                   25000932.8904   25000923.4454
        36.0004         41.6004
 111741888.2304   87071601.1554                   21263764.7624   21263763.5594
        52.3004         44.0004
 106914330.5234   83309867.6504                   20345114.5184   20345110.8934
        55.3004         49.3004
 19  3 26 20 30 30.0000000  0 11G01G07G08G09G11G13G17G18G27G28G30
 125978716.4354   98165249.5554                   23972951.6974   23972944.4554
        41.0004         38.6004
 108399488.6944   84467134.7334                   20627732.3664   20627730.2104
        55.0004         46.3004
 117252418.7264   91365538.2844                   22312388.9074   22312383.3054
        50.3004         45.0004
 123583071.2604   96298484.9064                   23517085.1734   23517078.9274
        43.6004         40.3004
 116345507.1674   90658856.3374                   22139804.7964   22139803.2814
        51.0004         43.0004
 122551105.1314   95494379.5724                   23320698.9834   23320697.7434
        46.0004         37.6004
 124818506.9284   97261177.7534                   23752170.6264   23752166.8864
        48.6004         39.6004
 122209582.1624   95228255.0634                   23255706.2154   23255701.3904
        42.6004         40.0004
 131491358.6914  102460806.8794                   25021972.5414   25021967.7154
        36.0004         39.6004
 111709452.5834   87046326.6514                   21257593.2324   21257590.8524
        52.0004         44.3004
 106887691.4664   83289109.9404                   20340045.5374   20340041.4774
        55.3004         49.6004
 19  3 26 20 31  0.0000000  0 11G01G07G08G09G11G13G17G18G27G28G30
 125890710.0264   98096673.1824                   23956205.1004   23956197.6084
        41.6004         38.6004
 108430764.3124   84491505.3354                   20633683.9764   20633682.0954
        54.6004         46.0004
 117331704.8434   91427319.6624                   22327477.3234   22327471.2944
        50.3004         45.6004
 123693024.5754   96384162.7134                   23538009.4544   23538001.3604
        43.0004         41.0004
 116291281.5174   90616602.6044                   22129486.3434   22129483.8804
        50.6004         43.6004
 122472270.8524   95432950.2884                   23305697.5384   23305695.0684
        45.3004         38.3004
 124713188.1364   97179111.2484                   23732127.8964   23732124.4164
        46.6004         39.0004
 122150359.8204   95182107.8124                   23244437.0214   23244432.7024
        43.0004         39.0004
 131602042.5224  102547053.9314                   25043035.6464   25043027.2434
        34.6004         41.0004
 111677260.8814   87021242.2374                   21251467.5874   21251465.4294
        52.0004         44.0004
 106861426.4794   83268643.7164                   20335047.5714   20335043.3524
        55.3004         49.6004
 19  3 26 20 31 30.0000000  0 11G01G07G08G09G11G13G17G18G27G28G30
 125802882.8994   98028236.5024                   23939492.7444   23939485.6064
        43.0004         37.6004
 108462452.3974   84516197.3354                   20639714.0734   20639711.8544
        55.0004         46.0004
 117411360.5224   91489389.0024                   22342635.7014   22342630.1674
        51.0004         45.6004
 123803073.8654   96469915.3424                   23558949.7504   23558943.5224
        44.0004         40.3004
 116237537.3164   90574724.0214                   22119259.0804   22119257.7724
        51.3004         43.0004
 122393848.8844   95371842.3304                   23290774.2414   23290769.9974
        44.3004         38.0004
 124608037.9244   97097176.1314                   23712118.5214   23712114.4384
        46.3004         39.3004
 122091571.8194   95136299.0234                   23233250.0044   23233245.6574
        43.0004         39.3004
 131712835.6674  102633386.2054                   25064118.8094   25064110.9764
        36.3004         40.0004
 111645313.5264   86996348.2064                   21245386.6834   21245385.7974
        52.0004         43.3004
 106835537.9374   83248470.8174                   20330121.5324   20330116.8064
        55.3004         49.6004
 19  3 26 20 32  0.0000000  0 11G01G07G08G09G11G13G17G18G27G28G30
 125715237.6284   97959941.5664                   23922814.2684   23922807.9434
        43.6004         37.6004
 108494552.4834   84541210.3844                   20645822.9834   20645820.0904
        54.6004         46.3004
 117491382.7324   91551743.9564                   22357863.4084   22357858.0644
        51.0004         45.3004
 123913215.5574   96555739.9884                   23579908.0674   23579901.9694
        43.3004         39.6004
 116184276.1754   90533221.8424                   22109124.1264   22109121.4454
        51.0004         43.3004
 122315840.8834   95311056.8814                   23275929.2434   23275929.0834
        46.0004         37.0004
 124503058.1804   97015373.7834                   23692141.8164   23692138.3984
        48.3004         39.3004
 122033220.2044   95090830.2464                   23222145.3574   23222139.8504
        42.6004         38.6004
 131823734.7924  102719801.0894                   25085223.9384   25085216.9994
        39.0004         37.6004
 111613609.0504   86971643.4424                   21239354.2234   21239352.6054
        51.6004         43.6004
 106810026.5014   83228591.7784                   20325266.5644   20325261.8044
        55.0004         49.3004
 19  3 26 20 32 30.0000000  0 11G01G07G08G09G11G13G17G18G27G28G30
 125627778.2704   97891791.4754                   23906170.4034   23906163.4464
        42.0004         39.6004
 108527065.9124   84566545.5054                   20652009.7424   20652007.0844
        54.6004         46.6004
 117571769.3914   91614382.8894                   22373160.2484   22373154.5124
        50.3004         45.6004
 124023447.5954   96641635.0194                   23600885.5774   23600877.7364
        43.0004         40.6004
 116131500.8124   90492098.1974                   22099081.1994   22099078.0534
        50.6004         43.6004
 122238250.2494   95250596.6454                   23261165.9274   23261163.5144
        45.6004         38.3004
 124398251.5194   96933706.3844                   23672195.9964   23672193.2834
        46.3004         38.6004
 121975308.7074   95045704.4464                   23211126.5524   23211122.3194
        43.3004         38.3004
 131934737.9974  102806297.0484                   25106346.6344   25106338.5314
        37.6004         39.3004
 111582147.7714   86947128.1874                   21233367.4364   21233365.3954
        51.0004         44.3004
 106784894.3294   83209008.2684                   20320483.5844   20320479.2504
        55.0004         49.3004
 19  3 26 20 33  0.0000000  0 11G01G07G08G09G11G13G17G18G27G28G30
 125540507.9074   97823788.6684                   23889563.3804   23889557.4004
        42.3004         38.0004
 108559991.9894   84592202.1774                   20658275.4324   20658273.2304
        55.0004         46.6004
 117652516.9164   91677303.0234                   22388525.8884   22388520.0634
        50.3004         45.3004
 124133766.8434   96727598.0004                   23621878.6004   23621873.4684
        44.0004         39.6004
 116079213.3164   90451354.7084                   22089131.4334   22089128.7954
        51.3004         43.6004
 122161079.0104   95190463.2764                   23246480.5724   23246476.3764
        44.6004         39.3004
 124293619.9534   96852175.3724                   23652287.6524   23652282.0224
        47.3004         40.6004
 121917839.9224   95000923.5914                   23200189.6364   23200185.0664
        43.3004         37.3004
 132045842.3704  102892871.8754                   25127488.4484   25127482.6314
        39.0004         37.0004
 111550928.5234   86922801.5154                   21227426.5724   21227424.7014
        51.3004         43.6004
 106760142.5314   83189721.1554                   20315773.1744   20315769.2954
        55.0004         49.0004
 19  3 26 20 33 30.0000000  0 11G01G07G08G09G11G13G17G18G27G28G30
 125453429.4224   97755935.3734                   23872993.3384   23872985.9864
        42.0004         38.0004
 108593330.7874   84618180.4494                   20664619.7274   20664617.2834
        55.3004         47.0004
 117733622.9684   91740502.5234                   22403959.5354   22403954.4714
        50.6004         45.3004
 124244170.0274   96813626.4044                   23642888.7834   23642882.5834
        44.3004         38.6004
 116027415.5134   90410992.7984                   22079273.4944   22079272.6854
        52.0004         43.0004
 122084329.4194   95130658.3984                   23231873.2874   23231870.7154
        44.3004         38.6004
 124189165.3434   96770782.2594                   23632409.7554   23632405.6754
        47.6004         40.0004
 121860816.0514   94956489.4044                   23189339.2854   23189333.4054
        43.3004         36.6004
 132157044.9364  102979523.1984                   25148648.4474   25148642.9434
        38.0004         37.6004
 111519949.9234   86898662.3754                   21221531.4404   21221529.1234
        51.0004         44.3004
 106735772.0594   83170731.1764                   20311135.6224   20311131.6804
        55.3004         49.0004
 19  3 26 20 34  0.0000000  0 11G01G07G08G09G11G13G17G18G27G28G30
 125366546.9434   97688234.8114                   23856459.0644   23856451.5894
        41.0004         38.3004
 108627083.3374   84644481.1234                   20671042.7374   20671040.2284
        55.0004         46.6004
 117815085.4034   91803979.7384                   22419461.3554   22419456.1964
        50.3004         45.0004
 124354655.0804   96899718.5954                   23663913.1594   23663906.5774
        43.3004         39.6004
 115976110.8994   90371015.1754                   22069511.4724   22069510.3194
        52.0004         43.3004
 122008004.8134   95071184.6954                   23217349.8804   23217346.2914
        44.3004         39.3004
 124084890.2724   96689529.0434                   23612564.9814   23612562.4714
        47.0004         38.3004
 121804240.8604   94912404.8354                   23178572.5734   23178568.5194
        44.0004         37.0004
 132268343.8354  103066249.5934                   25169831.1664   25169824.1094
        37.0004         33.6004
 111489212.6034   86874711.2264                   21215682.1054   21215680.8964
        51.3004         43.6004
 106711785.0944   83152040.0424                   20306571.5124   20306567.4124
        55.3004         49.0004
 19  3 26 20 34 30.0000000  0 11G01G07G08G09G11G13G17G18G27G28G30
 125279863.0924   97620689.0024                   23839964.3864   23839957.7554
        40.6004         36.3004
 108661249.6604   84671104.2224                   20677544.2984   20677542.3094
        55.0004         46.6004
 117896900.5304   91867731.7784                   22435030.1014   22435025.8344
        50.3004         44.6004
 124465218.5014   96985871.8234                   23684951.8854   23684945.3544
        42.6004         41.3004
 115925301.0074   90331423.0464                   22059842.8104   22059841.0764
        51.6004         44.0004
 121932106.8574   95012043.4524                   23202906.2644   23202903.2974
        44.0004         40.0004
 123980796.9094   96608417.4284                   23592758.9434   23592754.1284
        47.6004         40.6004
 121748116.3564   94868671.4514                   23167892.6794   23167887.4724
        43.0004         38.3004
 132379735.8734  103153048.6064                   25191026.3924   25191019.0294
        35.6004         37.0004
 111458715.3304   86850947.1354                   21209879.0734   21209876.5834
        50.6004         45.0004
 106688182.3254   83133648.2754                   20302080.6844   20302076.3654
        55.3004         49.6004
 19  3 26 20 35  0.0000000  0 11G01G07G08G09G11G13G17G18G27G28G30
 125193382.4184   97553301.5204                   23823505.8494   23823499.6884
        40.3004         35.6004
 108695830.9494   84698050.6784                   20684124.5024   20684122.4464
        55.0004         46.0004
 117979066.8034   91931757.4424                   22450666.4664   22450661.0084
        50.3004         44.0004
 124575858.5904   97072084.7894                   23706006.3424   23705998.9994
        42.0004         39.0004
 115874988.5574   90292218.5564                   22050268.6044   22050265.9764
        51.3004         44.0004
 121856638.7234   94953237.1364                   23188546.5844   23188544.8624
        45.6004         38.6004
 123876887.9444   96527449.5334                   23572985.3244   23572980.9704
        48.3004         40.3004
 121692446.7044   94825292.5174                   23157297.0314   23157293.6024
        42.3004         37.3004
 132491219.5704  103239918.9524                   25212238.6444   25212230.0244
        35.0004         38.3004
 111428458.6884   86827370.5444                   21204121.2144   21204119.3494
        51.3004         44.3004
 106664966.2474   83115557.8324                   20297663.0534   20297658.2104
        55.3004         49.3004
 19  3 26 20 35 30.0000000  0 11G01G07G08G09G11G13G17G18G27G28G30
 125107107.3624   97486074.2324                   23807088.9634   23807083.2304
        41.3004         35.3004
 108730826.2654   84725319.7454                   20690784.0344   20690781.4484
        54.6004         46.0004
 118061580.7374   91996053.9994                   22466368.5324   22466362.5014
        50.0004         44.6004
 124686571.6994   97158354.7114                   23727074.1914   23727068.7724
        43.0004         39.0004
 115825175.5204   90253403.2114                   22040789.2664   22040787.0944
        51.0004         44.0004
 121781602.3814   94894767.2824                   23174267.9464   23174265.6584
        45.3004         39.6004
 123773164.8234   96446626.4024                   23553245.2674   23553243.7954
        48.0004         39.0004
 121637233.4664   94782269.2494                   23146792.7004   23146786.3534
        42.0004         38.0004
 132602791.4834  103326858.1264                   25233472.1364   25233464.5014
        36.6004         37.6004
 111398441.2034   86803980.3044                   21198408.5954   21198407.3824
        51.3004         44.6004
 106642137.4444   83097769.1554                   20293318.6704   20293313.9174
        55.3004         49.6004
 19  3 26 20 36  0.0000000  0 11G01G07G08G09G11G13G17G18G27G28G30
 125021041.2554   97419009.7634                   23790713.2284   23790705.2054
        42.0004         36.0004
 108766236.0574   84752911.7874                   20697522.4274   20697520.2684
        55.0004         46.3004
 118144439.5394   92060619.2774                   22482135.5684   22482129.9584
        50.0004         44.6004
 124797354.9124   97244679.2124                   23748157.1214   23748150.0144
        43.0004         40.0004
 115775863.7194   90214978.4564                   22031405.7754   22031402.8494
        50.3004         44.0004
 121707000.1154   94836635.6714                   23160071.0204   23160067.8744
        45.0004         40.6004
 123669629.8794   96365949.8974                   23533545.3914   23533541.3344
        48.3004         40.3004
 121582479.4144   94739603.7724                   23136371.6744   23136367.4084
        41.6004         38.0004
 132714449.0404  103413863.9624                   25254719.8004   25254710.0144
        35.3004         38.3004
 111368661.6714   86780775.4794                   21192741.7214   21192740.3054
        51.3004         45.0004
 106619697.2234   83080283.2634                   20289048.5574   20289042.9804
        55.0004         49.6004
 19  3 26 20 36 30.0000000  0 11G01G07G08G09G11G13G17G18G27G28G30
 124935187.6944   97352110.9284                   23774374.2054   23774367.5014
        42.0004         37.3004
 108802060.7014   84780827.0834                   20704339.6464   20704337.3544
        54.6004         46.3004
 118227640.6164   92125451.2794                   22497968.0924   22497963.1364
        50.0004         44.3004
 124908205.7404   97331056.3994                   23769250.5184   23769243.7744
        42.0004         40.3004
 115727055.6254   90176946.1804                   22022118.0354   22022115.0304
        50.0004         44.3004
 121632834.6294   94778844.3764                   23145957.5874   23145956.6734
        46.3004         40.0004
 123566285.1674   96285421.6474                   23513877.7594   23513875.3974
        48.0004         39.3004
 121528187.7384   94697298.6164                   23126040.3054   23126036.3074
        42.3004         38.6004
 132826189.9594  103500934.8314                   25275981.7974   25275977.3564
        38.0004         37.0004
 111339119.8514   86757755.8914                   21187120.7044   21187118.5024
        51.3004         45.3004
 106597647.1954   83063101.4204                   20284852.3854   20284847.2644
        55.0004         49.6004
 19  3 26 20 37  0.0000000  0 11G01G07G08G09G11G13G17G18G27G28G30
 124849550.9884   97285381.0594                   23758076.0554   23758072.0834
        42.3004         38.3004
 108838301.1284   84809066.3624                   20711236.0234   20711233.7454
        54.6004         46.3004
 118311182.0794   92190548.5234                   22513865.9534   22513860.8104
        50.3004         44.6004
 125019122.2644   97417484.8024                   23790356.5274   23790351.3864
        43.3004         38.3004
 115678754.1324   90139308.6704                   22012926.1354   22012924.7414
        50.6004         43.6004
 121559109.2074   94721395.9774                   23131930.1704   23131927.2134
        46.6004         40.6004
 123463133.8614   96205044.0504                   23494248.8594   23494245.7084
        48.3004         39.0004
 121474362.0524   94655356.5594                   23115798.0164   23115793.8284
        43.0004         38.6004
 132938012.6824  103588069.3584                   25297262.7234   25297256.1274
        37.6004         38.6004
 111309816.1404   86734921.8334                   21181544.4334   21181542.7614
        52.0004         45.6004
 106575989.6674   83046225.4184                   20280730.6754   20280726.5934
        55.6004         49.6004
 19  3 26 20 37 30.0000000  0 11G01G07G08G09G11G13G17G18G27G28G30
 124764133.5764   97218822.0654                   23741824.3774   23741818.3454
        42.3004         38.3004
 108874956.6624   84837629.1034                   20718211.6334   20718208.8654
        54.6004         46.3004
 118395060.7154   92255908.4774                   22529827.9974   22529822.3414
        50.0004         45.0004
 125130100.7944   97503961.5164                   23811475.7134   23811468.2674
        42.0004         39.0004
 115630960.8324   90102067.1464                   22003831.3164   22003829.6124
        50.3004         43.6004
 121485825.3794   94664291.7534                   23117983.9504   23117979.3884
        45.3004         41.6004
 123360177.4744   96124818.3564                   23474658.1824   23474653.3604
        47.6004         40.0004
 121421004.0844   94613778.9344                   23105643.9384   23105641.0614
        44.0004         38.3004
 133049913.7144  103675264.9764                   25318557.9654   25318547.6534
        35.0004         39.6004
 111280749.0784   86712272.1864                   21176013.2434   21176011.3634
        52.0004         45.6004
 106554725.0624   83029655.5954                   20276684.3254   20276680.2984
        55.6004         49.3004
 19  3 26 20 38  0.0000000  0 11G01G07G08G09G11G13G17G18G27G28G30
 124678938.6064   97152436.3894                   23725611.8144   23725604.2404
        40.6004         40.0004
 108912027.4964   84866515.4504                   20725265.8334   20725263.5644
        54.6004         46.0004
 118479273.6234   92321528.8854                   22545853.3344   22545847.3714
        49.6004         45.3004
 125241138.3424   97590484.1914                   23832605.9954   23832598.1664
        42.0004         40.0004
 115583677.5934   90065223.0814                   21994833.7274   21994831.1534
        50.0004         43.6004
 121412985.4134   94607533.3634                   23104121.9104   23104121.1364
        47.3004         39.3004
 123257418.0544   96044746.1784                   23455103.1244   23455100.7424
        49.0004         39.0004
 121368116.5774   94572567.9234                   23095580.1144   23095576.2664
        44.3004         38.3004
 133161890.4154  103762519.5064                   25339865.1344   25339858.1084
        36.3004         40.3004
 111251917.8054   86689806.2684                   21170527.3134   21170524.7704
        52.3004         46.0004
 106533854.6004   83013392.8964                   20272712.6474   20272708.5524
        55.6004         49.3004
 19  3 26 20 38 30.0000000  0 11G01G07G08G09G11G13G17G18G27G28G30
 124593970.3664   97086227.4334                   23709443.6004   23709435.4984
        39.6004         40.6004
 108949514.5124   84895726.1074                   20732398.7814   20732397.1364
        55.0004         45.6004
 118563818.5854   92387408.0514                   22561941.2114   22561936.0124
        50.0004         44.3004
 125352233.0894   97677051.4504                   23853745.7554   23853739.8044
        43.0004         38.6004
 115536907.4604   90028778.8374                   21985933.5424   21985930.8984
        50.0004         44.0004
 121340592.6574   94551123.4234                   23090345.0974   23090343.3554
        46.0004         40.0004
 123154858.7534   95964829.8864                   23435586.0864   23435582.6444
        48.0004         39.0004
 121315702.9064   94531726.1114                   23085607.2884   23085603.3594
        44.3004         39.0004
 133273941.2084  103849831.7434                   25361189.2114   25361180.6044
        34.3004         39.6004
 111223322.6274   86667524.3214                   21165085.6624   21165084.1854
        52.6004         46.0004
 106513380.5764   82997439.1174                   20268816.4164   20268812.7084
        56.0004         49.3004
 19  3 26 20 39  0.0000000  0 11G01G07G08G09G11G13G17G18G27G28G30
 124509231.1194   97020196.9194                   23693316.6514   23693311.1964
        40.6004         40.6004
 108987416.7334   84925260.2954                   20739611.3034   20739609.4634
        54.6004         45.3004
 118648692.0424   92453543.2174                   22578091.4474   22578086.3544
        49.3004         44.0004
 125463381.1194   97763660.2034                   23874896.3924   23874889.7914
        41.6004         38.6004
 115490651.2454   89992735.0564                   21977132.0104   21977128.8334
        49.6004         44.0004
 121268648.2844   94495062.8894                   23076655.6724   23076652.7404
        46.0004         40.6004
 123052500.0614   95885069.9484                   23416107.8264   23416103.2364
        47.6004         39.6004
 121263764.7684   94491254.8644                   23075722.9274   23075718.7674
        43.6004         39.3004
 133386062.6274  103937199.0594                   25382524.8534   25382517.9494
        35.6004         40.0004
 111194961.6924   86645424.9034                   21159688.2924   21159686.5704
        52.6004         46.3004
 106493303.2044   82981794.4094                   20264995.7494   20264991.9774
        55.6004         49.3004
 19  3 26 20 39 30.0000000  0 11G01G07G08G09G11G13G17G18G27G28G30
 124424726.6624   96954349.2994                   23677235.4034   23677230.0904
        41.0004         40.6004
 109025736.8454   84955120.1144                   20746903.2904   20746901.8524
        54.6004         45.3004
 118733893.7444   92519934.1394                   22594305.3714   22594299.6684
        49.0004         44.3004
 125574581.9754   97850310.1574                   23896058.1494   23896051.3344
        42.3004         38.3004
 115444913.7044   89957095.4354                   21968428.2904   21968426.5684
        50.0004         43.6004
 121197157.0684   94439355.4694                   23063051.3494   23063047.7504
        45.6004         40.3004
 122950346.7684   95805470.0214                   23396668.5694   23396666.8174
        48.6004         38.6004
 121212307.2114   94451158.0904                   23065929.6684   23065928.2774
        44.3004         38.3004
 133498254.3974  104024621.1624                   25403873.5694   25403868.7454
        37.0004         39.0004
 111166836.8654   86623509.4704                   21154336.7234   21154334.3814
        52.3004         46.3004
 106473626.1994   82966461.6814                   20261251.1334   20261247.3984
        55.6004         49.3004
 19  3 26 20 40  0.0000000  0 11G01G07G08G09G11G13G17G18G27G28G30
 124340457.7034   96888685.2364                   23661201.3484   23661194.0954
        41.3004         41.6004
 109064472.2574   84985303.5484                   20754274.5774   20754272.4184
        54.6004         45.6004
 118819418.2744   92586576.6124                   22610580.6804   22610574.4834
        49.0004         45.0004
 125685830.4114   97936997.1814                   23917227.7214   23917220.5314
        42.0004         38.6004
 115399694.1394   89921859.4184                   21959822.5574   21959820.6034
        49.3004         43.3004
 121126119.0034   94384001.1584                   23049532.5464   23049530.5794
        46.3004         39.6004
 122848398.3594   95726029.7634                   23377268.0124   23377266.5354
        48.6004         38.3004
 121161330.1534   94411435.7384                   23056230.6254   23056225.9374
        43.6004         40.0004
 133610511.6104  104112094.2714                   25425236.7624   25425230.9554
        36.6004         38.6004
 111138944.9524   86601775.5374                   21149028.6494   21149027.0504
        52.6004         46.3004
 106454348.3834   82951440.0114                   20257582.7644   20257578.6994
        55.6004         49.6004
 19  3 26 20 40 30.0000000  0 11G01G07G08G09G11G13G17G18G27G28G30
 124256428.4284   96823207.9284                   23645210.1554   23645204.6874
        41.6004         41.3004
 109103624.0654   85015811.4454                   20761725.4284   20761722.8874
        55.0004         46.0004
 118905263.7564   92653469.2014                   22626916.3634   22626910.1144
        49.0004         45.0004
 125797124.3794   98023719.6634                   23938406.6674   23938400.2254
        42.3004         38.3004
 115354995.5234   89887029.3344                   21951317.0004   21951314.5254
        49.3004         43.6004
 121055537.1274   94329002.2814                   23036101.1064   23036100.7454
        47.3004         39.0004
 122746658.0314   95646751.6414                   23357907.8144   23357904.0244
        47.6004         40.3004
 121110837.1734   94372090.5724                   23046622.0294   23046618.2824
        44.3004         39.3004
 133722832.5684  104199617.0494                   25446609.1024   25446603.3404
        35.6004         40.6004
 111111286.0234   86580223.1354                   21143765.0844   21143763.3534
        53.0004         46.3004
 106435471.8124   82936730.9964                   20253990.9034   20253986.2584
        55.6004         49.6004
 19  3 26 20 41  0.0000000  0 11G01G07G08G09G11G13G17G18G27G28G30
 124172642.5034   96757920.2324                   23629267.3534   23629259.5774
        41.3004         41.3004
 109143192.6234   85046644.0734                   20769255.6954   20769252.6224
        55.0004         46.3004
 118991428.0854   92720610.2254                   22643313.4194   22643306.4134
        48.3004         45.0004
 125908461.4424   98110475.7844                   23959592.1474   23959587.8584
        43.0004         36.3004
 115310820.3214   89852607.1234                   21942911.0624   21942908.0304
        49.0004         44.0004
 120985413.7884   94274360.7394                   23022757.3014   23022755.0434
        46.0004         39.6004
 122645128.1334   95567637.5074                   23338586.8214   23338583.5304
        48.0004         40.0004
 121060831.1994   94333124.9074                   23037106.4314   23037101.9884
        43.6004         38.3004
 133835215.1514  104287187.9104                   25467997.7144   25467990.4644
        39.0004         36.6004
 111083859.8094   86558852.0854                   21138546.4104   21138544.4924
        53.0004         46.3004
 106416998.1754   82922335.9574                   20250475.7024   20250471.5634
        56.0004         49.6004
 19  3 26 20 41 30.0000000  0 11G01G07G08G09G11G13G17G18G27G28G30
 124089103.4804   96692824.9314                   23613368.1754   23613362.7104
        42.0004         40.3004
 109183178.0124   85077801.4984                   20776864.3564   20776861.7604
        55.0004         46.0004
 119077908.2594   92787997.3674                   22659770.2374   22659763.3074
        49.0004         45.6004
 126019839.0254   98197263.4514                   23980787.3364   23980781.8894
        43.0004         37.0004
 115267170.5224   89818594.3144                   21934604.8984   21934602.2004
        49.6004         44.0004
 120915751.8034   94220078.7064                   23009503.3244   23009499.1334
        46.0004         40.3004
 122543811.0004   95488689.1344                   23319306.9424   23319304.0604
        48.3004         39.6004
 121011315.0114   94294540.8934                   23027683.7524   23027679.2424
        43.3004         39.6004
 133947657.1534  104374805.0874                   25489392.0824   25489387.9814
        38.6004         35.6004
 111056666.1004   86537662.2004                   21133371.4544   21133369.1694
        52.6004         46.3004
 106398929.0104   82908256.0884                   20247037.5684   20247032.9554
        55.6004         49.6004
 19  3 26 20 42  0.0000000  0 11G01G07G08G09G11G13G17G18G27G28G30
 124005814.3934   96627924.4064                   23597520.9254   23597514.1224
        41.6004         41.0004
 109223580.1534   85109283.6674                   20784552.4784   20784549.4324
        54.3004         46.3004
 119164700.9114   92855628.0054                   22676286.1654   22676280.0134
        49.3004         46.0004
 126131254.1244   98284080.2774                   24001989.4124   24001983.7044
        41.6004         37.3004
 115224047.6254   89784992.0744                   21926398.7554   21926396.8954
        49.6004         44.0004
 120846553.1664   94166157.7364                   22996335.6284   22996331.4534
        46.3004         40.6004
 122442708.2114   95409907.8044                   23300068.2534   23300064.6774
        48.3004         40.3004
 120962290.9794   94256340.3644                   23018353.1604   23018350.3014
        42.6004         39.0004
 134060155.9374  104462466.4324                   25510801.2444   25510793.3224
        38.0004         37.6004
 111029703.8464   86516652.6664                   21128240.7194   21128238.9664
        52.6004         46.3004
 106381265.2714   82894492.1394                   20243676.3294   20243671.3794
        55.3004         50.0004
 19  3 26 20 42 30.0000000  0 11G01G07G08G09G11G13G17G18G27G28G30
 123922778.8274   96563221.4104                   23581719.2634   23581713.3184
        42.6004         40.0004
 109264399.4234   85141090.8714                   20792320.0744   20792317.1924
        54.6004         46.0004
 119251804.3164   92923500.7684                   22692860.9654   22692853.5284
        48.0004         46.0004
 126242704.1104   98370924.3774                   24023197.9534   24023191.3424
        42.6004         37.0004
 115181454.1644   89751802.3644                   21918293.6024   21918291.7194
        50.0004         43.3004
 120777820.1924   94112599.5694                   22983253.3924   22983252.3014
        47.0004         39.3004
 122341822.2984   95331295.4644                   23280870.2194   23280866.0074
        47.3004         40.3004
 120913761.7924   94218525.4324                   23009119.0274   23009114.6404
        41.6004         39.0004
 134172709.2244  104550170.3374                   25532219.3244   25532211.8504
        37.6004         35.6004
 111002972.3914   86495822.9764                   21123153.8944   21123151.4934
        52.3004         46.3004
 106364008.5214   82881045.3184                   20240392.2824   20240387.8004
        55.6004         50.0004
 19  3 26 20 43  0.0000000  0 11G01G07G08G09G11G13G17G18G27G28G30
 123839999.2534   96498717.9004                   23565967.3924   23565960.7114
        43.0004         39.6004
 109305634.8394   85173222.3584                   20800166.8014   20800163.9744
        55.0004         45.6004
 119339214.6444   92991612.6944                   22709493.6784   22709487.7834
        48.6004         45.3004
 126354185.4194   98457792.8904                   24044411.7734   24044405.5714
        42.6004         36.3004
 115139391.0364   89719025.9244                   21910289.0514   21910286.7614
        50.0004         43.3004
 120709554.4964   94059405.5204                   22970262.6394   22970260.6614
        46.3004         39.0004
 122241154.5564   95252853.1404                   23261714.2754   23261710.8654
        49.0004         40.3004
 120865728.9644   94181097.2984                   22999978.0094   22999974.4144
        42.3004         39.3004
 134285313.8614  104637914.2354                   25553645.6484   25553640.4624
        37.6004         36.0004
 110976470.3334   86475172.0434                   21118110.4244   21118108.3744
        52.3004         46.0004
 106347159.1434   82867915.9304                   20237186.2784   20237181.7364
        55.6004         50.0004
 19  3 26 20 43 30.0000000  0 11G01G07G08G09G11G13G17G18G27G28G30
 123757480.4324   96434417.5764                   23550263.5884   23550256.8424
        43.0004         40.3004
 109347287.8964   85205679.2724                   20808092.6454   20808090.5414
        55.0004         45.6004
 119426930.4184   93059962.6414                   22726184.8714   22726181.0544
        49.0004         44.6004
 126465696.6754   98544684.7454                   24065632.0414   24065625.5984
        41.3004         37.0004
 115097861.7704   89686665.4644                   21902385.8474   21902384.2574
        50.0004         43.3004
 120641759.7784   94006578.4954                   22957362.9524   22957357.6084
        44.3004         42.0004
 122140708.3694   95174583.4454                   23242599.4964   23242595.7484
        48.0004         40.6004
 120818196.6724   94144059.1854                   22990933.9584   22990929.6644
        43.3004         39.3004
 134397968.7574  104725697.2934                   25575084.0134   25575078.1124
        37.3004         36.3004
 110950198.5164   86454700.5164                   21113110.6244   21113109.0064
        52.3004         46.0004
 106330719.8854   82855106.1154                   20234057.9684   20234053.0984
        55.3004         50.0004
 19  3 26 20 44  0.0000000  0 11G01G07G08G09G11G13G17G18G27G28G30
 123675225.3284   96370322.7174                   23534610.5374   23534605.0524
        43.6004         38.6004
 109389358.2364   85238461.3494                   20816098.6434   20816096.2994
        55.0004         46.0004
 119514948.9354   93128548.4924                   22742934.9024   22742930.3314
        48.6004         44.3004
 126577234.8294   98631597.4744                   24086855.1384   24086850.6864
        42.0004         35.6004
 115056867.5824   89654721.9474                   21894584.9054   21894583.1234
        50.0004         43.0004
 120574437.8794   93954119.8874                   22944553.6034   22944549.5124
        46.6004         40.3004
 122040485.3344   95096487.6514                   23223527.1444   23223525.7074
        49.6004         39.0004
 120771167.0014   94107412.7144                   22981984.5284   22981981.1524
        44.6004         39.0004
 134510671.3124  104813517.5144                   25596529.8234   25596524.4244
        36.0004         33.6004
 110924155.7774   86434407.4774                   21108154.4814   21108154.1904
        52.6004         45.0004
 106314691.6504   82842616.5834                   20231007.3784   20231003.1844
        55.6004         49.6004
 19  3 26 20 44 30.0000000  0 11G01G07G08G09G11G13G17G18G27G28G30
 123593237.4694   96306436.1204                   23519009.1904   23519002.4234
        42.6004         39.3004
 109431845.9804   85271568.6684                   20824183.7544   20824181.4474
        55.0004         46.3004
 119603267.2874   93197367.9684                   22759741.2404   22759735.9624
        48.0004         44.6004
 126688797.2894   98718529.1764                   24108085.2944   24108079.3174
        40.0004         35.6004
 115016410.7814   89623197.1794                   21886886.4654   21886884.4674
        49.6004         43.6004
 120507591.2384   93902031.6184                   22931832.0334   22931829.0424
        46.3004         40.6004
 121940488.0324   95018567.7264                   23204497.9634   23204497.3564
        49.6004         39.3004
 120724642.4814   94071159.8564                   22973132.2594   22973127.2674
        44.0004         39.3004
 134623419.4444  104901373.1894                   25617985.5994   25617980.3294
        36.3004         35.3004
 110898341.9684   86414292.8274                   21103242.3754   21103242.0304
        52.3004         45.3004
 106299075.8974   82830448.4634                   20228035.4894   20228030.9494
        55.3004         50.3004
 19  3 26 20 45  0.0000000  0 12G01G07G08G09G11G13G15G17G18G27G28G30
 123511520.0224   96242760.2084                   23503458.8684   23503452.1214
        42.3004         37.0004
 109474751.1024   85305001.2114                   20832348.3594   20832346.1454
        55.3004         46.3004
 119691882.6594   93266418.8884                   22776603.5854   22776599.1214
        48.0004         44.3004
 126800381.0814   98805477.5344                   24129320.1764   24129314.7454
        42.0004         36.3004
 114976492.9534   89592092.3944                   21879290.0404   21879288.4854
        50.3004         42.6004
 120441221.9124   93850315.2634                   22919202.0394   22919197.7514
        45.6004         40.6004
    -37528.7874                                          0.2504   24870036.2504
        41.0004
 121840718.2384   94940825.0974                   23185512.4484   23185509.6854
        48.6004         39.0004
 120678625.8304   94035302.7334                   22964373.7734   22964370.9124
        44.3004         39.3004
 134736210.3534  104989262.2454                   25639447.9584   25639445.5724
        35.3004         37.3004
 110872755.9434   86394355.6774                   21098373.8954   21098372.6634
        52.3004         45.0004
 106283873.6654   82818602.5684                   20225142.5264   20225138.2864
        55.6004         50.0004
 19  3 26 20 45 30.0000000  0 12G01G07G08G09G11G13G15G17G18G27G28G30
 123430076.7574   96179297.9534                   23487958.9364   23487953.9954
        41.6004         36.3004
 109518073.9844   85338759.2884                   20840592.4494   20840590.0774
        55.3004         46.3004
 119780792.9784   93335699.6484                   22793522.9034   22793517.0974
        47.0004         44.6004
 126911983.9884   98892440.7814                   24150559.8404   24150551.8644
        41.0004         36.6004
 114937116.6474   89561409.5754                   21871797.5174   21871795.5234
        50.0004         43.3004
 120375332.7684   93798973.0984                   22906663.6414   22906659.9944
        45.6004         40.3004
 133761825.5374  104229995.4964                   25454033.2194   25454030.7764
        40.3004         31.6004
 121741178.4734   94863261.7064                   23166571.2854   23166567.0884
        48.0004         39.3004
 120633119.5654   93999843.3294                   22955714.3174   22955710.7954
        44.0004         39.0004
 134849042.4514  105077183.3474                   25660920.4594   25660914.9774
        33.0004         35.6004
 110847397.6874   86374596.0034                   21093549.1024   21093546.8994
        51.6004         45.0004
 106269086.7414   82807080.2954                   20222328.9844   20222324.5914
        55.6004         50.0004
 19  3 26 20 46  0.0000000  0 12G01G07G08G09G11G13G15G17G18G27G28G30
 123348909.9794   96116051.1344                   23472511.9614   23472507.9504
        41.0004         36.0004
 109561813.3894   85372841.9274                   20848915.8924   20848914.0764
        55.6004         46.6004
 119869994.3064   93405207.1574                   22810497.6054   22810492.4244
        47.0004         44.6004
 127023602.3234   98979415.9854                   24171797.4714   24171791.6234
        41.0004         37.0004
 114898282.4884   89531149.1964                   21864407.7314   21864405.6364
        49.6004         43.3004
 120309924.6264   93748005.7114                   22894216.8724   22894214.2454
        46.0004         40.0004
 133680226.4904  104166411.7164                   25438505.2224   25438501.7364
        41.0004         35.3004
 121641869.7194   94785878.3314                   23147672.4864   23147669.5174
        47.6004         39.0004
 120588125.1754   93964782.8034                   22947153.2994   22947148.8434
        44.0004         39.6004
 134961912.4294  105165133.9814                   25682397.8194   25682394.8494
        36.0004         35.0004
 110822265.5194   86355012.5174                   21088767.0154   21088763.1574
        51.0004         46.0004
 106254715.3734   82795881.8274                   20219594.5244   20219590.0534
        55.6004         50.3004
 19  3 26 20 46 30.0000000  0 12G01G07G08G09G11G13G15G17G18G27G28G30
 123268024.0044   96053023.1024                   23457121.6684   23457117.7054
        41.6004         37.3004
 109605970.4674   85407250.0284                   20857319.0364   20857316.1164
        55.6004         46.6004
 119959484.8214   93474940.0164                   22827527.0644   22827522.8324
        47.6004         44.3004
 127135234.1474   99066401.7664                   24193041.6874   24193034.7354
        40.3004         38.0004
 114859993.1914   89501313.3874                   21857120.8184   21857119.0654
        49.6004         43.0004
 120245000.7394   93697415.6924                   22881862.6634   22881859.0514
        45.6004         40.0004
 133598966.5374  104103092.3114                   25423043.1374   25423039.3694
        41.6004         35.6004
 121542794.9904   94708677.2974                   23128819.8834   23128815.3844
        47.0004         39.0004
 120543646.0704   93930123.7584                   22938688.9074   22938683.5234
        44.0004         40.3004
 135074818.6494  105253112.9484                   25703885.4914   25703879.4374
        35.0004         34.0004
 110797359.7494   86335605.4494                   21084027.2254   21084024.2544
        51.3004         45.6004
 106240761.6614   82785008.8014                   20216939.2914   20216934.9224
        55.6004         50.0004
