     2.11           OBSERVATION DATA    M (MIXED)           RINEX VERSION / TYPE
teqc  2018Jun8      root                20191212 04:33:14UTCPGM / RUN BY / DATE
Linux 2.4.21-27.ELsmp|Opteron|gcc|Linux 64|=+               COMMENT
teqc  2019Feb25     CORS-ADM Account    20190427 18:40:14UTCCOMMENT
teqc  2018Jan11     NOAA/NOS/NGS/CORS   20190327 04:00:09UTCCOMMENT
Linux 2.4.21-27.ELsmp|Opteron|gcc -static|Linux 64|=+       COMMENT
   0.000      (antenna height)                              COMMENT
 +39.72152587 (latitude)                                    COMMENT
-105.19287100 (longitude)                                   COMMENT
1819.921      (elevation)                                   COMMENT
BIT 2 OF LLI FLAGS DATA COLLECTED UNDER A/S CONDITION       COMMENT
 SNR is mapped to RINEX snr flag value [0-9]                COMMENT
  L1 & L2: min(max(int(snr_dBHz/6), 0), 9)                  COMMENT
teqc.e edited: all SBAS satellites excluded                 COMMENT
teqc.e edited: all QZSS satellites excluded                 COMMENT
Forced Modulo Decimation to 30 seconds                      COMMENT
CTMC                                                        MARKER NAME
1                                                           MARKER NUMBER
Steven Hagemann     CODOT                                   OBSERVER / AGENCY
4626K01856          TRIMBLE NETR5       48.01               REC # / TYPE / VERS
30167871            TRM55971.00     NONE                    ANT # / TYPE
 -1287787.7680 -4742178.3640  4055414.6140                  APPROX POSITION XYZ
        0.0000        0.0000        0.0000                  ANTENNA: DELTA H/E/N
     1     1                                                WAVELENGTH FACT L1/2
    11    L1    L2    L5    C1    P1    C2    P2    C5    S1# / TYPES OF OBSERV
          S2    S5                                          # / TYPES OF OBSERV
    30.0000                                                 INTERVAL
teqc.w windowed: start @ 2019 Mar 26 19:00:00.000           COMMENT
teqc.w windowed:  end  @ 2019 Mar 26 22:00:00.000           COMMENT
  2019     3    26    19     0    0.0000000     GPS         TIME OF FIRST OBS
    18                                                      LEAP SECONDS
                                                            END OF HEADER
 19  3 26 19  0  0.0000000  4  4
   0.000      (antenna height)                              COMMENT
 +39.72152587 (latitude)                                    COMMENT
-105.19287100 (longitude)                                   COMMENT
1819.921      (elevation)                                   COMMENT
 19  3 26 19  0  0.0000000  0 19G16R06R18R08G27G09G05R16G08R17R09G11
                                G23G07G30R07G28R19R15
 127253220.740 6  99158348.12843                  24215472.172
                  24215478.746                          39.000          20.400

 112532067.476 7                                  21088469.961    21088467.473
                                                        44.000

 114419895.071 7  88993288.060 7                  21434702.883    21434700.395
                  21434706.406                          47.800          44.100

 126024099.062 6  98018788.555 6                  23534118.773    23534117.691
                  23534122.531                          38.700          36.000

 116145965.310 7  90503375.191 7                  22101831.281
  22101837.391    22101838.148                          47.600          44.000

 107861099.038 8  84047635.098 8                  20525279.063
  20525285.934    20525286.223                          48.900          50.000

 129463915.377 7 100881004.134 6                  24636170.453
  24636175.508    24636175.563                          46.500          38.800

 108563470.389 7  84438317.588 6                  20323310.992    20323311.203
                  20323315.102                          45.600          40.600

 111148049.028 8  86608893.367 8                  21150757.133
  21150765.352    21150765.230                          48.800          48.300

 122135757.630 7  94994510.931 6                  22823984.977    22823984.598
                  22823989.793                          44.100          38.200

 111345754.715 8  86602316.740 7                  20851483.359    20851483.098
                  20851487.117                          48.900          46.300

 131041765.468 6 102110501.60042                  24936418.984
                  24936424.738                          39.700          17.400

 116839567.483 7  91043884.39545                  22233842.969
                  22233845.852                          46.900          31.100

 108834489.346 8  84806127.667 8                  20710508.688
  20710513.098    20710513.094                          49.700          48.100

 116398758.618 7  90700399.063 7                  22149946.359
  22149952.410    22149952.699                          46.400          44.800

 110682253.708 8  86086212.438 7                  20676381.414    20676380.918
                  20676385.406                          49.500          45.600

 121734042.471 6  94857721.00943                  23165212.578
                  23165217.922                          41.200          22.300

 122788291.726 6  95502063.145 5                  22953982.656    22953980.051
                  22953984.773                          37.700          35.600

 127387566.891 6  99079235.334 6                  23838857.023    23838858.055
                  23838864.535                          40.000          37.600

 19  3 26 19  0 30.0000000  0 19G16R06R18R08G27G09G05R16G08R17R09G11
                                G23G07G30R07G28R19R15
 127358879.916 6  99240679.90443                  24235578.602
                  24235584.531                          38.100          20.400

 112633535.467 7                                  21107483.977    21107482.074
                                                        44.100

 114372938.967 8  88956766.656 7                  21425906.125    21425903.637
                  21425909.180                          48.000          44.000

 125922534.269 7  97939793.812 6                  23515155.273    23515153.840
                  23515156.332                          42.300          38.900

 116192684.694 7  90539779.900 7                  22110722.258
  22110728.660    22110729.008                          46.900          44.600

 107909339.626 8  84085225.139 8                  20534459.734
  20534465.844    20534466.074                          49.900          50.100

 129460504.208 7 100878346.035 6                  24635520.406
  24635524.055    24635524.871                          45.300          36.300

 108606931.400 7  84472120.597 6                  20331446.906    20331447.117
                  20331451.250                          45.800          41.200

 111129834.992 7  86594700.628 8                  21147291.633
  21147298.914    21147299.086                          47.900          48.500

 122190790.305 7  95037314.104 5                  22834270.727    22834269.527
                  22834271.668                          44.300          35.500

 111295391.938 8  86563145.707 7                  20842052.898    20842051.582
                  20842055.484                          48.700          46.300

 130948229.145 6 102037616.22542                  24918619.148
                  24918624.961                          37.800          17.400

 116933718.117 7  91117248.47845                  22251759.078
                  22251762.547                          46.600          30.800

 108805005.914 8  84783153.567 7                  20704898.211
  20704902.387    20704902.617                          50.300          47.700

 116328953.276 7  90646005.304 7                  22136663.008
  22136668.414    22136668.352                          45.800          43.900

 110671916.716 8  86078172.539 7                  20674450.063    20674449.449
                  20674454.406                          49.900          46.800

 121654368.015 6  94795637.05743                  23150050.891
                  23150055.941                          41.300          20.600

 122666812.192 6  95407579.189 5                  22931269.508    22931269.129
                  22931276.551                          37.900          35.400

 127473669.645 6  99146204.114 6                  23854972.156    23854971.895
                  23854977.559                          41.400          38.000

 19  3 26 19  1  0.0000000  0 19G16R06R18R08G27G09G05R16G08R17R09G11
                                G23G07G30R07G28R19R15
 127464547.791 6  99323018.41743                  24255685.602
                  24255692.293                          37.200          19.600

 112735478.315 7                                  21126589.375    21126586.535
                                                        43.700

 114326707.905 8  88920809.187 7                  21417245.125    21417243.926
                  21417249.234                          48.200          43.800

 125821418.971 6  97861148.709 6                  23496272.016    23496270.113
                  23496273.898                          41.400          38.100

 116239984.221 7  90576636.663 7                  22119723.898
  22119729.891    22119729.535                          47.800          45.300

 107958109.670 8  84123227.761 8                  20543739.805
  20543746.441    20543746.613                          49.000          50.100

 129457615.825 7 100876095.318 6                  24634970.258
  24634978.301    24634976.773                          43.400          38.900

 108650589.242 7  84506076.700 6                  20339620.578    20339620.082
                  20339625.039                          44.600          41.600

 111112234.909 8  86580986.305 8                  21143942.250
  21143950.527    21143949.996                          48.800          48.200

 122246523.771 7  95080662.390 6                  22844683.359    22844684.039
                  22844689.230                          43.400          38.600

 111245241.170 8  86524139.578 7                  20832661.273    20832660.660
                  20832664.328                          48.900          46.100

 130854650.904 6 101964698.22442                  24900813.781
                  24900818.539                          40.000          17.400

 117028189.614 7  91190862.56845                  22269736.617
                  22269740.086                          47.100          30.800

 108775754.870 8  84760360.550 7                  20699332.180
  20699336.004    20699336.059                          49.900          47.500

 116259272.338 7  90591708.484 7                  22123402.461
  22123408.688    22123408.625                          45.800          43.200

 110662400.972 8  86070771.392 7                  20672673.297    20672672.098
                  20672676.820                          50.300          45.800

 121574945.891 7  94733749.69143                  23134939.914
                  23134942.504                          42.700          21.700

 122545488.049 6  95313216.089 5                  22908593.664    22908591.293
                  22908596.250                          39.600          34.400

 127559754.172 6  99213158.673 6                  23871081.094    23871081.422
                  23871087.316                          40.700          37.200

 19  3 26 19  1 30.0000000  0 19G16R06R18R08G27G09G05R16G08R17R09G11
                                G23G07G30R07G28R19R15
 127570222.177 6  99405362.04343                  24275796.867
                  24275801.918                          38.700          19.000

 112837890.824 7                                  21145780.422    21145779.457
                                                        43.800

 114281204.533 7  88885417.663 7                  21408720.117    21408718.449
                  21408723.992                          47.900          43.500

 125720756.656 6  97782855.802 6                  23477470.297    23477470.273
                  23477475.230                          41.500          36.000

 116287861.851 7  90613943.961 7                  22128833.766
  22128840.168    22128840.105                          47.300          44.000

 108007407.597 8  84161641.714 8                  20553121.648
  20553127.582    20553127.813                          50.300          50.000

 129455249.488 7 100874251.398 5                  24634522.938
  24634522.656    24634524.238                          44.300          34.100

 108694443.189 7  84540185.301 6                  20347829.031    20347829.594
                  20347834.902                          45.200          41.500

 111095248.853 8  86567750.429 7                  21140710.266
  21140717.605    21140717.426                          49.300          47.800

 122302955.388 7  95124553.618 6                  22855228.977    22855228.480
                  22855235.199                          43.400          39.400

 111195301.901 8  86485297.933 7                  20823309.656    20823307.988
                  20823311.066                          49.000          45.600

 130761033.571 6 101891749.74743                  24882999.047
                  24883003.277                          38.700          18.600

 117122979.404 7  91264724.71545                  22287773.695
                  22287776.988                          46.300          30.100

 108746737.292 8  84737749.464 8                  20693809.898
  20693814.074    20693814.305                          49.300          48.000

 116189716.451 7  90537509.100 7                  22110167.352
  22110173.051    22110173.105                          46.200          44.400

 110653706.275 8  86064008.834 7                  20671049.766    20671048.566
                  20671053.289                          50.700          47.000

 121495775.981 7  94672058.89243                  23119872.031
                  23119877.844                          42.100          22.800

 122424323.530 6  95218977.103 6                  22885944.063    22885941.809
                  22885947.000                          37.600          36.600

 127645820.300 6  99280098.906 5                  23887188.492    23887188.230
                  23887192.836                          40.500          35.800

 19  3 26 19  2  0.0000000  0 19G16R06R18R08G27G09G05R16G08R17R09G11
                                G23G07G30R07G28R19R15
 127675901.570 6  99487709.62643                  24295908.500
                  24295910.270                          40.400          20.600

 112940768.904 7                                  21165059.953    21165058.871
                                                        43.700

 114236431.728 7  88850594.430 7                  21400331.453    21400330.605
                  21400336.504                          46.800          43.500

 125620551.467 6  97704918.492 6                  23458754.547    23458755.109
                  23458765.109                          39.200          38.300

 116336315.933 7  90651700.388 7                  22138054.703
  22138060.285    22138060.926                          45.400          44.200

 108057232.348 7  84200466.183 8                  20562602.031
  20562608.551    20562609.016                          47.500          49.700

 129453404.571 7 100872813.790 6                  24634168.898
  24634173.660    24634172.367                          44.100          36.600

 108738492.507 7  84574445.882 6                  20356075.828    20356075.805
                  20356080.055                          45.400          40.700

 111078877.769 8  86554993.748 8                  21137594.867
  21137601.621    21137601.207                          48.600          48.300

 122360082.883 7  95168986.138 6                  22865904.430    22865904.523
                  22865911.824                          44.100          39.600

 111145574.282 8  86446620.881 7                  20813996.266    20813995.770
                  20813998.852                          48.800          45.700

 130667379.956 5 101818772.94242                  24865173.820
                  24865182.094                          35.200          16.300

 117218085.400 7  91338833.25644                  22305872.711
                  22305875.359                          46.700          29.700

 108717953.933 8  84715320.883 7                  20688332.539
  20688336.949    20688337.238                          49.800          47.500

 116120286.688 7  90483407.997 7                  22096954.969
  22096961.605    22096961.777                          46.800          45.100

 110645833.513 8  86057885.578 7                  20669578.516    20669577.668
                  20669582.156                          50.900          45.500

 121416858.899 7  94610565.13144                  23104854.859
                  23104860.672                          43.700          26.000

 122303323.299 6  95124865.869 5                  22863319.258    22863318.879
                  22863326.184                          37.800          35.600

 127731867.781 6  99347024.765 5                  23903288.578    23903289.609
                  23903293.863                          40.600          34.400

 19  3 26 19  2 30.0000000  0 19G16R06R18R08G27G09G05R16G08R17R09G11
                                G23G07G30R07G28R19R15
 127781584.470 6  99570059.95143                  24316019.430
                  24316021.609                          41.200          20.400

 113044108.288 7                                  21184425.922    21184423.902
                                                        43.100

 114192392.406 7  88816341.654 7                  21392082.047    21392080.262
                  21392085.688                          47.600          43.400

 125520807.346 6  97627339.716 6                  23440128.148    23440129.063
                  23440137.070                          40.200          36.900

 116385344.715 7  90689904.619 7                  22147384.703
  22147391.164    22147391.512                          47.800          45.600

 108107582.612 8  84239700.139 8                  20572184.055
  20572190.340    20572190.629                          49.200          50.500

 129452080.871 7 100871782.293 5                  24633918.281
  24633918.996    24633919.523                          44.100          34.300

 108782736.601 7  84608857.950 6                  20364356.992    20364357.672
                  20364362.277                          45.000          40.700

 111063122.492 8  86542716.902 8                  21134597.188
  21134603.824    21134603.703                          49.500          48.600

 122417904.213 7  95213958.285 6                  22876710.250    22876709.637
                  22876716.707                          44.500          40.200

 111096058.110 8  86408108.366 7                  20804722.852    20804722.238
                  20804726.375                          48.700          45.700

 130573693.008 6 101745770.23543                  24847347.430
                  24847353.770                          37.300          18.300

 117313505.292 7  91413186.37244                  22324030.164
                  22324033.633                          45.700          27.900

 108689406.408 8  84693076.051 7                  20682900.773
  20682904.012    20682904.359                          49.900          47.600

 116050983.997 7  90429405.923 7                  22083767.445
  22083772.676    22083773.199                          47.000          44.200

 110638782.538 8  86052401.474 7                  20668260.367    20668259.871
                  20668265.418                          50.700          46.300

 121338195.883 7  94549269.32344                  23089887.227
                  23089891.867                          43.500          27.300

 122182492.362 6  95030886.387 6                  22840731.500    22840731.594
                  22840738.777                          36.100          36.700

 127817896.707 6  99413936.174 5                  23919388.758    23919387.910
                  23919393.926                          40.400          35.300

 19  3 26 19  3  0.0000000  0 19G16R06R18R08G27G09G05R16G08R17R09G11
                                G23G07G30R07G28R19R15
 127887268.879 6  99652411.42443                  24336128.156
                  24336133.031                          39.900          19.300

 113147904.103 7                                  21203879.359    21203874.992
                                                        43.500

 114149088.875 8  88782661.123 7                  21383971.602    21383968.762
                  21383973.484                          48.200          43.100

 125421527.637 6  97550122.158 6                  23421591.078    23421591.172
                  23421599.531                          40.400          39.800

 116434945.934 8  90728554.905 7                  22156823.531
  22156829.641    22156830.223                          48.200          45.000

 108158456.821 8  84279342.374 8                  20581864.602
  20581871.883    20581871.879                          50.000          50.200

 129451277.588 6 100871156.352 6                  24633765.703
  24633769.820    24633768.352                          41.600          37.500

 108827174.464 7  84643420.721 6                  20372676.789    20372675.941
                  20372679.961                          44.800          40.000

 111047983.207 8  86530920.064 8                  21131716.211
  21131723.668    21131723.723                          49.500          48.500

 122476416.400 7  95259467.751 6                  22887648.133    22887645.293
                  22887650.836                          45.600          40.600

 111046753.123 8  86369760.019 7                  20795489.180    20795488.918
                  20795492.938                          48.500          45.700

 130479974.650 6 101672743.02942                  24829512.922
                  24829519.086                          38.000          17.400

 117409236.321 7  91487781.95244                  22342248.359
                  22342250.246                          46.600          28.500

 108661094.769 8  84671015.037 7                  20677512.961
  20677516.844    20677517.191                          49.200          47.800

 115981808.966 7  90375503.314 7                  22070602.672
  22070609.895    22070609.539                          46.600          45.100

 110632553.436 8  86047556.605 7                  20667097.617    20667096.652
                  20667101.609                          49.900          45.900

 121259786.772 7  94488171.37543                  23074966.125
                  23074970.590                          43.000          23.900

 122061834.809 6  94937041.693 6                  22818175.125    22818175.453
                  22818181.934                          37.200          36.500

 127903906.821 6  99480832.842 6                  23935485.336    23935484.254
                  23935489.680                          40.700          36.700

 19  3 26 19  3 30.0000000  0 19G16R06R18R08G27G09G05R16G08R17R09G11
                                G23G07G30R07G28R19R15
 127992954.111 6  99734763.47343                  24356241.094
                  24356245.441                          40.000          18.600

 113252152.450 7                                  21223411.922    21223410.254
                                                        43.000

 114106524.721 8  88749555.684 7                  21375997.734    21375995.949
                  21376000.555                          48.100          43.100

 125322716.923 7  97473269.455 6                  23403142.211    23403140.074
                  23403146.086                          42.600          39.800

 116485118.619 7  90767650.504 7                  22166370.305
  22166376.883    22166377.406                          47.200          45.400

 108209854.416 8  84319392.425 8                  20591645.961
  20591652.363    20591652.535                          49.600          50.500

 129450994.700 6 100870935.884 6                  24633708.617
  24633715.371    24633715.426                          40.200          37.600

 108871806.259 7  84678134.340 6                  20381031.539    20381031.160
                  20381036.117                          44.700          40.800

 111033461.402 8  86519604.379 8                  21128952.805
  21128960.203    21128960.199                          49.400          48.400

 122535617.928 7  95305513.366 6                  22898708.195    22898708.055
                  22898713.129                          44.400          39.300

 110997659.546 8  86331576.148 7                  20786296.719    20786295.168
                  20786298.953                          49.000          45.900

 130386228.586 6 101599694.22643                  24811675.250
                  24811680.535                          41.200          19.600

 117505276.925 7  91562618.73744                  22360523.953
                  22360526.895                          45.800          29.400

 108633021.703 8  84649139.923 8                  20672169.867
  20672174.395    20672174.684                          48.300          48.100

 115912763.342 7  90321701.568 7                  22057464.094
  22057470.555    22057470.492                          46.300          45.200

 110627147.278 8  86043351.824 7                  20666086.078    20666085.582
                  20666091.012                          49.600          45.600

 121181633.083 7  94427272.45644                  23060092.453
                  23060098.324                          42.900          24.400

 121941356.126 6  94843336.162 5                  22795654.883    22795653.566
                  22795659.461                          37.100          34.800

 127989898.984 6  99547715.519 6                  23951578.477    23951577.863
                  23951582.469                          40.800          37.200

 19  3 26 19  4  0.0000000  0 19G16R06R18R08G27G09G05R16G08R17R09G11
                                G23G07G30R07G28R19R15
 128098637.600 6  99817114.15843                  24376353.297
                  24376356.414                          41.100          19.300

 113356849.044 7                                  21243033.117    21243032.387
                                                        42.900

 114064701.832 7  88717026.804 7                  21368162.391    21368160.254
                  21368165.328                          47.000          43.300

 125224378.272 6  97396783.906 6                  23384776.727    23384775.762
                  23384780.836                          41.400          37.500

 116535860.140 7  90807189.330 7                  22176026.516
  22176033.973    22176033.676                          47.600          46.700

 108261773.280 8  84359848.675 8                  20601525.297
  20601532.227    20601532.164                          49.900          49.700

 129451231.028 6 100871119.996 6                  24633755.875
  24633759.934    24633759.930                          40.800          36.600

 108916630.602 7  84712997.713 6                  20389423.000    20389424.383
                  20389429.105                          44.600          40.800

 111019556.792 8  86508769.637 8                  21126305.516
  21126314.320    21126313.906                          48.300          48.600

 122595505.440 7  95352092.553 6                  22909901.742    22909899.488
                  22909904.914                          45.000          39.400

 110948776.724 8  86293556.175 7                  20777143.133    20777142.051
                  20777145.602                          49.300          46.100

 130292456.976 6 101526625.49743                  24793829.180
                  24793836.398                          40.900          20.900

 117601624.365 7  91637694.60644                  22378858.594
                  22378860.539                          46.400          29.000

 108605187.030 8  84627450.575 8                  20666874.023
  20666878.434    20666878.605                          49.800          48.100

 115843847.344 7  90268000.781 7                  22044348.805
  22044356.086    22044356.023                          45.700          44.600

 110622563.089 8  86039786.321 7                  20665230.164    20665229.199
                  20665235.098                          49.800          47.000

 121103735.184 7  94366572.87643                  23045268.898
                  23045274.535                          42.300          22.500

 121821060.040 6  94749772.598 6                  22773167.336    22773164.379
                  22773171.211                          38.000          36.300

 128075872.152 6  99614583.445 6                  23967666.367    23967665.988
                  23967672.238                          41.800          38.300

 19  3 26 19  4 30.0000000  0 19G16R06R18R08G27G09G05R16G08R17R09G11
                                G23G07G30R07G28R19R15
 128204317.763 6  99899462.33943                  24396464.195
                  24396466.434                          41.100          20.100

 113461989.303 7                                  21262737.305    21262735.051
                                                        43.200

 114023623.203 7  88685076.773 7                  21360466.609    21360464.473
                  21360470.133                          47.600          43.500

 125126515.915 6  97320668.806 6                  23366497.602    23366497.461
                  23366504.410                          39.500          36.300

 116587168.878 7  90847170.151 7                  22185790.141
  22185797.832    22185797.418                          47.600          45.600

 108314212.489 8  84400710.373 8                  20611504.367
  20611511.004    20611511.293                          49.800          50.000

 129451986.011 6 100871708.247 5                  24633897.813
  24633903.102    24633903.508                          41.700          35.900

 108961647.108 7  84748010.548 6                  20397849.867    20397850.547
                  20397855.152                          45.600          41.400

 111006270.205 8  86498416.473 7                  21123778.453
  21123785.676    21123785.672                          48.800          47.800

 122656076.934 7  95399203.650 6                  22921219.797    22921218.480
                  22921222.852                          43.000          37.100

 110900104.885 8  86255700.328 7                  20768027.531    20768026.684
                  20768031.289                          49.500          46.300

 130198662.905 6 101453539.26243                  24775979.328
                  24775987.309                          38.900          19.300

 117698276.366 7  91713007.81644                  22397250.375
                  22397253.492                          45.800          29.600

 108577592.410 8  84605948.278 8                  20661622.539
  20661627.125    20661627.590                          49.300          48.400

 115775062.247 7  90214402.038 7                  22031260.883
  22031267.988    22031268.277                          46.900          46.000

 110618801.584 8  86036860.704 7                  20664527.719    20664526.988
                  20664532.887                          49.500          46.600

 121026093.725 7  94306073.05443                  23030494.750
                  23030498.277                          43.000          21.700

 121700951.880 6  94656355.192 6                  22750712.969    22750711.535
                  22750718.488                          39.400          36.100

 128161826.776 6  99681436.997 6                  23983752.477    23983752.453
                  23983758.348                          41.700          37.100

 19  3 26 19  5  0.0000000  0 19G16R06R18R08G27G09G05R16G08R17R09G11
                                G23G07G30R07G28R19R15
 128309992.684 6  99981806.40743                  24416571.344
                  24416576.512                          38.600          20.100

 113567568.741 7                                  21282521.203    21282519.887
                                                        43.700

 113983291.158 7  88653707.442 7                  21352910.750    21352908.496
                  21352914.859                          47.200          44.000

 125029133.614 6  97244926.982 6                  23348315.102    23348313.434
                  23348319.680                          40.800          37.800

 116639042.730 7  90887591.323 7                  22195660.164
  22195668.207    22195668.145                          46.400          45.000

 108367170.335 8  84441976.217 8                  20621581.875
  20621587.750    20621587.863                          49.300          50.200

 129453259.091 7 100872700.211 6                  24634140.742
  24634146.793    24634146.145                          42.100          37.800

 109006854.964 7  84783172.204 6                  20406312.961    20406313.172
                  20406318.363                          45.200          41.500

 110993601.781 8  86488544.995 8                  21121367.156
  21121374.965    21121374.902                          48.500          48.300

 122717329.729 7  95446844.701 6                  22932667.508    22932665.723
                  22932669.859                          44.700          37.600

 110851643.747 8  86218008.352 7                  20758952.375    20758952.703
                  20758955.898                          49.600          46.000

 130104848.922 6 101380437.50343                  24758130.211
                  24758135.145                          38.900          19.300

 117795230.503 7  91788556.45144                  22415700.078
                  22415703.137                          47.000          29.700

 108550238.732 8  84584633.724 7                  20656417.023
  20656420.906    20656421.547                          49.700          47.800

 115706408.833 7  90160905.892 7                  22018197.250
  22018203.359    22018203.180                          47.000          46.300

 110615862.473 8  86034574.701 7                  20663979.813    20663978.613
                  20663983.805                          50.100          46.600

 120948709.360 7  94245773.56044                  23015769.266
                  23015773.203                          43.000          24.600

 121581035.858 6  94563087.272 6                  22728298.398    22728298.492
                  22728303.684                          39.800          37.100

 128247762.610 6  99748275.962 6                  23999832.906    23999832.410
                  23999839.012                          40.100          36.500

 19  3 26 19  5 30.0000000  0 19G16R06R18R08G27G09G05R16G08R17R09G11
                                G23G07G30R07G28R19R15
 128415661.331 5 100064145.49042                  24436676.641
                  24436685.266                          35.200          17.400

 113673583.109 7                                  21302387.313    21302387.172
                                                        43.200

 113943708.236 7  88622920.761 7                  21345495.922    21345492.965
                  21345498.508                          47.500          43.500

 124932234.533 6  97169561.074 6                  23330220.375    23330218.824
                  23330226.480                          41.900          39.500

 116691479.816 7  90928451.380 7                  22205640.008
  22205646.117    22205646.230                          46.400          44.000

 108420645.540 8  84483645.192 8                  20631757.859
  20631763.734    20631763.965                          49.400          49.600

 129455049.512 6 100874095.336 6                  24634480.008
  24634486.527    24634488.223                          38.500          36.000

 109052253.611 7  84818482.238 6                  20414812.125    20414811.984
                  20414816.820                          46.000          41.200

 110981552.209 8  86479155.721 8                  21119074.289
  21119081.805    21119081.684                          48.700          48.100

 122779261.027 7  95495013.462 6                  22944238.656    22944236.754
                  22944241.945                          42.500          37.100

 110803393.135 8  86180480.116 7                  20749917.242    20749916.512
                  20749919.477                          49.700          45.700

 130011017.642 6 101307322.25843                  24740273.070
                  24740279.645                          37.100          18.300

 117892484.264 7  91864338.53744                  22434207.094
                  22434209.684                          46.300          29.100

 108523126.891 8  84563507.622 7                  20651258.609
  20651262.258    20651262.605                          48.600          47.800

 115637888.098 7  90107513.133 7                  22005158.102
  22005164.797    22005164.793                          45.800          46.000

 110613745.501 8  86032928.196 7                  20663583.625    20663583.246
                  20663588.203                          50.600          45.900

 120871582.783 7  94185674.96143                  23001092.875
                  23001096.754                          42.800          23.600

 121461316.777 6  94469972.481 6                  22705914.016    22705914.109
                  22705922.000                          37.900          38.500

 128333679.800 6  99815100.359 6                  24015910.586    24015911.148
                  24015917.277                          41.100          36.600

 19  3 26 19  6  0.0000000  0 19G16R06R18R08G27G09G05R16G08R17R09G11
                                G23G07G30R07G28R19R15
 128521322.051 6 100146478.47443                  24456787.438
                  24456791.082                          39.700          19.600

 113780027.794 7                                  21322336.188    21322334.871
                                                        44.100

 113904877.636 7  88592719.200 7                  21338219.992    21338218.324
                  21338225.043                          46.400          43.300

 124835823.596 7  97094574.840 6                  23312218.656    23312217.223
                  23312221.828                          42.000          38.500

 116744478.742 7  90969749.265 7                  22215725.508
  22215730.621    22215730.910                          46.800          43.800

 108474637.259 8  84525716.654 8                  20642032.172
  20642037.988    20642038.277                          50.100          49.600

 129457357.151 6 100875893.547 6                  24634920.172
  24634926.809    24634925.984                          41.300          36.600

 109097843.077 7  84853940.727 6                  20423346.953    20423346.930
                  20423351.414                          45.600          40.800

 110970122.773 7  86470249.670 8                  21116898.875
  21116906.508    21116906.270                          46.500          48.400

 122841869.077 7  95543708.581 6                  22955938.273    22955937.895
                  22955942.500                          44.300          37.300

 110755353.579 8  86143116.006 7                  20740920.602    20740920.105
                  20740923.422                          49.800          45.600

 129917172.805 6 101234196.54043                  24722416.086
                  24722421.313                          38.400          19.000

 117990035.944 7  91940352.79944                  22452770.602
                  22452774.070                          46.300          29.200

 108496258.940 8  84542571.561 7                  20646145.086
  20646149.496    20646149.902                          49.900          47.900

 115569501.594 7  90054224.980 7                  21992143.969
  21992150.723    21992150.543                          44.900          45.700

 110612451.513 8  86031921.731 7                  20663342.516    20663341.082
                  20663346.391                          50.300          46.200

 120794715.045 7  94125778.10144                  22986463.656
                  22986469.996                          42.300          24.100

 121341799.881 6  94377015.028 6                  22683575.555    22683573.770
                  22683579.664                          39.300          38.600

 128419578.719 6  99881910.563 5                  24031987.188    24031986.105
                  24031991.297                          39.900          35.000

 19  3 26 19  6 30.0000000  0 19G16R06R18R08G27G09G05R16G08R17R09G11
                                G23G07G30R07G28R19R15
 128626973.004 6 100228803.84443                  24476892.750
                  24476895.926                          41.700          18.600

 113886898.151 7                                  21342363.617    21342362.301
                                                        43.200

 113866800.868 8  88563103.936 7                  21331088.953    21331086.816
                  21331092.945                          48.000          44.200

 124739903.589 6  97019970.431 6                  23294304.852    23294304.121
                  23294309.902                          41.900          39.300

 116798036.607 7  91011482.657 7                  22225917.164
  22225922.805    22225923.035                          46.800          43.800

 108529143.122 8  84568188.745 8                  20652404.227
  20652410.629    20652411.270                          48.300          49.200

 129460180.413 7 100878093.443 6                  24635457.992
  24635462.051    24635463.219                          42.700          36.000

 109143621.601 7  84889546.261 6                  20431916.313    20431917.813
                  20431922.184                          45.700          41.500

 110959312.969 8  86461826.456 8                  21114841.625
  21114849.961    21114849.547                          48.300          48.600

 122905150.185 7  95592927.245 6                  22967763.367    22967763.344
                  22967768.652                          43.400          37.900

 110707523.798 8  86105915.106 7                  20731962.992    20731961.793
                  20731965.813                          48.700          46.300

 129823315.902 6 101161061.35242                  24704554.023
                  24704560.539                          38.600          17.800

 118087882.500 7  92016596.79045                  22471389.641
                  22471394.047                          46.000          30.200

 108469634.642 8  84521825.367 8                  20641079.328
  20641083.445    20641083.793                          50.500          48.300

 115501249.423 7  90001041.496 7                  21979154.789
  21979161.660    21979161.656                          45.500          46.100

 110611979.268 8  86031554.409 7                  20663253.852    20663252.418
                  20663258.078                          49.900          46.600

 120718105.746 7  94066082.60744                  22971885.984
                  22971892.324                          42.800          25.500

 121222489.138 6  94284217.868 6                  22661272.703    22661269.980
                  22661274.820                          39.700          37.400

 128505458.543 6  99948705.909 6                  24048056.898    24048057.578
                  24048063.707                          41.800          36.700

 19  3 26 19  7  0.0000000  0 20G16R06R18R08G27R10G09G05R16G08R17R09
                                G11G23G07G30R07G28R19R15
 128732612.752 6 100311120.51643                  24496994.172
                  24496997.934                          40.900          19.300

 113994190.337 7                                  21362470.586    21362468.801
                                                        42.700

 113829481.081 7  88534077.474 7                  21324096.953    21324094.816
                  21324101.180                          47.800          44.300

 124644478.787 6  96945751.149 6                  23276483.766    23276482.332
                  23276487.172                          41.800          36.900

 116852152.077 7  91053650.577 7                  22236214.922
  22236220.387    22236220.910                          45.300          43.600

 128243120.37116  99744735.68814                  24058094.719    24058093.871
                  24058102.348                          40.200          29.400

 108584162.313 8  84611060.830 8                  20662874.750
  20662880.801    20662881.031                          48.000          49.100

 129463519.098 7 100880694.971 6                  24636093.516
  24636099.273    24636099.387                          43.700          37.500

 109189589.568 7  84925299.101 6                  20440522.414    20440522.273
                  20440526.992                          44.800          40.800

 110949123.841 7  86453886.895 8                  21112903.250
  21112911.059    21112910.996                          47.800          48.400

 122969102.589 7  95642667.907 6                  22979715.867    22979715.020
                  22979720.801                          43.800          39.700

 110659904.470 8  86068877.887 7                  20723046.570    20723045.840
                  20723048.336                          49.800          45.500

 129729450.561 6 101087919.61242                  24686692.578
                  24686698.801                          37.200          17.800

 118186021.761 7  92093068.88844                  22490064.500
                  22490068.672                          44.800          29.200

 108443256.002 8  84501270.576 8                  20636059.664
  20636063.254    20636063.836                          50.200          48.200

 115433133.169 7  89947963.898 7                  21966192.992
  21966199.395    21966199.566                          45.100          44.600

 110612329.183 8  86031826.555 7                  20663319.016    20663318.992
                  20663324.301                          49.700          45.900

 120641756.137 7  94006589.46943                  22957355.547
                  22957363.176                          42.500          22.900

 121103389.686 6  94191584.975 6                  22639005.625    22639003.957
                  22639009.500                          38.700          37.600

 128591320.003 6 100015486.958 6                  24064124.797    24064124.418
                  24064131.488                          40.500          36.700

 19  3 26 19  7 30.0000000  0 20G16R06R18R08G27R10G09G05R16G08R17R09
                                G11G23G07G30R07G28R19R15
 128838239.702 6 100393427.12943                  24517091.969
                  24517097.957                          38.200          18.600

 114101899.822 7                                  21382654.039    21382653.543
                                                        42.600

 113792920.699 8  88505641.657 7                  21317248.250    21317246.113
                  21317252.828                          48.500          44.600

 124549553.258 7  96871920.201 6                  23258758.453    23258757.371
                  23258761.039                          42.700          38.600

 116906823.212 7  91096251.456 7                  22246618.109
  22246624.688    22246624.625                          46.300          44.300

 128159759.824 7  99679899.734 5                  24042456.773    24042455.691
                  24042463.230                          42.600          31.900

 108639693.454 8  84654331.836 8                  20673441.914
  20673447.613    20673448.078                          49.200          49.900

 129467372.622 6 100883697.697 6                  24636825.156
  24636831.969    24636833.195                          41.600          36.200

 109235746.225 7  84961198.744 6                  20449161.477    20449162.391
                  20449167.934                          44.500          40.800

 110939555.591 7  86446431.145 8                  21111081.984
  21111089.852    21111089.672                          47.800          48.500

 123033723.497 7  95692928.569 6                  22991790.617    22991789.887
                  22991796.020                          43.600          38.300

 110612495.523 8  86032004.280 7                  20714167.422    20714167.281
                  20714169.891                          49.500          45.400

 129635579.361 6 101014773.30243                  24668830.570
                  24668835.680                          39.800          19.300

 118284451.803 7  92169767.56944                  22508795.602
                  22508799.012                          45.900          28.600

 108417124.177 8  84480908.122 8                  20631085.469
  20631090.816    20631090.930                          49.500          48.200

 115365153.950 7  89894993.092 7                  21953256.680
  21953263.727    21953264.133                          45.100          45.600

 110613501.132 8  86032738.067 7                  20663538.180    20663537.215
                  20663542.875                          50.300          47.200

 120565667.151 7  93947299.40144                  22942878.742
                  22942883.734                          45.200          25.000

 120984506.368 6  94099120.262 6                  22616780.828    22616780.332
                  22616786.582                          37.900          37.200

 128677163.145 6 100082253.804 6                  24080186.977    24080189.414
                  24080196.602                          40.600          38.500

 19  3 26 19  8  0.0000000  0 20G16R06R18R08G27R10G09G05R16G08R17R09
                                G11G23G07G30R07G28R19R15
 128943852.456 6 100475722.77342                  24537190.891
                  24537194.008                          38.500          16.300

 114210021.752 7                                  21402916.742    21402915.426
                                                        43.000

 113757121.786 8  88477798.084 7                  21310542.266    21310539.777
                  21310544.852                          48.500          43.800

 124455130.163 6  96798480.071 6                  23241123.023    23241123.117
                  23241128.543                          41.900          39.200

 116962047.711 7  91139283.538 7                  22257127.531
  22257133.641    22257133.930                          47.000          44.600

 128076457.837 6  99615109.309 5                  24026828.867    24026828.605
                  24026836.969                          40.900          33.100

 108695734.794 8  84698000.391 8                  20684105.266
  20684111.844    20684112.133                          49.300          49.500

 129471739.980 6 100887100.847 6                  24637655.016
  24637664.406    24637663.992                          39.500          38.400

 109282090.811 7  84997244.511 6                  20457838.609    20457837.879
                  20457843.426                          44.600          40.800

 110930608.212 8  86439459.164 8                  21109379.680
  21109388.250    21109388.070                          49.600          48.300

 123099009.946 7  95743706.920 6                  23003989.945    23003990.859
                  23003995.816                          42.600          37.200

 110565296.613 8  85995293.984 7                  20705329.867    20705328.434
                  20705330.926                          50.200          45.600

 129541705.268 6 100941624.75843                  24650965.813
                  24650972.152                          38.600          18.300

 118383169.848 7  92246690.66044                  22527583.422
                  22527584.840                          47.300          28.100

 108391240.142 8  84460738.730 8                  20626160.984
  20626164.926    20626165.449                          49.700          48.000

 115297312.492 7  89842129.648 7                  21940346.883
  21940355.219    21940355.742                          45.900          46.500

 110615494.944 8  86034288.784 7                  20663911.031    20663909.715
                  20663914.906                          50.200          45.600

 120489838.960 7  93888212.53943                  22928448.172
                  22928453.574                          44.000          23.200

 120865843.501 6  94006827.002 6                  22594599.680    22594597.660
                  22594603.555                          40.100          37.000

 128762987.689 6 100149006.076 6                  24096250.602    24096249.520
                  24096257.293                          38.900          36.400

 19  3 26 19  8 30.0000000  0 20G16R06R18R08G27R10G09G05R16G08R17R09
                                G11G23G07G30R07G28R19R15
 129049448.705 6 100558005.55042                  24557284.352
                  24557288.582                          39.500          17.400

 114318551.469 7                                  21423255.773    21423254.926
                                                        43.300

 113722086.462 8  88450548.418 7                  21303978.703    21303976.918
                  21303981.406                          48.300          43.100

 124361212.838 7  96725433.304 6                  23223587.078    23223587.055
                  23223592.246                          42.900          39.800

 117017823.255 7  91182744.984 7                  22267741.320
  22267748.367    22267748.539                          47.500          45.800

 127993213.252 6  99550363.561 5                  24011210.406    24011210.145
                  24011220.969                          37.500          33.600

 108752284.527 8  84742065.104 8                  20694865.945
  20694873.344    20694873.516                          48.500          49.600

 129476620.107 7 100890903.472 6                  24638588.078
  24638591.375    24638591.898                          44.300          36.500

 109328622.509 7  85033435.829 6                  20466547.859    20466547.953
                  20466553.379                          44.300          41.200

 110922281.961 8  86432971.183 8                  21107796.297
  21107803.051    21107802.871                          49.300          48.400

 123164958.939 7  95795000.547 6                  23016317.063    23016316.449
                  23016321.879                          44.600          38.300

 110518307.427 8  85958746.827 7                  20696528.844    20696528.230
                  20696531.547                          49.500          45.900

 129447830.634 6 100868475.74043                  24633103.117
                  24633107.934                          39.200          18.600

 118482173.036 7  92323835.95444                  22546422.391
                  22546424.277                          47.000          28.000

 108365604.483 8  84440762.901 8                  20621282.883
  20621286.883    20621287.113                          50.300          48.200

 115229609.506 7  89789374.113 7                  21927462.367
  21927471.699    21927471.871                          45.700          46.800

 110618309.816 8  86036478.133 7                  20664435.992    20664435.613
                  20664441.043                          50.800          46.600

 120414271.954 7  93829329.18244                  22914068.203
                  22914072.492                          44.700          25.500

 120747405.538 6  93914708.633 5                  22572457.586    22572457.090
                  22572461.695                          39.600          35.900

 128848793.200 6 100215743.675 6                  24112307.211    24112307.422
                  24112314.020                          40.000          36.800

 19  3 26 19  9  0.0000000  0 20G16R06R18R08G27R10G09G05R16G08R17R09
                                G11G23G07G30R07G28R19R15
 129155027.215 6 100640274.48842                  24577375.398
                  24577379.805                          39.000          17.400

 114427485.313 7                                  21443668.594    21443668.098
                                                        42.900

 113687817.290 8  88423894.618 7                  21297557.883    21297556.449
                  21297561.523                          48.200          42.700

 124267805.759 7  96652783.393 6                  23206142.023    23206142.352
                  23206149.184                          42.700          41.000

 117074148.014 7  91226634.386 7                  22278459.156
  22278466.086    22278466.434                          47.000          45.500

 127910026.779 7  99485663.118 5                  23995608.211    23995607.715
                  23995615.488                          42.400          33.600

 108809341.357 8  84786524.962 8                  20705724.383
  20705730.844    20705731.016                          49.600          49.000

 129482012.402 6 100895105.261 5                  24639611.914
  24639616.793    24639618.195                          40.900          35.100

 109375340.951 7  85069772.384 6                  20475294.703    20475294.563
                  20475299.164                          44.600          41.000

 110914577.495 8  86426967.718 8                  21106329.617
  21106336.723    21106336.543                          49.400          48.100

 123231567.907 7  95846807.518 6                  23028764.844    23028762.824
                  23028767.898                          43.800          38.400

 110471527.880 8  85922362.761 7                  20687768.852    20687769.063
                  20687772.844                          48.600          46.200

 129353958.645 6 100795328.80043                  24615238.227
                  24615245.504                          38.100          20.100

 118581459.146 7  92401201.73344                  22565315.875
                  22565317.879                          46.700          27.900

 108340218.654 8  84420981.751 8                  20616453.039
  20616455.867    20616456.156                          51.900          48.300

 115162046.255 7  89736727.458 7                  21914606.547
  21914614.473    21914614.410                          47.300          46.400

 110621945.304 8  86039305.716 7                  20665115.391    20665114.660
                  20665120.086                          49.000          45.400

 120338966.889 7  93770649.93844                  22899738.523
                  22899742.637                          45.200          24.100

 120629197.667 6  93822769.228 5                  22550359.891    22550359.160
                  22550364.707                          38.600          35.800

 128934580.234 7 100282466.780 6                  24128362.539    24128361.105
                  24128368.410                          42.100          36.500

 19  3 26 19  9 30.0000000  0 20G16R06R18R08G27R10G09G05R16G08R17R09
                                G11G23G07G30R07G28R19R15
 129260586.953 6 100722528.76743                  24597461.773
                  24597467.410                          39.500          19.300

 114536817.907 7                                  21464159.086    21464157.652
                                                        43.200

 113654316.371 8  88397838.335 7                  21291283.211    21291281.426
                  21291285.914                          48.300          43.000

 124174912.462 7  96580533.091 6                  23188796.273    23188795.309
                  23188799.680                          43.400          38.600

 117131019.838 7  91270950.085 7                  22289281.180
  22289287.523    22289287.988                          45.400          45.300

 127826898.220 6  99421007.556 4                  23980011.750    23980011.371
                  23980018.910                          41.900          25.200

 108866903.768 7  84831378.778 8                  20716678.047
  20716684.098    20716684.328                          47.600          49.200

 129487916.005 7 100899705.411 5                  24640737.594
  24640741.184    24640741.707                          42.500          35.000

 109422245.392 7  85106253.624 6                  20484076.141    20484075.059
                  20484079.664                          45.100          40.900

 110907494.875 8  86421448.802 8                  21104981.195
  21104989.180    21104988.824                          48.300          48.000

 123298834.165 7  95899125.706 6                  23041333.203    23041332.355
                  23041338.020                          43.100          37.400

 110424957.946 8  85886141.723 7                  20679048.258    20679046.941
                  20679050.023                          48.900          46.000

 129260091.958 6 100722186.00843                  24597378.945
                  24597383.176                          39.300          19.000

 118681026.268 7  92478786.44944                  22584263.867
                  22584265.402                          47.100          28.000

 108315083.700 8  84401396.071 7                  20611668.625
  20611673.621    20611673.441                          50.700          47.800

 115094623.797 7  89684190.481 7                  21901777.367
  21901784.121    21901784.117                          47.000          45.800

 110626401.510 8  86042771.671 7                  20665947.984    20665946.785
                  20665951.625                          50.100          46.100

 120263924.548 7  93712175.44144                  22885459.156
                  22885463.680                          46.100          26.100

 120511224.400 6  93731012.296 5                  22528305.188    22528305.750
                  22528311.293                          38.100          35.600

 129020348.747 6 100349175.574 5                  24144412.906    24144412.766
                  24144417.840                          40.600          35.500

 19  3 26 19 10  0.0000000  0 20G16R06R18R08G27R10G09G05R16G08R17R09
                                G11G23G07G30R07G28R19R15
 129366125.543 6 100804766.60943                  24617546.750
                  24617551.273                          39.400          18.300

 114646545.104 7                                  21484721.109    21484719.441
                                                        42.700

 113621585.718 8  88372381.180 7                  21285150.000    21285149.152
                  21285154.695                          48.300          43.700

 124082536.034 7  96508684.728 6                  23171544.813    23171545.375
                  23171550.801                          42.600          38.300

 117188436.370 7  91315690.235 7                  22300208.102
  22300214.504    22300214.793                          45.500          45.000

 127743827.216 6  99356396.838 5                  23964427.422    23964425.754
                  23964436.227                          36.100          30.400

 108924969.876 7  84876625.089 8                  20727727.414
  20727733.875    20727734.105                          47.100          49.300

 129494329.808 7 100904703.188 6                  24641957.234
  24641961.820    24641962.227                          42.000          36.500

 109469335.363 7  85142879.149 6                  20492891.602    20492890.285
                  20492894.773                          44.800          40.200

 110901034.263 8  86416414.583 7                  21103752.188
  21103759.469    21103759.230                          48.900          47.600

 123366754.715 7  95951952.758 6                  23054026.133    23054025.637
                  23054031.066                          43.200          39.100

 110378597.425 8  85850083.571 7                  20670364.844    20670365.172
                  20670368.367                          48.200          45.000

 129166233.111 6 100649049.28943                  24579516.250
                  24579521.945                          38.400          20.400

 118780871.613 7  92556587.96044                  22603262.211
                  22603264.508                          45.200          28.200

 108290200.690 8  84382006.705 7                  20606934.727
  20606938.023    20606938.430                          51.000          47.900

 115027342.874 7  89631763.792 7                  21888974.492
  21888980.543    21888981.066                          46.600          45.800

 110631677.532 8  86046875.202 7                  20666933.648    20666933.035
                  20666937.992                          50.000          46.800

 120189144.763 7  93653905.54944                  22871228.695
                  22871233.102                          45.100          24.600

 120393490.233 6  93639441.308 6                  22506298.266    22506296.480
                  22506301.086                          39.200          36.000

 129106098.506 6 100415869.795 5                  24160460.938    24160459.152
                  24160465.398                          40.400          35.200

 19  3 26 19 10 30.0000000  0 20G16R06R18R08G27R10G09G05R16G08R17R09
                                G11G23G07G30R07G28R19R15
 129471642.013 6 100886987.16142                  24637623.461
                  24637630.680                          37.100          15.600

 114756662.441 7                                  21505357.539    21505356.340
                                                        42.300

 113589627.726 8  88347525.001 7                  21279163.695    21279162.730
                  21279168.273                          48.600          43.500

 123990680.672 6  96437241.709 6                  23154390.844    23154390.703
                  23154396.129                          41.300          39.300

 117246395.859 7  91360853.474 7                  22311236.586
  22311244.570    22311244.625                          45.600          45.900

 127660813.641 6  99291830.877 5                  23948856.547    23948854.527
                  23948863.355                          41.100          32.100

 108983538.436 8  84922262.903 8                  20738872.477
  20738879.699    20738879.871                          48.400          49.500

 129501253.354 7 100910098.150 6                  24643275.828
  24643278.598    24643279.297                          42.900          36.200

 109516610.369 7  85179648.590 6                  20501740.289    20501740.734
                  20501745.691                          44.600          40.200

 110895196.011 8  86411865.298 8                  21102641.016
  21102648.648    21102647.941                          48.000          48.200

 123435326.804 7  96005286.527 6                  23066841.953    23066841.105
                  23066846.770                          44.500          39.300

 110332446.238 8  85814188.231 7                  20661723.516    20661723.254
                  20661725.164                          50.300          45.600

 129072385.493 6 100575921.36243                  24561656.578
                  24561664.090                          36.800          19.300

 118880992.695 7  92634604.34344                  22622312.977
                  22622317.852                          44.900          26.900

 108265570.939 8  84362814.685 7                  20602247.820
  20602250.766    20602251.055                          51.400          47.900

 114960204.789 7  89579448.432 7                  21876196.750
  21876204.500    21876204.672                          45.800          45.800

 110637773.152 8  86051616.234 7                  20668072.789    20668071.473
                  20668076.664                          50.100          46.800

 120114628.716 7  93595841.13844                  22857048.883
                  22857053.641                          44.900          24.700

 120276000.288 6  93548060.309 6                  22484333.039    22484332.426
                  22484338.207                          39.200          37.300

 129191829.830 6 100482549.582 6                  24176503.844    24176502.996
                  24176509.480                          40.600          37.900

 19  3 26 19 11  0.0000000  0 20G16R06R18R08G27R10G09G05R16G08R17R09
                                G11G23G07G30R07G28R19R15
 129577134.327 6 100969188.93143                  24657700.469
                  24657704.758                          39.900          18.300

 114867165.248 7                                  21526065.813    21526063.793
                                                        42.400

 113558444.552 7  88323271.409 7                  21273321.859    21273320.895
                  21273326.438                          47.900          43.700

 123899349.992 7  96366206.782 6                  23137338.094    23137336.543
                  23137342.203                          43.000          39.800

 117304896.009 7  91406437.975 7                  22322370.516
  22322375.629    22322376.152                          47.800          43.900

 127577857.988 7  99227309.887 5                  23933294.094    23933293.012
                  23933301.605                          44.800          30.300

 109042607.743 8  84968290.926 8                  20750113.016
  20750119.066    20750119.414                          49.100          48.800

 129508685.536 7 100915889.482 5                  24644689.813
  24644692.992    24644693.867                          42.500          35.000

 109564069.846 7  85216561.519 6                  20510626.000    20510625.270
                  20510629.758                          44.900          40.800

 110889980.309 7  86407801.127 7                  21101648.664
  21101656.238    21101655.883                          46.700          47.900

 123504547.726 7  96059124.991 6                  23079778.211    23079776.660
                  23079781.617                          45.400          38.600

 110286504.482 8  85778455.753 7                  20653120.141    20653119.293
                  20653121.906                          49.100          45.700

 128978551.975 6 100502804.38243                  24543801.648
                  24543807.754                          37.800          20.400

 118981387.046 7  92712833.64644                  22641419.859
                  22641421.453                          46.300          27.700

 108241195.523 8  84343820.868 8                  20597610.188
  20597612.723    20597613.070                          51.500          48.100

 114893210.527 7  89527245.124 7                  21863449.688
  21863456.969    21863456.730                          46.200          46.700

 110644687.742 8  86056994.220 7                  20669365.070    20669363.637
                  20669368.125                          50.900          46.000

 120040376.739 7  93537982.50944                  22842918.234
                  22842923.637                          44.600          25.200

 120158759.061 6  93456872.734 6                  22462417.281    22462415.965
                  22462421.273                          38.500          38.200

 129277542.689 6 100549215.134 5                  24192543.227    24192542.145
                  24192548.395                          39.400          34.900

 19  3 26 19 11 30.0000000  0 20G16R06R18R08G27R10G09G05R16G08R17R09
                                G11G23G07G30R07G28R19R15
 129682601.703 6 101051371.25743                  24677770.797
                  24677775.086                          39.900          19.000

 114978048.982 7                                  21546844.164    21546844.141
                                                        43.400

 113528038.239 8  88299622.114 7                  21267626.688    21267625.254
                  21267630.797                          48.200          43.600

 123808547.572 7  96295582.717 6                  23120380.711    23120379.746
                  23120386.348                          43.100          41.300

 117363934.723 8  91452442.190 7                  22333604.430
  22333609.309    22333609.363                          48.000          43.900

 127494959.720 6  99162833.360 4                  23917739.836    23917739.105
                  23917749.813                          36.200          25.100

 109102176.225 8  85014707.904 8                  20761448.883
  20761455.051    20761455.574                          49.400          49.300

 129516625.693 6 100922076.532 6                  24646198.031
  24646206.660    24646205.895                          40.200          37.900

 109611713.455 7  85253617.657 6                  20519545.398    20519545.020
                  20519549.508                          45.100          40.600

 110885387.060 7  86404221.980 8                  21100774.094
  21100781.492    21100781.488                          46.900          48.600

 123574414.364 7  96113465.678 6                  23092834.383    23092832.949
                  23092838.258                          43.800          39.100

 110240771.888 8  85742885.990 7                  20644555.430    20644554.582
                  20644557.547                          48.900          45.300

 128884735.181 6 100429700.51943                  24525949.336
                  24525954.387                          40.100          21.100

 119082052.272 7  92791274.01944                  22660574.758
                  22660578.168                          46.500          29.300

 108217075.695 8  84325026.195 8                  20593019.133
  20593022.664    20593023.070                          51.600          48.400

 114826361.204 7  89475154.758 7                  21850729.648
  21850735.406    21850735.578                          47.900          46.700

 110652420.849 8  86063008.855 7                  20670809.430    20670807.762
                  20670812.602                          50.200          46.000

 119966389.323 7  93480330.05144                  22828839.383
                  22828844.141                          45.400          26.700

 120041771.392 6  93365882.354 6                  22440546.750    22440545.082
                  22440551.566                          38.700          37.900

 129363237.258 6 100615866.398 5                  24208580.797    24208579.715
                  24208586.199                          40.400          35.800

 19  3 26 19 12  0.0000000  0 20G16R06R18R08G27R10G09G05R16G08R17R09
                                G11G23G07G30R07G28R19R15
 129788042.369 6 101133532.74243                  24697834.742
                  24697839.793                          39.300          19.300

 115089309.669 7                                  21567696.852    21567694.715
                                                        43.600

 113498411.017 8  88276578.741 7                  21262075.734    21262073.949
                  21262079.844                          48.200          43.600

 123718277.165 7  96225372.456 6                  23103523.063    23103521.629
                  23103527.641                          42.300          39.100

 117423509.962 7  91498864.434 7                  22344941.492
  22344946.430    22344946.602                          47.900          43.900

 127412117.909 6  99098401.024 5                  23902200.477    23902199.863
                  23902208.461                          41.700          34.900

 109162242.377 8  85061512.670 8                  20772878.828
  20772885.582    20772886.340                          49.100          49.700

 129525072.372 6 100928658.402 6                  24647804.508
  24647812.023    24647812.371                          38.700          36.800

 109659540.611 7  85290816.544 6                  20528497.289    20528497.734
                  20528502.809                          44.300          40.900

 110881417.114 7  86401128.530 8                  21100018.430
  21100026.648    21100026.703                          47.100          48.800

 123644924.090 7  96168306.560 6                  23106009.242    23106008.160
                  23106014.645                          43.400          39.800

 110195248.752 8  85707479.099 7                  20636030.852    20636030.945
                  20636033.438                          49.600          45.500

 128790938.003 6 100356611.85542                  24508097.516
                  24508105.438                          37.300          17.800

 119182986.149 7  92869923.74044                  22679781.367
                  22679785.129                          46.100          28.100

 108193212.622 8  84306431.616 8                  20588478.195
  20588481.551    20588481.898                          51.900          48.100

 114759657.986 7  89423178.249 7                  21838035.453
  21838042.090    21838042.672                          47.800          46.300

 110660971.801 8  86069659.586 7                  20672407.531    20672406.332
                  20672410.586                          49.800          45.700

 119892667.328 7  93422884.36944                  22814811.266
                  22814814.676                          45.900          26.400

 119925042.061 6  93275092.923 6                  22418724.117    22418724.328
                  22418731.043                          39.100          38.600

 129448913.654 6 100682503.506 6                  24224611.484    24224611.105
                  24224618.527                          37.600          38.000

 19  3 26 19 12 30.0000000  0 20G16R06R18R08G27R10G09G05R16G08R17R09
                                G11G23G07G30R07G28R19R15
 129893454.605 6 101215672.10242                  24717894.383
                  24717898.555                          39.100          17.400

 115200942.252 7                                  21588615.914    21588615.301
                                                        43.800

 113469564.637 8  88254142.676 7                  21256671.242    21256671.102
                  21256676.645                          48.100          43.100

 123628542.135 7  96155578.531 6                  23086764.172    23086763.559
                  23086769.223                          42.300          39.200

 117483619.262 7  91545702.818 7                  22356379.672
  22356386.191    22356386.188                          47.500          45.400

 127329333.576 7  99034013.308 5                  23886670.531    23886670.035
                  23886679.805                          42.200          34.500

 109222804.263 8  85108703.738 8                  20784404.195
  20784410.188    20784410.301                          49.600          48.900

 129534024.870 6 100935634.322 5                  24649511.063
  24649515.531    24649515.820                          40.500          35.400

 109707550.561 7  85328157.618 6                  20537486.234    20537485.738
                  20537489.992                          45.000          40.500

 110878070.069 8  86398520.452 7                  21099382.055
  21099389.512    21099389.508                          48.300          47.900

 123716073.691 7  96223645.121 6                  23119305.125    23119304.512
                  23119311.113                          43.800          40.600

 110149934.534 8  85672234.730 7                  20627545.945    20627544.863
                  20627548.063                          49.200          46.300

 128697163.095 6 100283540.53743                  24490255.039
                  24490260.852                          39.200          21.100

 119284185.957 7  92948780.67144                  22699041.328
                  22699043.566                          46.500          29.000

 108169607.216 8  84288037.790 8                  20583986.438
  20583989.793    20583990.316                          51.700          48.300

 114693101.668 7  89371316.198 7                  21825369.406
  21825376.746    21825376.508                          47.300          46.800

 110670340.088 8  86076946.020 7                  20674157.766    20674156.098
                  20674160.703                          50.800          46.900

 119819210.708 7  93365645.47544                  22800831.016
                  22800836.887                          44.700          25.900

 119808575.551 6  93184507.961 6                  22396954.930    22396952.207
                  22396958.219                          39.200          36.700

 129534571.547 6 100749126.327 6                  24240643.922    24240643.426
                  24240648.031                          41.900          36.400

 19  3 26 19 13  0.0000000  0 20G16R06R18R08G27R10G09G05R16G08R17R09
                                G11G23G07G30R07G28R19R15
 129998837.352 6 101297788.47442                  24737950.023
                  24737952.438                          39.500          16.300

 115312942.653 7                                  21609605.125    21609602.988
                                                        42.400

 113441501.044 8  88232315.435 7                  21251415.188    21251414.105
                  21251419.063                          49.000          43.500

 123539346.005 6  96086203.764 6                  23070106.430    23070106.289
                  23070112.301                          41.700          38.400

 117544260.499 7  91592955.735 7                  22367918.570
  22367925.383    22367925.789                          45.700          44.200

 127246605.548 6  98969669.352 4                  23871148.727    23871148.230
                  23871157.180                          40.200          26.500

 109283860.323 8  85156279.886 8                  20796022.594
  20796028.059    20796028.699                          49.800          49.000

 129543482.215 6 100943003.640 6                  24651309.391
  24651316.203    24651315.496                          39.800          36.600

 109755743.014 7  85365640.627 6                  20546507.047    20546506.668
                  20546510.922                          45.000          40.500

 110875346.027 8  86396397.830 7                  21098864.461
  21098871.977    21098871.680                          49.000          47.800

 123787860.359 7  96279479.196 6                  23132718.406    23132718.734
                  23132727.445                          42.300          40.900

 110104829.484 8  85637153.083 7                  20619096.203    20619095.473
                  20619100.195                          48.700          47.300

 128603413.305 6 100210488.82243                  24472414.742
                  24472420.145                          38.800          18.600

 119385649.243 7  93027842.94444                  22718347.656
                  22718350.012                          45.800          27.000

 108146260.651 8  84269845.657 8                  20579543.594
  20579547.242    20579547.473                          51.300          48.800

 114626693.429 7  89319569.551 7                  21812732.633
  21812739.328    21812739.441                          46.700          46.300

 110680524.483 8  86084867.209 7                  20676058.313    20676057.699
                  20676063.129                          50.600          46.100

 119746020.122 7  93308613.90044                  22786905.086
                  22786909.668                          45.500          26.100

 119692376.947 6  93094131.318 6                  22375231.695    22375230.379
                  22375236.391                          38.800          38.300

 129620211.481 6 100815735.078 5                  24256668.078    24256667.816
                  24256674.652                          38.800          35.600

 19  3 26 19 13 30.0000000  0 20G16R06R18R08G27R10G09G05R16G08R17R09
                                G11G23G07G30R07G28R19R15
 130104189.197 6 101379880.81642                  24757995.961
                  24757999.547                          40.200          17.800

 115425306.664 7                                  21630660.703    21630659.621
                                                        42.000

 113414222.483 8  88211098.796 7                  21246305.125    21246303.809
                  21246309.117                          49.300          44.100

 123450693.068 7  96017251.495 6                  23053555.086    23053553.770
                  23053558.492                          44.100          40.100

 117605431.760 7  91640621.654 7                  22379559.766
  22379565.582    22379565.754                          45.800          43.700

 127163934.772 7  98905369.897 5                  23855643.508    23855642.426
                  23855650.551                          44.100          35.000

 109345409.132 8  85204239.977 8                  20807734.664
  20807741.066    20807741.180                          48.600          49.800

 129553443.675 6 100950765.773 6                  24653205.172
  24653211.574    24653211.219                          40.700          37.900

 109804117.706 7  85403265.379 6                  20555562.086    20555562.414
                  20555567.137                          44.300          40.800

 110873245.031 7  86394760.716 8                  21098463.805
  21098471.438    21098471.023                          46.900          48.000

 123860281.346 7  96335806.590 6                  23146252.945    23146251.863
                  23146260.340                          42.600          40.200

 110059933.684 8  85602234.146 7                  20610689.078    20610688.816
                  20610693.422                          48.800          46.800

 128509692.307 6 100137459.53943                  24454578.531
                  24454586.043                          38.500          19.300

 119487374.016 7  93107108.93244                  22737706.063
                  22737707.598                          45.700          26.000

 108123174.348 8  84251856.335 7                  20575151.188
  20575153.547    20575154.129                          52.100          47.500

 114560434.637 7  89267939.330 7                  21800124.703
  21800130.754    21800130.750                          47.200          45.700

 110691524.986 8  86093423.121 7                  20678114.047    20678113.316
                  20678118.508                          50.200          45.900

 119673096.542 7  93251790.36744                  22773026.695
                  22773032.508                          44.500          25.800

 119576451.134 6  93003966.829 6                  22353559.109    22353558.496
                  22353563.688                          39.200          37.100

 129705833.546 6 100882330.004 5                  24272691.031    24272691.125
                  24272697.137                          39.800          33.800

 19  3 26 19 14  0.0000000  0 20G16R06R18R08G27R10G09G05R16G08R17R09
                                G11G23G07G30R07G28R19R15
 130209507.730 6 101461947.19542                  24778036.070
                  24778041.648                          38.100          16.900

 115538028.839 6                                  21651784.289    21651783.676
                                                        41.700

 113387729.940 8  88190493.498 7                  21241343.258    21241341.824
                  21241346.430                          48.900          43.900

 123362585.719 7  95948723.613 6                  23037098.586    23037098.445
                  23037103.281                          42.100          39.400

 117667129.897 7  91688698.112 7                  22391299.938
  22391306.281    22391306.746                          46.600          44.400

 127081320.400 6  98841114.467 5                  23840143.781    23840142.348
                  23840151.293                          40.500          33.300

 109407448.173 8  85252582.062 8                  20819540.664
  20819546.949    20819547.063                          48.000          49.000

 129563907.743 7 100958919.572 6                  24655198.094
  24655202.328    24655203.320                          42.600          36.900

 109852673.278 7  85441030.824 6                  20564650.422    20564651.805
                  20564657.230                          43.200          40.900

 110871766.641 7  86393608.737 7                  21098182.664
  21098189.652    21098189.766                          47.800          47.700

 123933332.674 7  96392624.297 6                  23159906.195    23159904.762
                  23159911.246                          44.300          40.400

 110015246.122 8  85567477.167 7                  20602322.305    20602321.457
                  20602324.070                          49.500          46.300

 128416001.946 6 100064454.10343                  24436750.688
                  24436757.613                          37.900          19.000

 119589356.958 7  93186576.08644                  22757113.391
                  22757114.691                          44.700          25.300

 108100348.954 8  84234070.328 8                  20570807.289
  20570810.703    20570810.934                          51.600          48.100

 114494325.566 8  89216425.792 7                  21787545.289
  21787551.105    21787550.984                          48.000          46.400

 110703339.869 8  86102612.491 7                  20680320.492    20680319.762
                  20680324.953                          49.900          45.600

 119600439.568 7  93195174.60344                  22759200.938
                  22759206.398                          45.700          26.900

 119460802.027 6  92914017.573 6                  22331937.672    22331938.703
                  22331944.715                          38.700          37.300

 129791437.025 6 100948910.458 5                  24288710.445    24288711.828
                  24288717.254                          40.500          33.300

 19  3 26 19 14 30.0000000  0 20G16R06R18R08G27R10G09G05R16G08R17R09
                                G11G23G07G30R07G28R19R15
 130314792.748 6 101543987.41443                  24798072.813
                  24798077.922                          37.600          18.300

 115651105.146 6                                  21672975.336    21672975.547
                                                        41.900

 113362026.403 7  88170501.893 7                  21236525.898    21236524.348
                  21236530.715                          47.800          43.100

 123275028.797 6  95880623.848 6                  23020744.305    23020744.984
                  23020752.641                          40.000          39.400

 117729353.680 7  91737184.172 7                  22403141.336
  22403147.680    22403147.617                          45.200          45.500

 126998762.766 7  98776903.079 3                  23824654.773    23824654.984
                  23824662.758                          43.100          22.500

 109469976.634 8  85301305.523 8                  20831438.594
  20831445.465    20831445.871                          48.900          49.200

 129574873.585 7 100967464.381 6                  24657283.922
  24657290.090    24657289.852                          42.800          37.300

 109901410.150 7  85478937.281 6                  20573775.789    20573775.883
                  20573781.426                          44.100          41.400

 110870911.544 8  86392942.434 7                  21098020.023
  21098027.129    21098027.418                          48.400          47.900

 124007012.240 7  96449930.582 6                  23173675.516    23173672.324
                  23173678.453                          43.000          38.900

 109970767.887 8  85532882.989 7                  20593992.750    20593991.551
                  20593994.398                          49.800          45.600

 128322346.044 6  99991475.55643                  24418928.867
                  24418934.504                          38.100          20.100

 119691596.366 7  93266243.11744                  22776570.344
                  22776570.527                          45.700          26.100

 108077786.344 8  84216489.075 8                  20566513.711
  20566517.242    20566517.297                          52.100          48.500

 114428368.214 8  89165030.458 7                  21774993.508
  21774999.617    21774999.730                          48.200          46.200

 110715969.144 8  86112435.257 7                  20682679.734    20682678.535
                  20682684.195                          49.300          45.800

 119528050.541 7  93138767.62944                  22745426.445
                  22745430.910                          46.400          28.600

 119345435.170 6  92824287.882 6                  22310374.273    22310372.254
                  22310378.031                          39.400          36.000

 129877022.954 6 101015477.310 5                  24304727.258    24304727.117
                  24304733.363                          38.100          34.100

 19  3 26 19 15  0.0000000  0 20G16R06R18R08G27R10G09G05R16G08R17R09
                                G11G23G07G30R07G28R19R15
 130420042.058 6 101625999.79143                  24818100.180
                  24818106.520                          38.500          18.600

 115764530.640 7                                  21694232.891    21694231.105
                                                        42.600

 113337113.047 8  88151124.839 7                  21231858.711    21231857.863
                  21231862.938                          48.200          42.800

 123188025.180 6  95812954.435 6                  23004500.320    23004499.121
                  23004505.137                          40.800          37.100

 117792100.327 7  91786077.636 7                  22415082.367
  22415088.477    22415088.473                          46.300          44.900

 126916260.731 6  98712734.782 4                  23809178.164    23809177.199
                  23809185.090                          41.800          28.800

 109532992.329 8  85350408.647 8                  20843429.844
  20843437.242    20843437.414                          48.100          49.900

 129586339.885 7 100976399.079 6                  24659467.266
  24659472.379    24659472.258                          43.900          38.000

 109950327.516 7  85516984.076 6                  20582934.016    20582933.992
                  20582939.184                          44.700          40.900

 110870679.461 8  86392761.585 7                  21097976.242
  21097982.938    21097983.051                          48.000          47.800

 124081316.655 7  96507722.848 6                  23187561.398    23187559.496
                  23187564.219                          44.500          38.100

 109926498.189 8  85498451.054 7                  20585700.078    20585699.465
                  20585704.305                          48.900          45.900

 128228726.720 6  99918525.51343                  24401113.297
                  24401118.699                          40.700          18.300

 119794089.596 7  93346107.92943                  22796069.977
                  22796074.383                          44.800          23.900

 108055487.035 8  84199112.985 7                  20562269.695
  20562273.051    20562273.574                          51.200          47.500

 114362563.206 7  89113753.828 7                  21762470.656
  21762477.176    21762477.230                          47.300          46.000

 110729411.372 8  86122890.262 7                  20685190.633    20685190.137
                  20685196.270                          49.600          46.400

 119455929.348 7  93082569.33544                  22731700.430
                  22731706.945                          45.800          27.100

 119230355.071 6  92734781.172 5                  22288860.406    22288860.500
                  22288864.398                          40.100          35.400

 129962591.017 6 101082030.120 5                  24320741.781    24320740.582
                  24320745.422                          39.900          31.100

 19  3 26 19 15 30.0000000  0 20G16R06R18R08G27R10G09G05R16G08R17R09
                                G11G23G07G30R07G28R19R15
 130525254.397 6 101707983.36242                  24838121.477
                  24838127.934                          38.100          17.800

 115878301.406 7                                  21715554.133    21715551.996
                                                        42.700

 113312991.671 8  88132363.759 7                  21227341.313    21227339.176
                  21227344.367                          48.100          42.700

 123101578.544 7  95745718.140 6                  22988360.094    22988358.309
                  22988360.566                          43.600          36.800

 117855367.584 7  91835376.813 7                  22427122.313
  22427127.426    22427127.598                          46.500          45.100

 126833815.258 6  98648610.589 5                  23793710.297    23793710.156
                  23793719.453                          40.800          31.900

 109596493.560 8  85399890.102 8                  20855514.406
  20855520.809    20855521.215                          48.100          48.600

 129598305.601 7 100985722.975 6                  24661744.563
  24661749.734    24661749.965                          44.700          38.100

 109999424.977 7  85555170.992 6                  20592124.766    20592124.625
                  20592128.992                          45.000          40.700

 110871070.378 7  86393066.214 8                  21098050.164
  21098058.617    21098058.203                          46.900          48.600

 124156242.760 7  96565998.701 6                  23201562.992    23201561.324
                  23201565.930                          44.400          38.200

 109882437.404 8  85464181.525 7                  20577453.867    20577452.199
                  20577453.285                          50.100          45.800

 128135147.314 6  99845606.56643                  24383306.492
                  24383310.957                          39.800          19.600

 119896833.834 7  93426168.31144                  22815622.703
                  22815625.527                          45.700          25.100

 108033452.351 8  84181943.110 8                  20558076.227
  20558080.285    20558080.633                          51.100          48.100

 114296911.698 7  89062596.844 7                  21749976.766
  21749984.926    21749984.746                          46.600          47.300

 110743665.899 8  86133977.112 7                  20687854.555    20687853.473
                  20687859.133                          50.100          46.400

 119384076.608 7  93026580.21644                  22718027.266
                  22718033.313                          45.300          25.800

 119115566.502 6  92645501.203 6                  22267403.680    22267401.426
                  22267405.680                          40.900          36.200

 130048141.268 6 101148569.247 5                  24336748.492    24336748.469
                  24336754.949                          38.200          33.400

 19  3 26 19 16  0.0000000  0 20G16R06R18R08G27R10G09G05R16G08R17R09
                                G11G23G07G30R07G28R19R15
 130630428.648 6 101789937.28142                  24858135.438
                  24858141.543                          37.100          17.800

 115992412.716 7                                  21736936.594    21736935.160
                                                        42.200

 113289663.753 8  88114219.832 7                  21222971.539    21222970.574
                  21222975.180                          48.200          43.400

 123015692.242 7  95678917.652 6                  22972320.086    22972319.473
                  22972323.375                          43.800          40.100

 117919153.076 7  91885079.757 7                  22439259.430
  22439265.012    22439265.418                          46.900          44.900

 126751425.312 6  98584529.724 5                  23778254.133    23778254.695
                  23778263.992                          40.800          33.400

 109660478.343 8  85449748.349 8                  20867691.000
  20867696.172    20867696.754                          48.600          48.900

 129610769.530 7 100995435.082 6                  24664115.875
  24664120.109    24664120.105                          44.600          36.100

 110048701.976 7  85593497.569 6                  20601348.422    20601348.750
                  20601353.000                          45.200          40.300

 110872084.030 8  86393856.095 8                  21098243.469
  21098250.516    21098250.336                          48.900          48.300

 124231787.386 7  96624755.549 6                  23215677.664    23215676.465
                  23215682.480                          42.900          37.200

 109838585.073 8  85430074.231 7                  20569238.172    20569237.676
                  20569241.227                          49.300          46.400

 128041610.427 6  99772720.68843                  24365507.805
                  24365511.742                          38.800          19.600

 119999826.730 7  93506422.49244                  22835223.813
                  22835224.820                          47.200          26.400

 108011683.408 8  84164980.291 8                  20553933.391
  20553937.977    20553938.266                          50.300          48.300

 114231414.677 7  89011560.223 7                  21737514.320
  21737521.133    21737520.953                          47.500          46.700

 110758731.655 8  86145694.893 7                  20690668.461    20690667.262
                  20690672.805                          49.900          46.300

 119312492.513 7  92970800.45144                  22704406.086
                  22704411.195                          44.500          27.300

 119001073.938 6  92556451.462 6                  22245999.133    22245998.871
                  22246004.301                          40.900          37.000

 130133673.732 6 101215094.412 6                  24352756.133    24352756.344
                  24352761.887                          41.300          36.600

 19  3 26 19 16 30.0000000  0 20G16R06R18R08G27R10G09G05R16G08R17R09
                                G11G23G07G30R07G28R19R15
 130735562.963 6 101871860.07142                  24878142.328
                  24878147.320                          38.800          16.900

 116106859.771 7                                  21758384.969    21758382.949
                                                        42.400

 113267131.111 7  88096694.474 7                  21218749.242    21218747.809
                  21218753.938                          47.600          44.000

 122930369.604 6  95612555.637 6                  22956385.305    22956383.285
                  22956389.531                          40.600          39.300

 117983454.366 7  91935184.636 7                  22451495.133
  22451500.656    22451501.414                          45.700          44.400

 126669090.791 7  98520491.866 5                  23762811.398    23762809.965
                  23762818.207                          42.800          33.100

 109724944.921 8  85499982.044 8                  20879958.117
  20879963.934    20879964.105                          48.300          48.300

 129623730.630 7 101005534.692 6                  24666580.281
  24666585.922    24666586.387                          43.800          37.100

 110098157.974 7  85631963.341 6                  20610609.164    20610608.902
                  20610612.570                          44.700          39.700

 110873719.865 7  86395130.789 8                  21098554.430
  21098561.125    21098561.297                          46.900          48.100

 124307947.426 7  96683991.113 6                  23229911.023    23229910.645
                  23229915.840                          43.600          37.100

 109794941.224 8  85396128.999 7                  20561065.953    20561064.871
                  20561067.953                          49.600          46.600

 127948119.230 6  99699870.46643                  24347717.875
                  24347721.402                          41.400          19.600

 120103065.620 7  93586868.35144                  22854867.414
                  22854871.117                          46.700          27.600

 107990181.062 8  84148225.235 8                  20549842.438
  20549845.617    20549846.316                          50.700          48.200

 114166073.220 7  88960644.811 7                  21725079.273
  21725086.379    21725086.316                          47.600          47.000

 110774607.528 8  86158042.782 7                  20693633.234    20693632.738
                  20693638.988                          49.800          46.600

 119241177.582 7  92915230.40044                  22690835.109
                  22690840.102                          44.600          25.800

 118886882.136 6  92467635.661 6                  22224650.969    22224650.828
                  22224656.605                          40.200          36.200

 130219188.293 6 101281605.729 6                  24368758.969    24368757.887
                  24368765.426                          39.100          36.500

 19  3 26 19 17  0.0000000  0 20G16R06R18R08G27R10G09G05R16G08R17R09
                                G11G23G07G30R07G28R19R15
 130840656.337 6 101953750.94142                  24898140.734
                  24898146.195                          37.500          15.600

 116221638.372 6                                  21779895.023    21779892.652
                                                        41.800

 113245395.713 8  88079789.190 7                  21214678.422    21214676.285
                  21214681.242                          48.200          43.500

 122845614.529 7  95546635.088 6                  22940559.477    22940558.277
                  22940562.766                          42.900          40.500

 118048269.566 7  91985689.984 7                  22463829.734
  22463834.672    22463834.844                          46.400          43.500

 126586812.442 7  98456497.661 4                  23747375.164    23747373.613
                  23747381.387                          43.000          29.300

 109789891.919 8  85550590.074 8                  20892316.656
  20892323.762    20892323.816                          48.100          48.100

 129637187.916 7 101016020.820 6                  24669142.961
  24669147.898    24669147.426                          44.300          37.400

 110147792.776 7  85670568.174 6                  20619897.531    20619897.977
                  20619903.754                          44.600          40.500

 110875978.685 8  86396890.910 8                  21098984.352
  21098990.813    21098990.867                          48.600          48.800

 124384719.955 7  96743703.050 6                  23244259.094    23244257.895
                  23244262.500                          43.400          37.300

 109751506.181 8  85362346.208 7                  20552930.930    20552930.906
                  20552934.336                          49.500          46.200

 127854676.618 6  99627058.10143                  24329934.680
                  24329939.672                          40.300          20.400

 120206548.533 7  93667504.34344                  22874560.633
                  22874563.281                          47.200          28.000

 107968947.091 8  84131679.277 8                  20545800.445
  20545805.559    20545805.730                          50.500          48.200

 114100888.887 7  88909851.854 7                  21712675.555
  21712682.191    21712682.129                          47.900          46.000

 110791292.691 8  86171020.115 7                  20696751.000    20696750.270
                  20696756.051                          49.800          46.100

 119170132.640 7  92859870.73744                  22677316.828
                  22677321.059                          45.100          25.400

 118772996.464 6  92379057.982 6                  22203363.008    22203361.457
                  22203366.180                          39.600          36.500

 130304685.786 6 101348103.735 6                  24384758.828    24384757.160
                  24384764.699                          37.200          36.000

 19  3 26 19 17 30.0000000  0 20G16R06R18R08G27R10G09G05R16G08R17R09
                                G11G23G07G30R07G28R19R15
 130945707.297 6 102035608.80342                  24918132.234
                  24918136.934                          37.000          17.400

 116336744.056 6                                  21801463.539    21801462.809
                                                        41.700

 113224458.923 7  88063505.028 7                  21210755.398    21210754.199
                  21210760.215                          47.600          44.000

 122761430.017 7  95481158.280 6                  22924840.008    22924838.340
                  22924842.477                          43.400          38.900

 118113596.126 7  92036593.793 7                  22476260.102
  22476264.277    22476264.801                          46.200          42.600

 126504590.165 6  98392546.957 5                  23731950.219    23731947.613
                  23731956.793                          38.400          30.400

 109855317.204 8  85601570.809 7                  20904767.695
  20904772.926    20904773.215                          48.800          47.800

 129651140.327 6 101026892.851 6                  24671795.398
  24671801.449    24671802.266                          41.400          36.400

 110197606.014 7  85709311.792 6                  20629224.977    20629225.305
                  20629230.613                          44.600          40.900

 110878859.858 8  86399135.978 8                  21099532.258
  21099540.066    21099539.945                          48.200          48.300

 124462101.627 7  96803888.794 6                  23258718.492    23258717.176
                  23258722.602                          42.900          38.100

 109708279.705 8  85328725.634 7                  20544837.867    20544836.785
                  20544839.867                          50.300          47.000

 127761285.663 6  99554285.98843                  24312162.875
                  24312167.633                          40.900          18.600

 120310272.399 7  93748328.09744                  22894295.484
                  22894301.004                          44.200          26.500

 107947982.681 8  84115343.371 8                  20541812.156
  20541815.570    20541815.801                          50.300          48.200

 114035862.578 8  88859182.008 7                  21700302.633
  21700308.098    21700307.742                          48.600          46.400

 110808785.850 8  86184625.880 7                  20700019.313    20700018.816
                  20700024.246                          50.200          46.600

 119099357.723 7  92804721.49044                  22663847.461
                  22663853.273                          45.600          26.300

 118659421.125 6  92290721.635 6                  22182130.789    22182129.238
                  22182135.250                          38.200          38.100

 130390165.804 6 101414588.155 6                  24400756.055    24400754.621
                  24400761.809                          38.400          36.000

 19  3 26 19 18  0.0000000  0 20G16R06R18R08G27R10G09G05R16G08R17R09
                                G11G23G07G30R07G28R19R15
 131050714.400 6 102117432.51242                  24938113.414
                  24938118.758                          39.000          16.900

 116452171.791 6                                  21823096.500    21823095.066
                                                        41.800

 113204322.042 8  88047843.016 7                  21206982.883    21206981.801
                  21206987.461                          48.100          44.300

 122677819.768 7  95416128.069 6                  22909224.141    22909223.293
                  22909227.781                          43.000          38.300

 118179431.438 7  92087894.069 6                  22488786.977
  22488792.559    22488792.848                          44.900          41.800

 126422423.051 7  98328639.390 5                  23716536.906    23716535.473
                  23716543.246                          42.600          30.800

 109921218.819 8  85652922.699 8                  20917307.758
  20917313.809    20917314.332                          48.100          48.300

 129665586.367 7 101038149.424 6                  24674544.594
  24674551.582    24674552.047                          42.100          37.500

 110247597.012 7  85748193.649 6                  20638581.250    20638582.047
                  20638588.645                          43.800          40.900

 110882363.236 8  86401865.896 8                  21100199.203
  21100206.191    21100206.598                          48.200          48.000

 124540089.056 7  96864545.626 6                  23273293.203    23273291.418
                  23273297.430                          43.500          39.400

 109665261.528 8  85295267.101 7                  20536780.414    20536780.508
                  20536784.172                          50.000          46.500

 127667948.864 6  99481556.00843                  24294401.914
                  24294405.500                          40.700          20.400

 120414234.954 7  93829337.79044                  22914083.023
                  22914085.027                          46.000          28.200

 107927288.481 8  84099218.024 7                  20537873.383
  20537878.027    20537878.375                          50.000          47.900

 113970995.237 8  88808636.020 7                  21687958.508
  21687963.738    21687963.969                          49.300          47.200

 110827085.899 8  86198859.250 7                  20703437.781    20703436.934
                  20703443.418                          49.600          46.800

 119028853.208 7  92749782.94244                  22650431.352
                  22650436.695                          46.200          27.800

 118546160.867 6  92202630.399 6                  22160959.461    22160956.270
                  22160961.578                          38.600          38.600

 130475628.506 6 101481059.098 5                  24416748.797    24416746.895
                  24416754.199                          36.900          34.900

 19  3 26 19 18 30.0000000  0 21G16R06R18R08G27R10G09G05R16G08R17R09
                                G11G23G07G30R07G18G28R19R15
 131155676.158 6 102199220.84842                  24958088.516
                  24958092.453                          39.900          16.900

 116567917.166 7                                  21844788.328    21844785.371
                                                        42.200

 113184986.618 7  88032804.359 7                  21203360.367    21203359.402
                  21203365.535                          47.500          44.000

 122594787.291 7  95351547.260 6                  22893719.414    22893718.332
                  22893722.938                          43.400          39.100

 118245773.192 7  92139588.924 7                  22501411.938
  22501417.754    22501417.750                          46.300          43.200

 126340310.992 7  98264774.544 5                  23701132.477    23701130.574
                  23701138.816                          42.000          31.300

 109987594.889 8  85704644.297 8                  20929939.453
  20929944.625    20929945.207                          48.300          48.600

 129680524.844 6 101049789.701 6                  24677387.453
  24677394.559    24677395.141                          41.600          37.700

 110297765.324 7  85787213.411 6                  20647975.867    20647975.605
                  20647979.742                          44.400          39.800

 110886488.614 7  86405080.487 8                  21100983.852
  21100991.133    21100991.539                          46.700          48.300

 124618679.208 7  96925671.286 6                  23287980.922    23287979.137
                  23287984.094                          44.100          37.600

 109622451.882 8  85261970.719 7                  20528765.172    20528764.910
                  20528766.820                          50.900          46.800

 127574669.418 6  99408870.79243                  24276651.680
                  24276656.496                          41.600          21.100

 120518433.732 7  93910531.56444                  22933910.359
                  22933913.477                          45.100          26.800

 107906865.806 8  84083304.239 8                  20533988.078
  20533992.313    20533992.543                          50.300          48.300

 113906288.024 7  88758214.851 7                  21675643.625
  21675651.434    21675651.547                          46.900          47.600

 110846191.340 8  86213719.003 7                  20707007.289    20707006.207
                  20707011.984                          49.900          46.600

 133512711.864 4                                  25406628.828
                                                        29.900

 118958619.524 7  92695055.44644                  22637066.711
                  22637070.941                          46.000          27.900

 118433220.540 6  92114787.978 6                  22139844.414    22139842.863
                  22139848.875                          39.000          39.200

 130561074.294 6 101547516.865 4                  24432738.992    24432738.496
                  24432743.688                          39.600          28.900

 19  3 26 19 19  0.0000000  0 21G16R06R18R08G27R10G09G05R16G08R17R09
                                G11G23G07G30R07G18G28R19R15
 131260591.198 6 102280972.76142                  24978053.313
                  24978056.547                          39.200          16.300

 116683975.883 7                                  21866535.523    21866534.441
                                                        42.300

 113166454.105 7  88018390.194 7                  21199889.414    21199887.746
                  21199893.523                          47.800          44.200

 122512335.722 7  95287418.287 6                  22878320.305    22878321.102
                  22878325.000                          43.000          40.000

 118312619.010 7  92191676.553 7                  22514132.117
  22514138.227    22514138.164                          45.400          43.800

 126258254.409 7  98200952.795 4                  23685740.109    23685736.797
                  23685742.695                          42.300          29.500

 110054443.547 8  85756734.149 8                  20942659.805
  20942665.563    20942666.027                          48.000          49.500

 129695954.202 7 101061812.555 6                  24680326.008
  24680331.063    24680331.410                          43.900          38.200

 110348110.500 7  85826370.800 6                  20657399.023    20657399.352
                  20657403.484                          44.200          39.600

 110891235.687 8  86408779.521 8                  21101887.750
  21101894.738    21101894.676                          48.200          48.100

 124697868.587 7  96987262.988 6                  23302777.305    23302776.926
                  23302782.707                          43.400          37.800

 109579850.667 8  85228836.467 7                  20520784.727    20520785.172
                  20520788.953                          49.300          46.000

 127481450.129 6  99336232.41743                  24258911.422
                  24258917.176                          39.800          20.600

 120622866.111 7  93991907.38644                  22953784.063
                  22953785.773                          43.700          25.400

 107886715.833 8  84067602.968 8                  20530154.016
  20530158.074    20530158.246                          51.000          48.500

 113841742.094 7  88707919.347 8                  21663360.531
  21663368.750    21663368.570                          47.500          48.000

 110866100.965 8  86229204.250 7                  20710725.594    20710725.098
                  20710731.348                          49.800          46.600

 133425325.731 5                                  25389999.359
                                                        31.500

 118888657.103 7  92640539.29344                  22623753.156
                  22623757.563                          45.900          25.600

 118320604.762 6  92027198.049 6                  22118791.664    22118791.168
                  22118797.652                          39.700          39.100

 130646502.931 6 101613961.384 5                  24448725.016    24448725.461
                  24448731.707                          40.900          35.500

 19  3 26 19 19 30.0000000  0 21G16R06R18R08G27R10G09G05R16G08R17R09
                                G11G23G07G30R07G18G28R19R15
 131365458.234 6 102362687.34942                  24998005.156
                  24998011.906                          37.600          13.900

 116800342.958 6                                  21888344.438    21888341.246
                                                        41.500

 113148725.902 7  88004601.611 7                  21196567.906    21196566.238
                  21196572.367                          47.600          44.000

 122430468.373 7  95223743.772 6                  22863033.766    22863031.980
                  22863038.109                          43.200          41.900

 118379966.451 7  92244155.068 7                  22526947.867
  22526954.914    22526954.676                          44.900          44.600

 126176252.232 6  98137173.476 5                  23670354.750    23670353.551
                  23670362.262                          40.900          31.900

 110121762.919 8  85809190.768 8                  20955469.992
  20955476.629    20955476.801                          48.000          49.000

 129711873.457 7 101074217.140 6                  24683355.375
  24683361.133    24683361.129                          42.800          37.600

 110398632.236 7  85865665.482 6                  20666857.867    20666857.371
                  20666861.273                          44.500          39.100

 110896604.149 8  86412962.717 7                  21102908.773
  21102916.055    21102916.344                          48.300          47.800

 124777654.134 7  97049318.367 6                  23317688.422    23317686.637
                  23317692.180                          43.000          38.600

 109537457.850 8  85195864.299 7                  20512849.375    20512848.059
                  20512850.316                          51.100          46.600

 127388293.964 7  99263643.29843                  24241187.320
                  24241189.500                          42.000          20.400

 120727529.418 7  94073463.12244                  22973698.578
                  22973702.984                          42.800          25.300

 107866839.548 8  84052114.947 8                  20526372.023
  20526375.555    20526375.668                          50.300          48.000

 113777358.677 8  88657750.473 7                  21651109.688
  21651116.676    21651116.613                          48.100          47.000

 110886813.938 8  86245314.313 7                  20714595.344    20714594.496
                  20714599.570                          50.000          45.600

 133337911.431 5                                  25373365.031
                                                        32.600

 118818966.343 7  92586234.86144                  22610491.430
                  22610496.070                          45.600          27.000

 118208318.516 6  91939864.361 6                  22097800.656    22097800.750
                  22097806.996                          40.600          38.800

 130731914.731 6 101680392.738 5                  24464709.938    24464710.148
                  24464715.809                          39.900          35.800

 19  3 26 19 20  0.0000000  0 21G16R06R18R08G27R10G09G05R16G08R17R09
                                G11G23G07G30R07G18G28R19R15
 131470275.967 6 102444363.44342                  25017951.602
                  25017958.762                          37.100          15.600

 116917014.348 7                                  21910207.836    21910206.402
                                                        42.300

 113131803.451 8  87991439.709 7                  21193399.250    21193397.113
                  21193401.719                          48.900          44.000

 122349188.970 7  95160526.441 6                  22847853.773    22847852.574
                  22847859.176                          43.300          40.900

 118447813.079 7  92297022.582 7                  22539858.039
  22539866.375    22539866.488                          44.600          45.400

 126094304.926 7  98073436.800 4                  23654980.328    23654980.656
                  23654987.488                          42.000          29.500

 110189551.097 8  85862012.715 8                  20968369.734
  20968376.664    20968376.602                          48.700          49.400

 129728281.326 7 101087002.501 6                  24686477.031
  24686482.438    24686482.082                          42.600          37.600

 110449330.166 7  85905097.226 6                  20676349.531    20676348.801
                  20676351.883                          44.900          40.500

 110902593.431 8  86417629.706 8                  21104048.898
  21104055.359    21104055.355                          48.600          48.400

 124858032.409 7  97111834.725 6                  23332706.945    23332706.684
                  23332711.996                          43.200          38.200

 109495273.380 8  85163054.152 7                  20504948.367    20504947.988
                  20504950.133                          50.200          46.900

 127295203.931 6  99191105.64443                  24223470.070
                  24223475.063                          41.900          22.200

 120832421.191 7  94155196.86944                  22993659.680
                  22993663.910                          43.800          26.900

 107847238.270 8  84036841.232 8                  20522642.453
  20522645.223    20522645.805                          51.200          48.300

 113713138.839 8  88607709.052 7                  21638888.742
  21638895.848    21638895.434                          48.000          46.400

 110908328.330 8  86262047.718 7                  20718614.570    20718613.488
                  20718618.445                          50.000          45.200

 133250472.100 5                                  25356724.938
                                                        32.200

 118749547.628 7  92532142.39244                  22597280.617
                  22597285.141                          44.500          25.500

 118096366.369 6  91852790.537 6                  22076873.727    22076872.527
                  22076877.367                          40.700          37.400

 130817309.781 6 101746811.086 6                  24480690.141    24480689.293
                  24480695.660                          37.600          36.000

 19  3 26 19 20 30.0000000  0 21G16R06R18R08G27R10G09G05R16G08R17R09
                                G11G23G07G30R07G18G28R19R15
 131575044.433 6 102526001.17942                  25037890.078
                  25037894.543                          39.000          16.900

 117033985.923 7                                  21932129.891    21932127.871
                                                        43.600

 113115688.797 7  87978906.107 7                  21190378.633    21190377.902
                  21190383.566                          47.900          43.500

 122268501.368 7  95097769.417 6                  22832787.719    22832786.637
                  22832790.539                          44.300          39.800

 118516157.376 7  92350277.853 7                  22552864.086
  22552871.543    22552871.949                          44.200          45.100

 126012413.451 7  98009743.430 5                  23639619.250    23639618.402
                  23639625.238                          43.200          31.800

 110257806.998 7  85915199.101 8                  20981358.391
  20981365.379    20981365.023                          47.900          48.800

 129745177.082 7 101100167.928 6                  24689692.695
  24689698.688    24689698.684                          42.600          37.700

 110500204.768 7  85944666.332 6                  20685870.375    20685871.172
                  20685876.715                          44.300          40.300

 110909204.180 8  86422780.944 8                  21105306.961
  21105313.832    21105314.063                          48.100          48.000

 124939000.976 7  97174810.199 6                  23347838.945    23347837.746
                  23347843.523                          42.900          36.700

 109453298.047 8  85130406.744 7                  20497084.102    20497084.430
                  20497089.738                          48.300          47.000

 127202183.623 7  99118622.35443                  24205770.180
                  24205774.234                          42.000          22.000

 120937539.856 7  94237107.47244                  23013663.633
                  23013666.281                          44.700          24.500

 107827914.309 8  84021783.605 8                  20518966.375
  20518968.148    20518968.320                          51.800          48.700

 113649084.663 8  88557796.719 7                  21626700.234
  21626707.105    21626706.809                          48.500          46.700

 110930644.014 8  86279404.367 7                  20722782.867    20722782.727
                  20722788.504                          49.900          46.500

 133163011.748 5                                  25340080.695
                                                        31.800

 118680401.786 7  92478262.53144                  22584122.133
                  22584127.477                          44.500          26.000

 117984753.929 6  91765980.902 5                  22056008.484    22056008.695
                  22056011.539                          41.600          35.300

 130902689.283 6 101813217.301 5                  24496667.297    24496667.156
                  24496673.637                          37.500          34.500

 19  3 26 19 21  0.0000000  0 21G16R06R18R08G27R10G09G05R16G08R17R09
                                G11G23G07G30R07G18G28R19R15
 131679760.035 6 102607597.72142                  25057816.461
                  25057822.332                          36.700          17.800

 117151252.015 6                                  21954106.055    21954102.273
                                                        41.600

 113100381.726 8  87967000.615 7                  21187511.719    21187510.051
                  21187515.828                          48.500          44.300

 122188407.549 7  95035474.237 6                  22817830.328    22817828.660
                  22817833.969                          42.900          39.100

 118584995.371 7  92403917.814 7                  22565963.742
  22565970.438    22565971.195                          43.500          44.700

 125930576.109 7  97946092.277 5                  23624267.156    23624265.371
                  23624273.262                          43.200          32.700

 110326527.198 8  85968747.283 8                  20994436.109
  20994441.633    20994441.980                          48.400          48.600

 129762558.063 6 101113711.533 6                  24692998.906
  24693005.953    24693005.715                          41.300          38.000

 110551254.106 7  85984371.332 6                  20695428.273    20695427.895
                  20695433.207                          44.100          40.500

 110916434.827 7  86428415.210 8                  21106682.859
  21106689.848    21106689.668                          47.400          48.400

 125020555.041 6  97238241.129 5                  23363078.914    23363078.066
                  23363083.848                          41.600          35.800

 109411530.638 8  85097920.994 7                  20489265.813    20489265.789
                  20489268.047                          50.200          46.100

 127109234.712 6  99046194.70243                  24188081.453
                  24188086.855                          41.100          22.600

 121042881.267 7  94319191.61743                  23033708.922
                  23033712.684                          44.500          23.900

 107808866.849 8  84006941.448 8                  20515340.391
  20515342.574    20515342.980                          50.300          49.100

 113585195.765 8  88508013.162 7                  21614542.523
  21614548.926    21614548.922                          48.500          46.300

 110953757.582 8  86297381.566 7                  20727100.711    20727099.395
                  20727105.645                          50.000          46.400

 133075531.649 5                                  25323435.602
                                                        34.300

 118611527.757 7  92424594.51544                  22571017.211
                  22571022.320                          45.500          28.300

 117873484.354 6  91679437.914 5                  22035208.188    22035205.582
                  22035209.953                          40.600          35.200

 130988051.709 6 101879610.301 5                  24512640.781    24512642.281
                  24512648.766                          38.800          33.800

 19  3 26 19 21 30.0000000  0 21G16R06R18R08G27R10G09G05R16G08R17R09
                                G11G23G07G30R07G18G28R19R15
 131784422.623 6 102689152.85542                  25077733.367
                  25077738.477                          36.900          14.800

 117268808.700 6                                  21976133.461    21976132.613
                                                        41.800

 113085884.280 8  87955724.851 7                  21184796.133    21184794.348
                  21184800.008                          48.800          44.700

 122108911.029 7  94973643.615 6                  22802982.938    22802982.559
                  22802989.980                          42.500          40.400

 118654325.272 7  92457941.101 7                  22579156.773
  22579165.051    22579165.574                          44.200          44.200

 125848792.946 6  97882483.300 5                  23608919.922    23608921.305
                  23608930.957                          38.700          30.300

 110395710.437 7  86022656.280 8                  21007600.930
  21007606.219    21007607.270                          47.100          48.000

 129780423.975 6 101127632.989 6                  24696398.133
  24696404.711    24696405.410                          41.000          36.400

 110602478.516 7  86024212.563 6                  20705018.727    20705018.113
                  20705022.133                          44.600          40.300

 110924285.423 8  86434532.569 8                  21108177.289
  21108184.746    21108184.098                          48.000          48.900

 125102692.036 7  97302125.421 6                  23378429.703    23378427.918
                  23378431.820                          43.900          36.400

 109369971.649 8  85065597.343 7                  20481483.133    20481482.520
                  20481484.426                          50.200          46.600

 127016361.009 6  98973825.58843                  24170408.289
                  24170413.281                          41.600          22.200

 121148443.502 7  94401447.87143                  23053795.461
                  23053800.336                          44.100          22.800

 107790097.895 8  83992316.288 8                  20511768.695
  20511771.699    20511772.164                          50.000          48.300

 113521474.063 7  88458359.920 7                  21602415.344
  21602423.035    21602423.207                          47.200          46.600

 110977668.753 8  86315979.112 7                  20731567.828    20731567.566
                  20731574.168                          49.800          46.500

 132988035.93815                                  25306782.727
                                                        31.500

 118542926.759 7  92371139.22644                  22557961.680
                  22557967.844                          45.600          26.600

 117762563.443 6  91593166.089 5                  22014472.039    22014471.543
                  22014475.797                          39.600          34.600

 131073397.809 6 101945990.555 6                  24528611.563    24528612.945
                  24528620.250                          37.100          36.200

 19  3 26 19 22  0.0000000  0 21G16R06R18R08G27R10G09G05R16G08R17R09
                                G11G23G07G30R07G18G28R19R15
 131889030.998 6 102770665.86542                  25097640.734
                  25097645.141                          36.100          16.300

 117386651.728 6                                  21998215.992    21998214.676
                                                        41.400

 113072197.659 8  87945079.722 7                  21182232.078    21182230.645
                  21182235.953                          48.600          44.400

 122030016.102 7  94912280.957 6                  22788250.984    22788249.785
                  22788255.094                          42.600          40.200

 118724144.768 7  92512345.891 7                  22592442.477
  22592449.875    22592450.340                          44.200          43.900

 125767064.484 6  97818916.808 4                  23593591.211    23593588.371
                  23593597.082                          40.400          29.100

 110465354.912 8  86076924.685 8                  21020853.719
  21020859.066    21020859.121                          48.300          48.000

 129798773.126 6 101141931.048 6                  24699889.133
  24699896.004    24699896.000                          40.200          36.400

 110653877.867 7  86064189.822 6                  20714639.203    20714640.469
                  20714645.191                          44.500          40.000

 110932755.787 8  86441132.852 8                  21109788.703
  21109795.984    21109795.805                          49.200          48.000

 125185408.602 7  97366460.503 6                  23393886.883    23393885.215
                  23393890.172                          43.500          37.000

 109328621.272 8  85033435.932 7                  20473738.719    20473737.637
                  20473741.422                          49.100          46.900

 126923565.374 6  98901517.36643                  24152749.148
                  24152755.020                          41.100          21.100

 121254224.332 7  94483874.43944                  23073928.039
                  23073929.164                          46.300          25.300

 107771608.992 8  83977909.362 8                  20508250.234
  20508253.238    20508253.000                          50.100          48.700

 113457920.919 8  88408838.009 7                  21590322.609
  21590329.188    21590329.125                          48.100          47.000

 111002376.177 8  86335195.974 7                  20736182.602    20736181.988
                  20736188.473                          49.400          46.400

 132900526.597 5                                  25290133.203
                                                        34.100

 118474599.247 7  92317897.06244                  22544960.500
                  22544965.141                          45.400          28.000

 117651995.736 6  91507169.035 6                  21993802.688    21993801.488
                  21993806.211                          40.500          37.300

 131158728.032 6 102012358.377 5                  24544581.078    24544581.406
                  24544587.301                          36.100          34.000

 19  3 26 19 22 30.0000000  0 21G16R06R18R08G27R10G09G05R16G08R17R09
                                G11G23G07G30R07G18G28R19R15
 131993583.929 6 102852135.61442                  25117535.016
                  25117541.121                          36.800          15.600

 117504775.905 6                                  22020350.344    22020351.961
                                                        41.600

 113059322.875 8  87935065.991 7                  21179820.164    21179819.199
                  21179824.391                          48.800          44.200

 121951725.500 7  94851388.329 6                  22773631.695    22773631.082
                  22773634.984                          44.300          40.600

 118794451.176 7  92567130.106 7                  22605822.063
  22605828.348    22605828.402                          45.800          43.800

 125685390.035 7  97755392.249 5                  23578271.016    23578269.113
                  23578275.949                          44.500          32.800

 110535458.409 7  86131550.778 7                  21034193.422
  21034200.469    21034200.406                          47.900          47.600

 129817604.235 6 101156604.582 6                  24703473.883
  24703480.344    24703480.398                          41.600          37.600

 110705451.557 7  86104302.697 6                  20724295.258    20724294.059
                  20724298.781                          44.300          39.100

 110941845.191 7  86448215.508 8                  21111518.344
  21111525.391    21111525.270                          47.300          48.200

 125268701.242 7  97431243.609 6                  23409452.125    23409450.809
                  23409455.648                          43.000          38.200

 109287479.354 8  85001436.714 7                  20466031.633    20466032.430
                  20466037.855                          48.500          46.700

 126830850.700 6  98829272.22843                  24135107.359
                  24135111.648                          41.700          21.700

 121360221.145 7  94566469.35543                  23094096.789
                  23094099.027                          44.700          22.500

 107753400.909 8  83963721.245 8                  20504783.781
  20504788.660    20504789.008                          48.500          48.800

 113394537.323 8  88359448.206 7                  21578261.266
  21578268.195    21578268.309                          48.800          47.000

 111027878.153 8  86355030.814 7                  20740946.805    20740946.426
                  20740951.973                          50.000          45.700

 132813007.721 6                                  25273479.352
                                                        37.100

 118406545.274 7  92264868.04244                  22532009.500
                  22532014.844                          45.800          26.700

 117541786.023 6  91421450.397 6                  21973201.672    21973200.004
                  21973205.781                          39.000          38.600

 131244042.397 6 102078713.964 6                  24560547.031    24560546.184
                  24560553.488                          37.800          38.100

 19  3 26 19 23  0.0000000  0 21G16R06R18R08G27R10G09G05R16G08R17R09
                                G11G23G07G30R07G18G28R19R15
 132098079.631 6 102933560.81842                  25137421.273
                  25137426.793                          36.900          17.400

 117623176.584 6                                  22042541.250    22042539.816
                                                        41.100

 113047260.646 8  87925684.256 7                  21177559.578    21177559.316
                  21177565.918                          48.700          44.200

 121874042.092 7  94790967.898 6                  22759123.813    22759123.199
                  22759128.508                          44.400          40.700

 118865241.656 7  92622291.518 7                  22619294.430
  22619299.074    22619299.188                          46.300          42.600

 125603769.793 7  97691909.949 5                  23562957.242    23562955.926
                  23562965.578                          42.800          34.700

 110606018.553 8  86186532.690 8                  21047621.750
  21047627.742    21047628.031                          49.000          48.800

 129836915.343 7 101171652.169 6                  24707150.188
  24707155.184    24707154.887                          44.200          37.600

 110757198.732 7  86144550.493 6                  20733980.648    20733980.977
                  20733986.051                          43.900          39.700

 110951552.814 8  86455779.899 8                  21113366.344
  21113372.746    21113372.684                          49.300          48.800

 125352566.194 7  97496471.849 6                  23425124.297    23425123.684
                  23425128.758                          43.000          37.900

 109246545.541 8  84969599.350 7                  20458369.211    20458368.480
                  20458371.445                          50.300          47.000

 126738219.604 6  98757092.16343                  24117480.633
                  24117484.395                          39.200          20.600

 121466430.759 7  94649230.05944                  23114307.539
                  23114310.715                          45.100          24.900

 107735474.459 8  83949752.582 8                  20501372.797
  20501376.738    20501377.145                          48.800          48.500

 113331324.054 7  88310191.160 7                  21566231.742
  21566239.258    21566238.961                          47.800          47.300

 111054172.409 8  86375481.915 7                  20745858.742    20745858.363
                  20745863.676                          49.700          45.600

 132725481.719 6                                  25256823.719
                                                        38.100

 118338764.882 7  92212052.18344                  22519111.477
                  22519116.352                          45.000          27.400

 117431938.429 6  91336013.447 6                  21952665.000    21952664.270
                  21952669.461                          39.400          38.900

 131329340.799 6 102145057.068 6                  24576509.383    24576510.180
                  24576516.074                          41.100          36.200

 19  3 26 19 23 30.0000000  0 21G16R06R18R08G27R10G09G05R16G08R17R09
                                G11G23G07G30R07G18G28R19R15
 132202516.997 6 103014940.61842                  25157295.742
                  25157300.148                          36.800          16.300

 117741849.655 6                                  22064781.781    22064780.582
                                                        41.800

 113036012.344 7  87916935.601 7                  21175451.703    21175450.855
                  21175457.691                          47.600          45.100

 121796969.426 7  94731022.537 6                  22744731.383    22744729.598
                  22744736.199                          42.500          40.900

 118936513.992 7  92677828.400 7                  22632857.211
  22632862.324    22632862.496                          47.000          43.700

 125522203.321 6  97628469.525 5                  23547654.523    23547654.852
                  23547663.914                          40.400          31.900

 110677033.743 8  86241869.175 8                  21061134.516
  21061140.918    21061141.500                          48.300          48.100

 129856705.422 7 101187072.984 6                  24710914.727
  24710920.191    24710921.418                          42.700          36.200

 110809119.778 7  86184933.529 6                  20743702.094    20743701.953
                  20743706.438                          44.700          39.600

 110961878.691 8  86463826.029 7                  21115330.789
  21115337.367    21115337.656                          48.100          47.800

 125437000.200 7  97562142.714 6                  23440901.797    23440902.125
                  23440906.965                          43.600          37.700

 109205820.228 8  84937924.094 7                  20450743.789    20450743.648
                  20450745.199                          51.300          47.100

 126645675.341 6  98684979.84243                  24099869.055
                  24099873.695                          40.200          19.300

 121572851.039 7  94732154.85943                  23134560.313
                  23134561.848                          44.700          22.500

 107717831.507 8  83936004.819 8                  20498015.438
  20498019.672    20498020.078                          50.700          48.800

 113268282.734 8  88261068.037 7                  21554235.742
  21554241.500    21554241.672                          48.200          46.200

 111081258.062 8  86396548.504 7                  20750918.359    20750918.453
                  20750924.465                          49.300          46.300

 132637952.020 6                                  25240164.445
                                                        37.900

 118271258.752 7  92159450.07044                  22506264.500
                  22506271.309                          44.900          27.900

 117322458.138 6  91250862.184 6                  21932199.070    21932198.691
                  21932203.063                          40.400          39.400

 131414623.758 6 102211388.249 5                  24592468.242    24592467.980
                  24592474.582                          38.500          34.300

 19  3 26 19 24  0.0000000  0 21G16R06R18R08G27R10G09G05R16G08R17R09
                                G11G23G07G30R07G18G28R19R15
 132306894.694 5 103096273.82242                  25177157.313
                  25177162.070                          35.500          16.300

 117860790.218 7                                  22087070.813    22087070.789
                                                        42.500

 113025578.448 8  87908820.368 7                  21173498.516    21173497.199
                  21173502.859                          48.900          44.400

 121720510.012 7  94671554.116 6                  22730453.711    22730452.863
                  22730458.762                          43.200          40.500

 119008265.151 7  92733738.383 7                  22646510.391
  22646515.797    22646515.910                          46.800          43.400

 125440690.263 6  97565070.488 4                  23532364.219    23532361.613
                  23532370.324                          39.800          29.300

 110748501.334 8  86297558.184 8                  21074734.977
  21074741.379    21074741.961                          49.100          49.000

 129876972.540 7 101202865.492 5                  24714773.203
  24714777.027    24714777.434                          44.400          35.400

 110861213.446 7  86225450.837 6                  20753453.414    20753452.332
                  20753456.938                          44.200          39.800

 110972821.798 8  86472353.134 7                  21117412.672
  21117419.895    21117419.891                          48.500          47.900

 125521999.366 6  97628253.178 6                  23456785.453    23456784.840
                  23456791.910                          41.900          37.900

 109165302.740 8  84906410.504 7                  20443154.313    20443154.523
                  20443157.602                          49.800          47.600

 126553220.523 6  98612937.15143                  24082276.273
                  24082279.801                          40.200          19.000

 121679479.167 7  94815241.66244                  23154852.438
                  23154853.504                          45.400          27.400

 107700472.432 8  83922478.252 8                  20494711.891
  20494716.066    20494716.590                          49.900          48.800

 113205413.994 7  88212079.436 7                  21542271.852
  21542278.313    21542278.426                          47.300          46.200

 111109132.635 8  86418228.723 7                  20756126.258    20756125.879
                  20756131.895                          49.800          47.600

 132550421.248 6 103286092.15242                  25223510.492
                  25223519.176                          39.400          15.600

 118204026.612 7  92107061.43744                  22493472.227
                  22493476.984                          44.200          27.900

 117213349.415 6  91165999.876 6                  21911801.805    21911800.371
                  21911806.266                          40.800          39.300

 131499890.915 6 102277707.141 5                  24608425.523    24608425.734
                  24608431.629                          41.200          31.700

 19  3 26 19 24 30.0000000  0 21G16R06R18R08G27R10G09G05R16G08R17R09
                                G11G23G07G30R07G18G28R19R15
 132411211.632 5 103177559.72542                  25197009.891
                  25197012.715                          35.300          15.600

 117979993.937 6                                  22109410.836    22109409.285
                                                        41.400

 113015960.421 8  87901339.705 7                  21171695.875    21171695.145
                  21171701.043                          48.500          45.100

 121644667.732 7  94612565.683 7                  22716289.305    22716288.340
                  22716296.113                          43.800          42.100

 119080493.095 7  92790019.881 7                  22660254.289
  22660260.633    22660260.570                          45.700          43.000

 125359230.234 7  97501712.829 4                  23517081.711    23517080.512
                  23517087.230                          42.500          26.800

 110820419.808 8  86353598.524 7                  21088420.008
  21088426.762    21088427.227                          48.800          47.800

 129897715.929 7 101219029.142 5                  24718719.523
  24718722.645    24718724.164                          43.200          33.200

 110913480.184 7  86266102.705 6                  20763238.156    20763237.777
                  20763242.500                          44.600          40.000

 110984381.705 8  86481360.857 8                  21119612.320
  21119619.367    21119619.539                          49.400          48.400

 125607560.743 6  97694800.900 6                  23472774.578    23472773.965
                  23472780.098                          40.800          37.200

 109124993.915 8  84875059.244 7                  20435603.992    20435603.379
                  20435608.102                          48.600          46.900

 126460859.156 6  98540967.28543                  24064699.188
                  24064703.652                          39.700          18.600

 121786312.822 7  94898488.59144                  23175181.469
                  23175183.648                          43.700          24.800

 107683398.936 8  83909174.230 8                  20491464.047
  20491467.520    20491467.867                          50.700          49.300

 113142719.588 7  88163226.652 7                  21530341.938
  21530348.047    21530348.160                          47.100          47.000

 111137795.057 8  86440521.679 7                  20761480.703    20761480.441
                  20761486.574                          50.300          47.300

 132462892.726 6 103217888.28552                  25206853.156
                  25206863.305                          38.700          14.800

 118137069.072 7  92054886.77344                  22480730.953
                  22480735.242                          45.200          28.300

 117104617.528 6  91081430.692 6                  21891477.867    21891474.555
                  21891479.750                          41.700          38.900

 131585143.032 6 102344014.337 5                  24624378.664    24624379.227
                  24624385.355                          39.900          32.700

 19  3 26 19 25  0.0000000  0 21G16R06R18R08G27R10G09G05R16G08R17R09
                                G11G23G07G30R07G18G28R19R15
 132515467.149 5 103258797.78942                  25216847.602
                  25216851.891                          35.400          14.800

 118099457.108 7                                  22131799.008    22131796.168
                                                        42.100

 113007159.818 8  87894494.804 7                  21170048.383    21170046.598
                  21170051.906                          49.000          44.500

 121569446.589 7  94554060.344 7                  22702243.516    22702242.551
                  22702248.918                          44.500          42.300

 119153195.888 7  92846671.391 7                  22674088.672
  22674095.660    22674095.598                          45.300          44.400

 125277824.962 7  97438397.568 4                  23501810.094    23501809.480
                  23501815.965                          42.400          29.400

 110892787.773 8  86409989.128 7                  21102191.719
  21102197.184    21102197.707                          49.400          47.500

 129918934.383 6 101235562.999 6                  24722756.281
  24722763.387    24722761.859                          41.400          37.300

 110965920.219 7  86306889.425 6                  20773055.133    20773055.227
                  20773060.184                          44.300          39.900

 110996558.837 8  86490849.552 8                  21121929.555
  21121937.188    21121936.949                          49.200          48.400

 125693681.534 6  97761783.697 6                  23488869.414    23488867.863
                  23488872.938                          41.300          36.600

 109084894.404 8  84843870.754 7                  20428095.703    20428094.973
                  20428099.578                          49.300          46.800

 126368593.475 6  98469072.02843                  24047141.313
                  24047147.125                          40.100          20.400

 121893349.921 7  94981894.05144                  23195547.117
                  23195551.934                          42.400          24.900

 107666612.648 8  83896094.025 8                  20488269.828
  20488273.125    20488273.297                          51.100          48.800

 113080201.355 7  88114511.179 7                  21518445.727
  21518452.305    21518452.184                          47.200          47.600

 111167243.990 8  86463426.380 7                  20766981.500    20766981.359
                  20766987.020                          50.200          46.100

 132375370.232 6 103149689.04742                  25190198.219
                  25190207.430                          38.100          13.900

 118070387.013 7  92002926.77444                  22468041.203
                  22468046.137                          45.800          28.300

 116996267.729 6  90997158.690 6                  21871221.172    21871219.855
                  21871224.813                          41.300          39.400

 131670380.919 6 102410310.391 6                  24640331.844    24640331.113
                  24640337.012                          37.200          36.200

 19  3 26 19 25 30.0000000  0 21G16R06R18R08G27R10G09G05R16G08R17R09
                                G11G23G07G30R07G18G28R19R15
 132619659.862 5 103339986.87642                  25236675.383
                  25236680.492                          35.500          15.600

 118219174.641 6                                  22154233.672    22154230.242
                                                        41.500

 112999176.896 8  87888285.888 7                  21168552.844    21168551.527
                  21168556.484                          48.300          44.800

 121494848.667 7  94496039.705 7                  22688314.383    22688312.715
                  22688318.961                          45.000          42.100

 119226370.450 7  92903690.519 7                  22688013.516
  22688021.441    22688021.320                          45.600          45.200

 125196473.167 6  97375124.037 5                  23486547.406    23486547.734
                  23486555.977                          41.500          33.100

 110965602.552 8  86466727.905 7                  21116047.125
  21116053.234    21116053.816                          49.100          47.800

 129940626.023 6 101252465.463 5                  24726884.047
  24726888.633    24726890.445                          41.000          34.100

 111018532.633 7  86347810.169 6                  20782905.125    20782903.457
                  20782909.000                          43.900          40.400

 111009351.994 8  86500818.248 8                  21124364.258
  21124371.715    21124371.535                          48.900          48.400

 125780357.546 7  97829198.341 6                  23505065.961    23505065.348
                  23505070.777                          42.100          36.300

 109045003.652 8  84812844.616 7                  20420627.031    20420626.652
                  20420629.266                          50.100          46.600

 126276426.993 6  98397254.03543                  24029603.805
                  24029608.973                          41.400          21.500

 122000587.457 6  95065455.66744                  23215952.969
                  23215958.664                          41.700          25.100

 107650114.687 8  83883238.460 8                  20485129.773
  20485133.656    20485133.887                          50.200          49.200

 113017859.965 8  88065933.482 7                  21506582.391
  21506589.203    21506589.316                          48.500          47.700

 111197477.082 8  86486940.996 7                  20772629.258    20772628.645
                  20772634.543                          49.700          46.000

 132287856.441 6 103081496.63842                  25173544.703
                  25173553.563                          38.700          13.900

 118003980.648 7  91951181.57544                  22455404.227
                  22455409.102                          45.200          28.500

 116888304.359 6  90913187.224 6                  21851039.852    21851037.246
                  21851043.023                          40.800          39.400

 131755604.165 6 102476595.121 6                  24656277.453    24656278.719
                  24656286.258                          37.700          36.500

 19  3 26 19 26  0.0000000  0 21G16R06R18R08G27R10G09G05R16G08R17R09
                                G11G23G07G30R07G18G28R19R15
 132723788.117 6 103421125.68042                  25256491.203
                  25256495.141                          38.100          16.300

 118339141.596 6                                  22176716.141    22176712.949
                                                        40.900

 112992012.293 8  87882713.429 7                  21167209.508    21167209.129
                  21167214.086                          48.000          43.600

 121420877.233 7  94438506.453 6                  22674499.938    22674498.387
                  22674503.109                          44.500          40.300

 119300013.909 7  92961075.021 7                  22702027.492
  22702034.480    22702034.594                          45.700          44.500

 125115174.695 6  97311892.071 5                  23471298.602    23471298.223
                  23471306.230                          41.100          33.900

 111038861.832 8  86523813.028 8                  21129988.039
  21129995.027    21129995.375                          48.900          48.100

 129962788.776 6 101269735.154 5                  24731101.375
  24731107.543    24731108.066                          41.700          35.700

 111071316.876 7  86388864.552 6                  20792786.289    20792785.324
                  20792790.750                          44.400          40.300

 111022760.027 8  86511266.086 8                  21126915.539
  21126922.762    21126922.699                          49.300          48.200

 125867585.077 7  97897041.942 5                  23521369.195    23521367.059
                  23521372.602                          43.000          35.200

 109005321.373 8  84781980.629 7                  20413195.258    20413194.645
                  20413197.727                          50.200          47.100

 126184362.593 6  98325515.58643                  24012082.625
                  24012089.141                          40.400          22.300

 122108022.799 7  95149171.40644                  23236402.813
                  23236402.879                          44.700          26.500

 107633905.639 8  83870608.015 8                  20482047.266
  20482049.215    20482049.328                          53.000          48.700

 112955696.429 8  88017494.366 7                  21494752.891
  21494759.352    21494759.289                          48.700          47.800

 111228492.577 8  86511064.148 7                  20778423.773    20778423.512
                  20778429.059                          50.000          46.100

 132200354.227 6                                  25156893.648
                                                        39.600

 117937849.672 7  91899650.99344                  22442818.898
                  22442824.887                          44.600          27.900

 116780731.773 6  90829519.695 6                  21830929.391    21830927.605
                  21830932.914                          41.400          39.100

 131840812.953 6 102542868.593 5                  24672224.977    24672225.305
                  24672231.434                          38.700          33.700

 19  3 26 19 26 30.0000000  0 20G16R06R18R08G27R10G09G05R16G08R17R09
                                G11G23G07G30R07G18G28R19
 132827851.068 6 103502213.65242                  25276291.719
                  25276297.824                          36.300          16.900

 118459353.313 6                                  22199242.367    22199241.168
                                                        41.100

 112985666.672 8  87877777.944 7                  21166020.086    21166020.531
                  21166025.840                          48.100          43.800

 121347535.131 7  94381462.606 6                  22660802.102    22660800.785
                  22660803.629                          43.600          38.100

 119374123.623 7  93018822.831 7                  22716130.914
  22716137.609    22716138.074                          45.100          44.900

 125033928.892 7  97248700.974 5                  23456056.477    23456055.746
                  23456061.762                          42.000          30.700

 111112563.423 8  86581242.811 8                  21144013.313
  21144020.066    21144020.414                          48.900          48.000

 129985421.349 6 101287370.914 6                  24735407.977
  24735413.910    24735413.906                          40.700          36.600

 111124272.654 7  86430052.368 6                  20802699.563    20802698.832
                  20802703.672                          44.600          39.600

 111036782.425 8  86522192.634 8                  21129584.328
  21129590.730    21129590.199                          49.800          48.300

 125955360.671 7  97965311.816 6                  23537772.984    23537770.145
                  23537774.395                          42.300          36.200

 108965847.681 8  84751278.873 7                  20405802.180    20405802.156
                  20405805.586                          49.500          47.100

 126092403.044 7  98253858.81343                  23994584.648
                  23994589.816                          42.000          22.500

 122215653.282 6  95233039.26844                  23256880.891
                  23256883.949                          41.700          24.500

 107617986.558 8  83858203.579 8                  20479019.555
  20479020.094    20479020.211                          53.500          49.000

 112893711.886 7  87969194.751 7                  21482956.008
  21482964.109    21482964.105                          46.600          47.900

 111260288.174 8  86535794.036 7                  20784363.234    20784362.270
                  20784368.520                          49.600          46.300

 132112866.439 6 102945124.84752                  25140246.070
                  25140251.883                          40.700          15.600

 117871994.043 7  91848334.98044                  22430287.039
                  22430293.496                          44.800          28.000

 116673554.548 6  90746159.654 6                  21810892.742    21810892.246
                  21810897.793                          40.000          38.800

 19  3 26 19 27  0.0000000  0 20G16R06R18R08G27R10G09G05R16G08R17R09
                                G11G23G07G30R07G18G28R19
 132931849.096 6 103583251.09342                  25296083.883
                  25296088.699                          37.800          16.300

 118579808.003 6                                  22221815.125    22221813.926
                                                        40.800

 112980142.996 8  87873481.773 7                  21164986.055    21164985.441
                  21164990.633                          48.100          44.100

 121274827.643 7  94324912.360 6                  22647223.148    22647223.242
                  22647227.844                          43.400          38.400

 119448699.304 7  93076933.717 7                  22730321.289
  22730329.215    22730328.742                          45.500          44.700

 124952738.307 7  97185552.742 5                  23440826.383    23440824.363
                  23440831.785                          43.200          31.000

 111186707.441 8  86639017.367 7                  21158122.469
  21158129.105    21158129.219                          48.800          47.600

 130008524.249 6 101305373.132 5                  24739804.555
  24739810.781    24739811.363                          41.800          35.900

 111177402.087 7  86471375.258 6                  20812644.602    20812643.988
                  20812648.828                          43.900          39.100

 111051421.074 8  86533599.383 8                  21132369.867
  21132377.090    21132376.676                          48.900          48.500

 126043682.800 7  98034006.772 6                  23554278.961    23554276.355
                  23554281.078                          43.500          37.900

 108926584.846 8  84720741.160 7                  20398449.898    20398449.051
                  20398453.305                          49.500          47.100

 126000553.054 6  98182287.45943                  23977106.016
                  23977111.652                          41.800          22.300

 122323478.234 6  95317058.64144                  23277398.031
                  23277403.141                          41.300          24.900

 107602360.896 8  83846027.769 8                  20476040.305
  20476046.707    20476047.055                          48.600          49.000

 112831909.783 8  87921037.307 7                  21471195.984
  21471202.094    21471202.383                          48.200          46.400

 111292864.571 8  86561131.206 7                  20790448.227    20790447.730
                  20790454.215                          49.300          47.000

 132025398.609 6 102876968.17142                  25123601.430
                  25123608.297                          37.800          17.800

 117806416.122 7  91797235.35444                  22417808.148
                  22417813.727                          44.600          28.300

 116566779.777 6  90663112.616 6                  21790932.398    21790931.316
                  21790936.742                          39.900          37.900

 19  3 26 19 27 30.0000000  0 20G16R06R18R08G27R10G09G05R16G08R17R09
                                G11G23G07G30R07G18G28R19
 133035779.251 5 103664235.61942                  25315858.656
                  25315865.230                          35.900          15.600

 118700498.532 6                                  22244433.047    22244429.973
                                                        41.400

 112975439.836 8  87869823.759 7                  21164104.859    21164104.012
                  21164109.555                          48.000          44.000

 121202755.245 7  94268856.084 6                  22633764.875    22633764.613
                  22633769.691                          44.100          40.000

 119523736.057 7  93135403.899 7                  22744601.641
  22744606.344    22744606.633                          45.200          42.900

 124871600.915 7  97122445.891 5                  23425606.094    23425605.129
                  23425611.965                          43.600          33.000

 111261289.528 8  86697133.256 7                  21172315.219
  21172321.270    21172321.793                          48.200          47.700

 130032093.759 6 101323738.933 6                  24744288.969
  24744296.719    24744296.656                          40.100          36.900

 111230702.333 7  86512831.001 6                  20822621.781    20822621.520
                  20822627.184                          44.300          40.000

 111066672.569 8  86545483.678 8                  21135272.250
  21135279.238    21135279.293                          49.300          48.200

 126132545.633 7  98103122.251 6                  23570881.406    23570881.145
                  23570887.160                          42.700          38.400

 108887530.795 8  84690365.792 7                  20391135.898    20391135.520
                  20391138.953                          49.800          46.800

 125908813.779 7  98110802.38043                  23959648.586
                  23959654.105                          42.300          22.800

 122431493.221 7  95401226.05343                  23297956.852
                  23297957.449                          44.300          23.800

 107587027.942 8  83834079.941 8                  20473124.313
  20473128.430    20473128.660                          49.300          49.100

 112770289.249 8  87873021.303 7                  21459472.016
  21459476.484    21459476.832                          50.500          46.400

 111326217.239 8  86587072.120 7                  20796679.742    20796679.012
                  20796685.262                          49.900          47.000

 131937951.558 6 102808827.75342                  25106960.359
                  25106968.105                          37.300          16.300

 117741114.115 7  91746350.70844                  22405381.281
                  22405386.566                          45.600          27.500

 116460409.857 6  90580380.506 6                  21771047.531    21771046.449
                  21771051.523                          39.800          38.000

 19  3 26 19 28  0.0000000  0 20G16R06R18R08G27R10G09G05R16G08R17R09
                                G11G23G07G30R07G18G28R19
 133139639.906 5 103745165.92542                  25335622.289
                  25335629.391                          34.300          14.800

 118821420.521 6                                  22267093.266    22267091.832
                                                        41.300

 112971557.324 8  87866804.033 7                  21163378.102    21163377.488
                  21163382.918                          48.100          44.200

 121131321.265 7  94213296.279 6                  22620425.945    22620425.449
                  22620432.168                          44.000          41.800

 119599230.888 7  93194231.061 7                  22758965.727
  22758974.180    22758974.410                          44.300          43.600

 124790515.783 6  97059379.736 5                  23410391.883    23410389.746
                  23410399.867                          40.000          33.100

 111336307.253 8  86755588.593 7                  21186590.891
  21186596.707    21186597.172                          48.100          47.600

 130056127.958 7 101342466.886 5                  24748864.508
  24748869.035    24748868.797                          42.000          35.800

 111284173.072 7  86554419.345 6                  20832634.039    20832634.016
                  20832639.090                          44.700          40.200

 111082535.952 8  86557844.757 8                  21138290.984
  21138297.621    21138297.500                          48.600          48.200

 126221945.371 7  98172655.347 6                  23587590.461    23587588.910
                  23587594.102                          43.200          39.200

 108848684.997 8  84660152.387 7                  20383861.578    20383861.789
                  20383865.102                          50.000          47.100

 125817187.993 7  98039405.72443                  23942212.422
                  23942217.531                          42.000          22.500

 122539695.112 7  95485539.17443                  23318543.805
                  23318547.977                          42.500          22.300

 107571987.880 8  83822360.436 8                  20470264.211
  20470267.039    20470267.270                          50.900          49.100

 112708851.205 8  87825147.487 7                  21447779.688
  21447785.387    21447785.207                          48.300          46.400

 111360344.016 8  86613615.155 7                  20803055.508    20803054.426
                  20803059.617                          50.000          47.100

 131850528.141 6 102740705.66842                  25090325.164
                  25090331.973                          36.500          16.900

 117676088.185 7  91695681.16644                  22393008.594
                  22393012.883                          45.200          29.100

 116354449.081 6  90497966.646 6                  21751239.805    21751238.371
                  21751243.445                          39.600          37.900

 19  3 26 19 28 30.0000000  0 20G16R06R18R08G27R10G09G05R16G08R17R09
                                G11G23G07G30R07G18G28R19
 133243430.339 5 103826041.54642                  25355373.789
                  25355379.719                          35.200          13.900

 118942569.054 6                                  22289798.273    22289796.254
                                                        41.300

 112968496.326 7  87864423.290 7                  21162803.688    21162803.191
                  21162809.207                          47.600          44.600

 121060528.711 7  94158235.422 6                  22607206.602    22607205.754
                  22607212.238                          43.400          41.900

 119675181.480 7  93253413.319 7                  22773419.258
  22773426.715    22773427.297                          43.400          43.700

 124709483.376 6  96996354.688 5                  23395188.789    23395188.293
                  23395198.531                          40.900          35.200

 111411758.635 7  86814381.840 8                  21200948.766
  21200954.875    21200955.105                          46.900          48.600

 130080625.481 6 101361555.804 6                  24753525.328
  24753531.027    24753531.316                          41.400          36.300

 111337814.038 7  86596140.072 6                  20842674.578    20842674.082
                  20842679.395                          44.400          40.600

 111099010.673 7  86570682.201 8                  21141425.875
  21141432.922    21141433.035                          47.300          48.100

 126311878.713 7  98242603.484 6                  23604395.945    23604394.746
                  23604400.406                          43.200          38.200

 108810048.186 8  84630101.541 7                  20376626.594    20376626.332
                  20376629.063                          50.000          46.500

 125725678.827 7  97968099.93543                  23924801.406
                  23924803.996                          42.800          22.900

 122648081.732 7  95569996.24843                  23339169.992
                  23339172.523                          42.800          22.200

 107557242.447 8  83810870.507 8                  20467456.227
  20467460.754    20467461.395                          49.100          49.100

 112647597.035 7  87777416.992 7                  21436122.383
  21436129.371    21436129.250                          47.200          47.300

 111395242.833 8  86640758.653 7                  20809573.820    20809573.441
                  20809579.691                          50.500          46.400

 131763131.800 6 102672604.73842                  25073693.125
                  25073700.813                          38.100          15.600

 117611338.316 7  91645226.76544                  22380687.391
                  22380691.387                          45.400          29.400

 116248902.544 6  90415874.908 6                  21731510.305    21731507.465
                  21731511.832                          40.800          37.500

 19  3 26 19 29  0.0000000  0 20G16R06R18R08G27R10G09G05R16G08R17R09
                                G11G23G07G30R07G18G28R19
 133347149.914 5 103906862.04142                  25375109.992
                  25375116.801                          33.300          16.300

 119063940.675 6                                  22312539.477    22312538.980
                                                        39.500

 112966258.088 8  87862682.448 7                  21162384.898    21162383.699
                  21162389.477                          48.200          44.500

 120990380.934 7  94103676.087 6                  22594105.555    22594105.766
                  22594110.488                          44.000          40.400

 119751585.722 7  93312949.105 7                  22787958.406
  22787965.395    22787966.328                          42.800          43.100

 124628503.831 7  96933370.718 5                  23380001.281    23380000.551
                  23380007.973                          44.300          35.600

 111487642.032 7  86873511.755 8                  21215388.570
  21215395.266    21215395.613                          47.600          48.300

 130105585.308 6 101381004.987 6                  24758275.156
  24758280.855    24758280.969                          41.400          37.300

 111391625.541 7  86637993.475 6                  20852748.258    20852747.879
                  20852752.602                          44.800          38.900

 111116096.590 8  86583995.915 8                  21144676.703
  21144684.043    21144684.215                          49.100          48.100

 126402342.437 7  98312964.123 6                  23621300.148    23621299.418
                  23621304.965                          42.200          36.600

 108771620.912 8  84600213.663 7                  20369431.414    20369430.449
                  20369433.414                          49.600          46.400

 125634289.957 7  97896887.86843                  23907409.781
                  23907413.191                          42.600          22.000

 122756650.780 6  95654595.41643                  23359829.477
                  23359831.773                          41.700          21.100

 107542793.862 8  83799611.833 8                  20464707.570
  20464711.277    20464711.566                          50.300          49.500

 112586528.651 7  87729831.274 8                  21424501.336
  21424508.793    21424508.848                          47.500          48.000

 111430912.579 8  86668501.756 7                  20816237.836    20816237.340
                  20816242.887                          49.700          46.100

 131675766.045 5 102604527.59942                  25057065.203
                  25057075.293                          35.500          14.800

 117546865.446 7  91594988.21244                  22368418.516
                  22368422.629                          46.500          29.200

 116143775.488 6  90334109.451 6                  21711857.031    21711854.895
                  21711860.086                          40.900          38.800

 19  3 26 19 29 30.0000000  0 20G16R06R18R08G27R10G09G05R16G08R17R09
                                G11G23G07G30R07G18G28R19
 133450797.038 5 103987625.88042                  25394834.398
                  25394841.207                          33.000          16.300

 119185530.101 6                                  22335326.617    22335324.246
                                                        39.000

 112964842.604 8  87861581.522 7                  21162120.094    21162118.895
                  21162124.438                          48.000          43.700

 120920880.549 7  94049620.318 6                  22581127.281    22581126.199
                  22581130.219                          44.300          39.600

 119828440.600 7  93372836.028 7                  22802583.992
  22802591.039    22802591.504                          44.300          43.800

 124547576.836 7  96870427.601 5                  23364817.195    23364816.582
                  23364823.887                          43.400          32.200

 111563954.953 7  86932976.337 8                  21229910.375
  21229917.246    21229917.359                          47.600          48.000

 130131005.581 6 101400812.954 6                  24763111.633
  24763119.910    24763120.668                          40.400          37.600

 111445607.188 7  86679979.178 6                  20862854.266    20862852.715
                  20862857.086                          43.900          38.900

 111133792.649 8  86597785.060 7                  21148043.844
  21148050.891    21148051.004                          48.300          47.400

 126493332.702 6  98383734.304 6                  23638304.227    23638302.207
                  23638307.750                          41.400          36.300

 108733402.761 8  84570488.431 7                  20362272.477    20362272.570
                  20362276.352                          49.600          47.100

 125543024.003 7  97825771.59843                  23890041.688
                  23890045.449                          42.800          21.800

 122865399.559 7  95739334.67043                  23380525.086
                  23380526.270                          42.100          21.700

 107528642.415 8  83788584.752 8                  20462017.180
  20462019.012    20462018.891                          51.700          49.600

 112525646.962 7  87682391.013 7                  21412915.781
  21412922.945    21412922.941                          47.800          46.600

 111467350.480 8  86696842.326 7                  20823045.227    20823044.379
                  20823050.277                          49.700          46.300

 131588433.924 5 102536476.77742                  25040447.406
                  25040456.676                          32.000          15.600

 117482669.395 7  91544965.36244                  22356201.656
                  22356206.121                          45.700          29.300

 116039072.041 6  90252673.444 6                  21692283.352    21692281.801
                  21692287.695                          41.100          40.100

 19  3 26 19 30  0.0000000  0 20G16R06R18R08G27R10G09G05R16G08R17R09
                                G11G23G07G30R07G18G28R19
 133554370.944 5 104068332.79542                  25414542.734
                  25414550.539                          33.300          14.800

 119307333.471 6                                  22358154.070    22358151.699
                                                        40.200

 112964250.531 7  87861121.016 7                  21162007.461    21162006.848
                  21162012.863                          47.000          43.800

 120852030.823 7  93996070.478 6                  22568271.461    22568270.145
                  22568273.695                          44.700          39.400

 119905743.629 7  93433072.160 7                  22817293.273
  22817300.672    22817301.957                          43.300          43.300

 124466702.722 6  96807525.497 3                  23349645.586    23349644.855
                  23349648.875                          41.800          22.300

 111640695.356 7  86992774.033 7                  21244514.156
  21244520.617    21244520.789                          47.200          47.600

 130156884.462 6 101420978.262 6                  24768038.031
  24768044.258    24768044.137                          41.500          38.300

 111499758.765 7  86722097.086 6                  20872990.977    20872990.129
                  20872994.148                          44.200          38.700

 111152097.775 7  86612048.808 8                  21151527.875
  21151534.980    21151534.918                          47.600          48.400

 126584845.653 6  98454911.033 6                  23655404.195    23655403.582
                  23655409.715                          41.800          36.800

 108695394.000 8  84540926.091 7                  20355154.773    20355154.395
                  20355157.594                          49.800          46.700

 125451883.975 6  97754753.44643                  23872696.648
                  23872703.516                          39.900          23.000

 122974325.661 6  95824212.17043                  23401251.586
                  23401254.352                          41.100          22.000

 107514789.435 8  83777790.250 8                  20459379.688
  20459382.164    20459382.277                          50.500          48.800

 112464953.375 7  87635097.327 7                  21401366.242
  21401374.227    21401373.988                          46.700          47.700

 111504554.492 8  86725778.748 7                  20829994.898    20829994.520
                  20830000.301                          49.700          45.600

 131501138.537 5 102468454.42042                  25023836.328
                  25023845.305                          32.600          16.300

 117418750.459 7  91495158.45544                  22344038.961
                  22344043.426                          44.000          29.500

 115934797.191 6  90171570.850 6                  21672790.445    21672789.129
                  21672794.672                          41.400          40.400

 19  3 26 19 30 30.0000000  0 20G16R06R18R08G27R10G09G05R16G08R17R09
                                G11G23G07G30R07G18G28R19
 133657869.901 6 104148981.33042                  25434239.094
                  25434245.316                          36.500          16.900

 119429345.515 6                                  22381016.602    22381015.520
                                                        40.500

 112964481.799 8  87861300.899 7                  21162052.469    21162051.504
                  21162056.813                          48.100          43.600

 120783834.440 7  93943028.868 6                  22555535.648    22555534.566
                  22555539.406                          43.700          40.000

 119983491.797 7  93493655.097 7                  22832089.078
  22832095.598    22832096.531                          44.900          43.400

 124385880.523 6  96744663.852 4                  23334481.555    23334481.176
                  23334490.594                          40.100          29.900

 111717860.586 7  87052902.762 7                  21259197.813
  21259203.336    21259203.918                          46.900          47.900

 130183219.719 6 101441499.176 6                  24773050.078
  24773055.367    24773055.422                          41.600          37.300

 111554079.609 7  86764346.634 6                  20883158.813    20883159.141
                  20883164.215                          43.800          39.900

 111171011.398 7  86626786.712 8                  21155127.727
  21155134.012    21155133.891                          47.000          48.100

 126676877.695 6  98526491.479 6                  23672603.328    23672601.074
                  23672607.203                          41.800          37.200

 108657594.604 8  84511526.567 7                  20348076.469    20348076.563
                  20348079.523                          50.300          46.700

 125360872.856 7  97683835.76043                  23855379.406
                  23855384.398                          42.400          22.900

 123083425.912 7  95909225.18444                  23422013.984
                  23422016.867                          43.300          24.600

 107501235.874 7  83767229.044 8                  20456797.344
  20456803.688    20456803.977                          46.600          49.300

 112404448.819 8  87587950.920 7                  21389853.242
  21389860.348    21389860.051                          48.500          47.600

 111542522.011 8  86755309.034 7                  20837087.438    20837086.121
                  20837092.133                          50.000          46.000

 131413882.940 6 102400463.28042                  25007233.172
                  25007240.156                          37.600          16.900

 117355108.458 7  91445567.32844                  22331927.883
                  22331932.348                          46.700          29.100

 115830955.156 6  90090804.891 6                  21653378.883    21653377.098
                  21653382.758                          41.600          41.700

 19  3 26 19 31  0.0000000  0 20G16R06R18R08G27R10G09G05R16G08R17R09
                                G11G23G07G30R07G18G28R19
 133761293.340 6 104229570.89242                  25453920.336
                  25453926.559                          36.600          14.800

 119551562.314 6                                  22403921.078    22403919.527
                                                        40.300

 112965537.035 8  87862121.631 7                  21162249.867    21162249.961
                  21162254.563                          48.100          42.900

 120716293.900 7  93890497.359 6                  22542921.070    22542920.691
                  22542923.891                          43.100          38.600

 120061682.526 7  93554582.908 7                  22846970.414
  22846975.117    22846975.523                          47.000          43.800

 124305110.938 7  96681843.165 5                  23319333.523    23319332.090
                  23319337.281                          44.800          33.800

 111795448.677 7  87113360.988 8                  21273962.375
  21273968.953    21273968.891                          47.300          48.200

 130210010.123 6 101462374.817 6                  24778146.172
  24778153.629    24778154.094                          39.000          37.100

 111608569.706 7  86806727.779 6                  20893361.250    20893360.988
                  20893365.125                          44.900          39.700

 111190532.129 8  86641997.676 8                  21158841.148
  21158848.605    21158848.367                          48.200          48.500

 126769424.964 6  98598472.636 6                  23689897.156    23689895.488
                  23689901.500                          41.400          36.700

 108620004.658 8  84482289.944 7                  20341038.227    20341037.496
                  20341039.875                          50.500          46.400

 125269994.022 7  97613021.16943                  23838087.250
                  23838090.543                          42.000          22.500

 123192698.153 7  95994372.31943                  23442808.555
                  23442810.266                          43.300          23.900

 107487982.982 7  83756902.061 8                  20454275.258
  20454280.781    20454281.246                          47.200          49.200

 112344134.777 8  87540952.967 7                  21378376.930
  21378382.863    21378382.859                          49.500          47.500

 111581251.070 8  86785431.600 7                  20844321.703    20844322.734
                  20844328.395                          49.600          45.800

 131326670.183 6 102332505.40642                  24990637.281
                  24990643.680                          38.200          17.400

 117291743.750 7  91396192.26344                  22319869.297
                  22319874.641                          45.400          28.900

 115727550.708 6  90010379.284 6                  21634046.625    21634045.543
                  21634050.969                          40.800          40.500

 19  3 26 19 31 30.0000000  0 20G16R06R18R08G27R10G09G05R16G08R17R09
                                G11G23G07G30R07G18G28R19
 133864640.183 6 104310100.91642                  25473587.484
                  25473592.652                          36.900          16.300

 119673979.061 7                                  22426865.328    22426862.957
                                                        42.000

 112967416.591 8  87863583.522 7                  21162602.492    21162601.293
                  21162605.781                          48.100          42.700

 120649412.168 7  93838478.249 6                  22530431.797    22530432.125
                  22530437.434                          44.300          40.900

 120140313.162 7  93615853.522 7                  22861932.258
  22861937.957    22861938.129                          45.600          43.300

 124224393.511 7  96619062.989 5                  23304189.914    23304189.184
                  23304196.840                          44.900          35.000

 111873457.100 7  87174146.737 7                  21288806.922
  21288814.262    21288814.199                          47.000          47.800

 130237254.053 6 101483603.776 6                  24783331.266
  24783337.141    24783337.547                          39.100          36.700

 111663228.801 7  86849240.396 6                  20903593.609    20903593.230
                  20903597.250                          44.600          39.400

 111210659.419 8  86657681.297 8                  21162671.914
  21162678.492    21162678.781                          48.400          48.500

 126862483.934 6  98670851.826 6                  23707287.563    23707285.660
                  23707292.965                          41.300          36.700

 108582624.194 8  84453216.244 7                  20334037.430    20334036.465
                  20334040.133                          49.900          46.500

 125179250.120 6  97542311.66043                  23820816.992
                  23820822.336                          41.000          22.500

 123302139.328 6  96079651.06943                  23463633.469
                  23463636.762                          41.500          22.200

 107475032.133 8  83746810.479 8                  20451814.477
  20451816.367    20451816.480                          50.300          48.800

 112284012.493 8  87494104.442 7                  21366935.945
  21366941.703    21366941.758                          48.300          47.300

 111620739.260 8  86816144.636 7                  20851699.281    20851698.785
                  20851704.684                          49.900          46.500

 131239503.654 6 102264583.53142                  24974050.219
                  24974056.441                          38.900          16.300

 117228656.221 7  91347033.19944                  22307864.789
                  22307869.195                          43.900          29.600

 115624588.628 6  89930297.710 6                  21614800.547    21614798.527
                  21614803.367                          40.400          40.000

 19  3 26 19 32  0.0000000  0 20G16R06R18R08G27R10G09G05R16G08R17R09
                                G11G23G07G30R07G18G28R19
 133967909.262 6 104390570.32742                  25493238.469
                  25493243.813                          36.300          14.800

 119796591.580 6                                  22449839.148    22449838.184
                                                        40.900

 112970120.771 8  87865686.763 7                  21163108.875    21163107.910
                  21163112.164                          48.100          42.600

 120583192.565 7  93786974.123 6                  22518067.195    22518066.465
                  22518070.836                          44.300          41.600

 120219381.195 7  93677464.933 7                  22876978.039
  22876983.855    22876983.500                          44.100          42.400

 124143727.879 7  96556323.164 5                  23289055.391    23289055.719
                  23289064.195                          42.600          34.800

 111951884.160 7  87235258.713 7                  21303730.641
  21303737.277    21303737.449                          46.200          47.300

 130264949.438 6 101505184.557 6                  24788602.781
  24788607.953    24788608.711                          41.400          38.300

 111718056.844 7  86891884.444 6                  20913858.023    20913856.238
                  20913860.141                          45.000          39.800

 111231392.276 7  86673836.759 7                  21166617.156
  21166623.617    21166623.848                          47.000          47.900

 126956051.188 7  98743626.295 6                  23724773.289    23724772.090
                  23724780.215                          42.300          37.800

 108545453.637 8  84424305.834 7                  20327076.148    20327075.652
                  20327079.320                          49.200          46.800

 125088644.435 6  97471709.91243                  23803575.688
                  23803580.563                          41.100          21.500

 123411747.426 6  96165059.89043                  23484490.445
                  23484494.734                          41.100          23.800

 107462384.446 8  83736955.166 8                  20449407.383
  20449409.391    20449409.914                          50.200          48.600

 112224083.438 7  87447406.497 7                  21355530.828
  21355537.406    21355537.988                          47.900          47.600

 111660984.832 8  86847446.728 7                  20859218.727    20859217.293
                  20859222.953                          50.300          46.200

 131152386.506 6 102196700.10042                  24957471.883
                  24957478.516                          38.100          16.300

 117165846.445 7  91298090.55944                  22295912.883
                  22295917.230                          45.500          29.800

 115522073.691 6  89850563.916 6                  21595636.977    21595635.543
                  21595640.031                          41.000          39.100

 19  3 26 19 32 30.0000000  0 20G16R06R18R08G27R10G09G05R16G08R17R09
                                G11G23G07G30R07G18G28R19
 134071099.273 5                                  25512872.398
                                                        35.000

 119919395.246 6                                  22472853.367    22472850.176
                                                        38.900

 112973649.755 8  87868431.543 7                  21163770.102    21163768.785
                  21163773.156                          48.800          43.200

 120517637.325 7  93735986.754 6                  22505824.570    22505824.664
                  22505828.445                          44.300          40.100

 120298883.763 7  93739414.964 7                  22892106.477
  22892112.293    22892112.230                          43.600          42.400

 124063114.546 6  96493624.038 4                  23273931.945    23273932.742
                  23273939.457                          41.100          29.900

 112030727.366 7  87296694.955 7                  21318734.523
  21318740.750    21318740.805                          46.500          47.800

 130293094.704 6 101527115.889 6                  24793956.633
  24793964.676    24793964.379                          40.200          38.200

 111773053.619 7  86934659.698 6                  20924151.375    20924152.289
                  20924156.895                          44.600          39.300

 111252729.948 7  86690463.531 7                  21170677.547
  21170684.477    21170684.648                          47.300          47.600

 127050122.829 7  98816793.100 6                  23742354.523    23742352.270
                  23742360.043                          42.100          37.400

 108508493.115 8  84395558.770 7                  20320154.852    20320154.355
                  20320157.789                          50.100          47.000

 124998180.037 7  97401218.21543                  23786361.656
                  23786364.949                          42.300          22.200

 123521519.525 6  96250596.52244                  23505380.172
                  23505382.879                          41.400          24.600

 107450040.966 8  83727336.894 8                  20447058.008
  20447061.246    20447061.242                          50.000          48.900

 112164348.874 8  87400860.113 7                  21344163.766
  21344170.520    21344170.809                          49.600          47.500

 111701984.859 8  86879335.595 7                  20866876.414    20866876.152
                  20866881.816                          50.000          46.200

 131065322.115 6 102128857.78142                  24940904.352
                  24940910.691                          39.400          17.400

 117103314.630 7  91249364.48944                  22284012.875
                  22284017.105                          46.100          29.300

 115420010.344 6  89771181.354 6                  21576555.250    21576554.754
                  21576560.887                          40.500          40.100

 19  3 26 19 33  0.0000000  0 20G16R06R18R08G27R10G09G05R16G08R17R09
                                G11G23G07G30R07G18G28R19
 134174209.804 5                                  25532496.281
                                                        35.500

 120042385.958 6                                  22495901.633    22495900.199
                                                        39.700

 112978004.022 8  87871818.193 7                  21164585.773    21164584.809
                  21164589.414                          49.300          44.300

 120452749.848 7  93685518.747 6                  22493708.641    22493705.566
                  22493710.289                          43.500          40.200

 120378818.470 7  93801701.749 7                  22907317.523
  22907323.164    22907323.980                          43.700          42.100

 123982553.356 7  96430965.290 4                  23258821.477    23258820.746
                  23258826.527                          43.900          29.500

 112109984.622 7  87358453.842 8                  21333815.977
  21333823.668    21333823.371                          45.400          48.000

 130321688.393 6 101549396.632 6                  24799398.383
  24799405.840    24799405.426                          39.200          38.100

 111828219.017 7  86977566.106 6                  20934479.227    20934478.379
                  20934483.922                          43.800          39.800

 111274671.625 7  86707560.949 7                  21174851.719
  21174859.820    21174860.168                          46.900          47.900

 127144695.207 6  98890349.338 6                  23760026.070    23760025.105
                  23760033.113                          41.800          37.600

 108471742.905 8  84366975.288 7                  20313271.227    20313271.672
                  20313276.043                          49.300          47.300

 124907860.130 7  97330839.10843                  23769174.570
                  23769177.688                          42.000          23.200

 123631453.671 6  96336259.40243                  23526297.578
                  23526303.273                          40.200          22.800

 107438003.336 8  83717956.931 8                  20444765.617
  20444769.910    20444770.492                          48.800          48.600

 112104810.314 8  87354466.452 7                  21332833.703
  21332840.926    21332840.688                          48.900          47.700

 111743737.417 8  86911809.778 7                  20874675.156    20874675.367
                  20874681.496                          50.100          45.900

 130978313.618 6 102061059.02943                  24924347.172
                  24924353.746                          41.600          20.100

 117041060.708 7  91200854.96144                  22272165.445
                  22272170.730                          44.100          29.600

 115318403.494 6  89692153.854 6                  21557561.141    21557560.410
                  21557565.367                          40.600          39.600

 19  3 26 19 33 30.0000000  0 21G16R06R18R08G27R10G09G05R16G08R17R09
                                G11G23G07G30R07G18G28R19G13
 134277239.527 5                                  25552101.180
                                                        34.600

 120165558.663 6                                  22518985.102    22518983.551
                                                        41.300

 112983183.377 8  87875846.598 7                  21165556.797    21165555.246
                  21165560.203                          48.300          43.800

 120388532.329 7  93635571.815 6                  22481713.883    22481713.742
                  22481718.699                          43.700          40.600

 120459182.253 7  93864322.845 6                  22922610.266
  22922615.438    22922615.844                          43.900          41.100

 123902044.638 7  96368347.432 5                  23243717.977    23243716.777
                  23243724.668                          44.200          34.400

 112189653.432 7  87420533.400 7                  21348976.961
  21348983.891    21348984.414                          46.300          47.600

 130350728.244 6 101572025.098 5                  24804923.656
  24804929.824    24804930.230                          39.600          35.700

 111883552.755 7  87020603.426 6                  20944838.977    20944838.598
                  20944843.438                          44.800          39.700

 111297215.926 7  86725127.921 8                  21179142.055
  21179149.512    21179149.391                          47.200          48.000

 127239764.346 6  98964292.013 6                  23777792.180    23777791.449
                  23777797.699                          41.500          38.200

 108435203.013 8  84338555.387 7                  20306429.555    20306429.059
                  20306431.789                          49.800          46.200

 124817687.258 7  97260574.55643                  23752013.969
                  23752018.961                          42.300          22.500

 123741546.383 7  96422045.79643                  23547250.789
                  23547253.145                          42.400          23.900

 107426272.174 8  83708815.747 8                  20442534.352
  20442538.410    20442538.465                          49.300          49.000

 112045468.871 8  87308226.366 8                  21321541.195
  21321547.949    21321548.355                          48.200          48.000

 111786239.630 8  86944867.041 7                  20882616.516    20882615.551
                  20882620.859                          49.800          45.300

 130891364.013 6 101993306.16143                  24907800.898
                  24907807.648                          40.700          19.600

 116979084.413 7  91152561.78844                  22260372.070
                  22260376.945                          44.800          29.200

 115217257.591 7  89613484.851 6                  21538651.945    21538651.332
                  21538655.352                          42.400          39.300

 133752308.116 6 104222605.27042                  25452221.055
                  25452225.109                          37.300          15.600

 19  3 26 19 34  0.0000000  0 21G16R06R18R08G27R10G09G05R16G08R17R09
                                G11G23G07G30R07G18G28R19G13
 134380188.031 6 104711810.45452                  25571693.609
                  25571693.973                          37.500          16.300

 120288909.641 6                                  22542103.297    22542099.984
                                                        41.400

 112989188.289 7  87880517.075 7                  21166680.539    21166679.105
                  21166684.414                          47.600          43.400

 120324987.964 7  93586148.389 6                  22469850.703    22469849.504
                  22469853.055                          44.100          40.300

 120539972.841 7  93927276.518 6                  22937985.273
  22937989.156    22937989.680                          44.600          40.600

 123821587.594 7  96305769.816 5                  23228625.398    23228624.082
                  23228630.215                          44.100          34.900

 112269731.818 7  87482932.112 7                  21364215.328
  21364221.789    21364222.313                          45.900          47.200

 130380212.607 6 101594999.872 6                  24810535.102
  24810541.855    24810541.852                          39.800          37.100

 111939054.716 7  87063771.620 6                  20955228.547    20955228.168
                  20955232.656                          44.500          39.200

 111320362.056 8  86743163.878 8                  21183548.164
  21183554.625    21183554.504                          48.500          48.000

 127335326.945 6  99038618.462 6                  23795649.586    23795649.680
                  23795655.457                          40.900          38.000

 108398873.579 8  84310299.152 7                  20299626.773    20299626.750
                  20299628.539                          50.300          46.300

 124727665.773 7  97190427.99643                  23734883.625
                  23734887.914                          42.700          22.800

 123851795.813 6  96507954.35643                  23568228.992
                  23568232.813                          40.500          21.300

 107414849.649 8  83699915.077 8                  20440361.008
  20440363.895    20440364.535                          49.600          49.600

 111986326.198 7  87262141.179 7                  21310285.938
  21310293.629    21310294.152                          47.600          46.900

 111829489.584 8  86978505.882 7                  20890696.031    20890694.715
                  20890700.492                          49.300          46.100

 130804476.975 6 101925602.03543                  24891267.016
                  24891273.473                          41.100          19.300

 116917386.778 7  91104485.76544                  22248630.813
                  22248636.332                          44.200          29.400

 115116577.570 6  89535178.221 6                  21519833.578    21519831.676
                  21519835.461                          41.600          39.400

 133644024.684 6 104138228.47042                  25431614.484
                  25431619.594                          37.100          14.800

 19  3 26 19 34 30.0000000  0 21G16R06R18R08G27R10G09G05R16G08R17R09
                                G11G23G07G30R07G18G28R19G13
 134483053.037 6 104791964.88542                  25591267.086
                  25591271.316                          37.100          14.800

 120412433.635 6                                  22565248.875    22565247.676
                                                        40.900

 112996018.136 7  87885829.178 7                  21167959.930    21167958.145
                  21167964.039                          47.500          44.000

 120262118.568 7  93537249.976 6                  22458109.406    22458106.449
                  22458111.523                          43.400          40.400

 120621186.804 7  93990560.149 7                  22953439.305
  22953444.301    22953444.238                          44.100          42.300

 123741182.193 7  96243232.335 5                  23213540.227    23213538.559
                  23213546.449                          42.400          33.600

 112350216.827 7  87545647.685 7                  21379531.055
  21379537.281    21379537.980                          45.700          46.400

 130410139.740 6 101618319.610 5                  24816232.867
  24816237.160    24816237.566                          41.100          34.400

 111994724.263 7  87107070.152 6                  20965650.875    20965649.910
                  20965654.047                          44.200          38.400

 111344108.609 8  86761667.668 8                  21188065.758
  21188073.625    21188073.621                          48.300          48.400

 127431378.669 6  99113325.302 6                  23813601.672    23813600.004
                  23813604.609                          41.600          37.500

 108362754.418 8  84282206.461 7                  20292861.992    20292861.496
                  20292864.109                          49.600          47.100

 124637797.433 7  97120400.75144                  23717783.172
                  23717786.758                          43.600          24.400

 123962198.645 6  96593982.46942                  23589237.313
                  23589241.367                          39.900          17.400

 107403735.900 8  83691255.019 8                  20438245.883
  20438249.707    20438249.879                          50.500          49.100

 111927382.927 7  87216211.369 7                  21299069.539
  21299076.879    21299077.051                          46.800          47.100

 111873484.154 8  87012723.846 7                  20898913.930    20898912.965
                  20898919.684                          49.800          46.000

 130717655.174 6 101857948.74143                  24874745.609
                  24874752.125                          40.600          20.100

 116855967.123 7  91056626.34145                  22236944.172
                  22236948.402                          44.900          30.200

 115016367.345 6  89457236.977 6                  21501100.250    21501098.113
                  21501104.008                          41.300          40.800

 133535844.400 6 104053932.17342                  25411027.070
                  25411034.348                          36.300          14.800

 19  3 26 19 35  0.0000000  0 21G16R06R18R08G27R10G09G05R16G08R17R09
                                G11G23G07G30R07G18G28R19G13
 134585834.006 6 104872053.93442                  25610825.359
                  25610830.879                          37.200          15.600

 120536126.321 6                                  22588429.398    22588427.027
                                                        39.400

 113003673.182 7  87891783.136 7                  21169393.586    21169392.504
                  21169397.578                          47.200          43.500

 120199927.273 7  93488879.018 6                  22446494.180    22446493.566
                  22446499.230                          44.100          41.600

 120702821.555 7  94054171.575 6                  22968973.148
  22968978.438    22968979.313                          44.000          40.900

 123660828.476 6  96180735.151 5                  23198463.313    23198463.641
                  23198470.590                          41.700          31.800

 112431106.259 7  87608678.385 7                  21394923.828
  21394930.230    21394930.871                          46.000          47.100

 130440507.315 6 101641982.661 5                  24822010.984
  24822014.809    24822015.098                          41.700          35.300

 112050561.368 7  87150499.034 6                  20976102.477    20976101.512
                  20976105.766                          43.500          38.800

 111368454.386 8  86780638.412 8                  21192698.789
  21192706.363    21192706.418                          48.600          49.000

 127527915.761 6  99188409.677 6                  23831641.914    23831640.598
                  23831645.672                          41.300          37.100

 108326846.072 8  84254277.745 7                  20286137.555    20286137.883
                  20286140.844                          49.300          46.700

 124548085.173 7  97050495.12744                  23700711.672
                  23700714.789                          44.100          24.400

 124072752.348 6  96680128.20743                  23610274.602
                  23610279.359                          39.900          19.600

 107392932.009 8  83682836.402 8                  20436189.914
  20436194.207    20436194.320                          50.800          49.500

 111868640.611 7  87170438.169 7                  21287891.641
  21287898.629    21287898.801                          47.600          47.600

 111918220.931 8  87047519.088 7                  20907271.852    20907270.652
                  20907276.902                          48.600          45.900

 130630901.732 7 101790348.69643                  24858236.711
                  24858243.930                          42.300          21.700

 116794825.517 7  91008983.57045                  22225310.180
                  22225313.238                          46.000          30.400

 114916631.625 6  89379664.815 6                  21482455.195    21482453.293
                  21482459.070                          41.000          40.900

 133427770.017 6                                  25390462.625
                                                        38.300

 19  3 26 19 35 30.0000000  0 21G16R06R18R08G27R10G09G05R16G08R17R09
                                G11G23G07G30R07G18G28R19G13
 134688530.381 6 104952077.04742                  25630368.875
                  25630373.691                          38.700          17.800

 120659983.425 6                                  22611639.102    22611637.902
                                                        39.200

 113012153.535 8  87898378.962 7                  21170982.680    21170981.246
                  21170986.438                          48.200          43.600

 120138416.735 7  93441037.477 7                  22435008.563    22435007.832
                  22435013.379                          44.600          42.200

 120784874.619 7  94118109.013 7                  22984586.836
  22984593.238    22984594.289                          42.700          42.000

 123580526.335 7  96118277.942 4                  23183402.156    23183400.488
                  23183405.797                          43.200          27.900

 112512398.137 7  87672022.677 7                  21410392.953
  21410399.883    21410399.996                          46.200          46.900

 130471314.160 6 101665987.941 6                  24827871.141
  24827878.012    24827877.598                          40.800          36.600

 112106566.194 7  87194058.317 6                  20986587.719    20986587.223
                  20986591.477                          44.300          39.400

 111393398.738 8  86800075.575 8                  21197445.508
  21197452.965    21197452.727                          49.300          48.100

 127624934.681 7  99263868.834 6                  23849770.984    23849769.434
                  23849775.211                          42.100          36.900

 108291148.685 8  84226513.145 7                  20279451.875    20279451.613
                  20279455.984                          49.000          46.900

 124458532.739 7  96980714.03343                  23683668.883
                  23683672.703                          43.000          22.500

 124183454.558 6  96766389.59643                  23631340.172
                  23631344.344                          40.000          20.100

 107382439.930 8  83674660.760 8                  20434193.625
  20434197.098    20434197.270                          50.600          49.300

 111810100.901 8  87124822.813 8                  21276753.664
  21276759.598    21276759.477                          49.600          48.900

 111963697.247 8  87082889.535 7                  20915766.609    20915765.762
                  20915772.129                          48.700          46.000

 130544220.409 6 101722804.92243                  24841741.195
                  24841748.180                          41.600          20.400

 116733962.339 7  90961557.75945                  22213727.414
                  22213731.645                          45.500          30.300

 114817375.346 7  89302465.538 6                  21463900.664    21463898.879
                  21463903.719                          42.500          41.000

 133319804.188 6 103885587.17042                  25369917.023
                  25369922.426                          37.600          15.600

 19  3 26 19 36  0.0000000  0 21G16R06R18R08G27R10G09G05R16G08R17R09
                                G11G23G07G30R07G18G28R19G13
 134791141.271 6 105032033.57342                  25649894.961
                  25649899.367                          37.900          16.300

 120784000.441 6                                  22634881.844    22634877.828
                                                        39.300

 113021458.806 7  87905616.401 7                  21172726.742    21172726.480
                  21172730.734                          47.000          43.300

 120077589.293 7  93393727.287 6                  22423648.289    22423647.090
                  22423653.223                          43.500          41.300

 120867342.997 7  94182370.075 7                  23000281.047
  23000287.625    23000286.918                          43.400          42.800

 123500275.703 7  96055860.768 5                  23168346.789    23168345.238
                  23168352.309                          45.500          32.400

 112594089.788 7  87735678.501 7                  21425938.898
  21425945.301    21425945.414                          46.700          47.500

 130502557.489 6 101690333.371 5                  24833817.406
  24833822.988    24833822.516                          41.100          35.700

 112162738.230 7  87237747.670 6                  20997101.195    20997101.406
                  20997106.715                          43.500          39.400

 111418940.216 7  86819978.021 7                  21202306.398
  21202313.035    21202312.973                          47.900          47.900

 127722431.520 7  99339699.698 6                  23867993.711    23867989.227
                  23867994.066                          42.300          36.400

 108255662.306 8  84198912.628 7                  20272807.648    20272807.152
                  20272810.469                          50.200          46.900

 124369142.844 7  96911059.62543                  23666659.625
                  23666663.270                          42.600          23.000

 124294302.475 6  96852764.50243                  23652433.609
                  23652439.305                          40.800          21.300

 107372260.163 8  83666728.481 8                  20432256.086
  20432259.910    20432260.316                          50.200          48.800

 111751764.861 8  87079366.173 8                  21265651.781
  21265658.887    21265658.941                          48.300          48.400

 112009910.676 8  87118833.259 7                  20924399.469    20924399.328
                  20924405.340                          49.100          45.300

 130457614.075 6 101655319.49743                  24825260.320
                  24825267.539                          39.400          19.600

 116673377.432 7  90914348.77344                  22202198.883
                  22202202.117                          46.400          29.300

 114718602.733 6  89225642.426 6                  21445434.742    21445433.660
                  21445439.320                          41.100          40.600

 133211949.258 6 103801544.20642                  25349392.695
                  25349398.625                          39.500          15.600

 19  3 26 19 36 30.0000000  0 21G16R06R18R08G27R10G09G05R16G08R17R09
                                G11G23G07G30R07G18G28R19G13
 134893665.263 6 105111922.30142                  25669404.148
                  25669409.727                          37.300          15.600

 120908173.175 6                                  22658151.508    22658149.254
                                                        40.400

 113031588.810 8  87913495.301 7                  21174623.508    21174623.246
                  21174628.203                          48.800          43.700

 120017447.537 7  93346950.397 6                  22412415.398    22412416.430
                  22412421.621                          43.000          41.500

 120950223.753 7  94246952.437 7                  23016052.172
  23016059.863    23016060.152                          44.100          43.200

 123420076.633 7  95993483.776 5                  23153301.031    23153301.242
                  23153309.602                          43.700          35.400

 112676178.681 7  87799643.834 7                  21441559.477
  21441565.762    21441566.461                          46.000          47.300

 130534236.060 6 101715017.957 6                  24839846.805
  24839851.508    24839851.797                          40.800          36.800

 112219077.125 7  87281566.801 6                  21007648.180    21007648.156
                  21007654.051                          43.000          39.800

 111445077.397 7  86840344.665 7                  21207279.406
  21207286.746    21207286.859                          47.900          47.800

 127820402.133 6  99415899.019 6                  23886299.359    23886297.574
                  23886302.063                          41.900          36.000

 108220386.950 8  84171476.242 7                  20266201.852    20266201.238
                  20266204.203                          50.200          47.500

 124279918.395 7  96841534.09444                  23649680.289
                  23649683.758                          43.700          25.800

 124405293.443 7  96939250.93843                  23673555.063
                  23673560.348                          42.400          22.800

 107362393.782 8  83659040.390 8                  20430378.859
  20430382.508    20430382.738                          50.500          48.700

 111693633.695 8  87034069.136 8                  21254590.688
  21254597.207    21254596.969                          48.200          48.500

 112056858.107 8  87155347.926 7                  20933170.695    20933169.496
                  20933174.922                          49.900          46.000

 130371085.816 6 101587894.94043                  24808793.695
                  24808801.734                          38.600          18.300

 116613070.673 7  90867356.51945                  22190722.023
                  22190726.781                          44.700          30.000

 114620318.131 6  89149198.937 6                  21427061.164    21427059.848
                  21427065.273                          41.200          40.600

 133104207.301 6 103717589.53442                  25328890.172
                  25328895.691                          36.400          15.600

 19  3 26 19 37  0.0000000  0 21G16R06R18R08G27R10G09G05R16G08R17R09
                                G11G23G07G30R07G18G28R19G13
 134996101.405 6 105191742.74442                  25688896.617
                  25688903.074                          37.400          15.600

 121032496.808 6                                  22681449.969    22681447.012
                                                        39.600

 113042543.628 7  87922015.716 7                  21176674.617    21176674.355
                  21176680.488                          47.500          44.200

 119957994.086 7  93300708.846 6                  22401314.219    22401314.195
                  22401319.855                          43.300          40.900

 121033514.437 7  94311854.252 7                  23031901.555
  23031910.184    23031910.355                          43.300          44.300

 123339928.941 6  95931146.826 5                  23138264.922    23138263.605
                  23138272.551                          41.100          35.600

 112758662.836 7  87863917.182 7                  21457256.461
  21457262.980    21457263.035                          47.100          47.300

 130566347.928 6 101740040.118 6                  24845957.422
  24845963.590    24845962.941                          40.900          36.900

 112275583.336 7  87325516.052 6                  21018226.031    21018226.359
                  21018231.551                          43.900          38.900

 111471809.552 7  86861174.907 7                  21212366.195
  21212373.711    21212373.766                          47.300          47.800

 127918843.109 6  99492464.189 6                  23904695.531    23904693.277
                  23904698.820                          41.200          36.200

 108185323.107 8  84144204.362 7                  20259634.945    20259634.922
                  20259638.000                          50.200          47.000

 124190862.809 7  96772140.16444                  23632732.641
                  23632737.574                          43.200          24.700

 124516425.075 7  97025846.85043                  23694705.055
                  23694707.703                          43.200          22.900

 107352842.392 8  83651597.737 8                  20428560.078
  20428564.430    20428564.660                          49.300          48.300

 111635709.039 8  86988933.040 8                  21243567.758
  21243573.926    21243573.980                          48.300          48.000

 112104537.317 8  87192431.735 7                  20942076.992    20942076.027
                  20942081.688                          49.500          44.800

 130284639.225 6 101520534.05643                  24792343.578
                  24792351.266                          38.300          18.600

 116553042.521 7  90820581.39545                  22179299.906
                  22179304.137                          45.000          30.900

 114522526.581 6  89073138.878 6                  21408780.883    21408780.152
                  21408785.344                          41.300          41.400

 132996581.408 5 103633725.12242                  25308409.031
                  25308415.488                          34.300          15.600

 19  3 26 19 37 30.0000000  0 21G16R06R18R08G27R10G09G05R16G08R17R09
                                G11G23G07G30R07G18G28R19G13
 135098448.653 6 105271493.88042                  25708373.742
                  25708379.145                          36.900          12.600

 121156967.038 6                                  22704775.414    22704772.574
                                                        38.900

 113054322.762 8  87931177.279 7                  21178881.633    21178881.609
                  21178887.270                          48.100          43.900

 119899231.424 7  93255004.500 6                  22390341.320    22390340.238
                  22390346.016                          43.400          39.900

 121117212.130 7  94377073.204 7                  23047829.375
  23047837.066    23047836.652                          43.400          44.000

 123259832.776 7  95868849.946 5                  23123237.500    23123237.711
                  23123246.656                          42.800          34.200

 112841539.631 7  87928496.475 7                  21473026.469
  21473033.457    21473033.805                          45.900          47.200

 130598890.861 6 101765398.287 6                  24852147.695
  24852154.801    24852154.797                          39.300          36.500

 112332256.312 7  87369595.000 6                  21028834.938    21028834.559
                  21028840.809                          43.600          39.600

 111499135.729 7  86882468.026 7                  21217566.320
  21217573.016    21217573.305                          47.300          46.800

 128017750.404 6  99569392.101 6                  23923176.039    23923175.660
                  23923182.379                          40.700          36.800

 108150470.851 8  84117097.047 7                  20253108.758    20253108.617
                  20253110.641                          50.300          46.800

 124101978.929 7  96702880.01843                  23615819.453
                  23615823.977                          42.200          21.800

 124627694.403 6  97112550.16944                  23715876.906
                  23715881.723                          41.700          24.100

 107343606.728 8  83644401.118 8                  20426803.359
  20426806.773    20426807.121                          50.600          48.400

 111577992.100 7  86943958.825 8                  21232581.156
  21232590.840    21232590.719                          45.900          48.300

 112152945.436 8  87230082.465 7                  20951119.930    20951118.730
                  20951124.863                          49.300          45.300

 130198277.357 6 101453239.20442                  24775908.867
                  24775917.492                          37.900          17.800

 116493292.612 7  90774023.07045                  22167929.773
                  22167932.949                          46.100          30.400

 114425232.277 6  88997465.578 6                  21390592.563    21390590.660
                  21390596.672                          41.000          41.000

 132889073.737 6 103549952.99942                  25287951.758
                  25287958.449                          38.700          14.800

 19  3 26 19 38  0.0000000  0 21G16R06R18R08G27R10G09G05R16G08R17R09
                                G11G23G07G30R07G18G28R19G13
 135200706.775 6 105351175.43842                  25727832.320
                  25727838.426                          36.900          13.900

 121281580.025 6                                  22728128.211    22728125.254
                                                        39.500

 113066926.468 8  87940980.158 7                  21181243.742    21181243.012
                  21181246.914                          48.500          42.800

 119841162.323 7  93209839.695 6                  22379497.609    22379496.527
                  22379500.664                          44.400          40.000

 121201314.448 7  94442607.433 7                  23063832.828
  23063841.281    23063840.633                          43.000          42.900

 123179788.275 7  95806593.150 4                  23108222.516    23108222.844
                  23108228.855                          44.600          29.400

 112924807.131 7  87993380.214 7                  21488872.250
  21488879.473    21488879.176                          46.400          47.800

 130631863.164 6 101791090.927 6                  24858422.844
  24858430.652    24858430.473                          40.600          37.700

 112389096.226 7  87413803.803 6                  21039475.758    21039474.793
                  21039481.863                          42.900          39.700

 111527054.501 7  86904222.902 8                  21222879.180
  21222886.051    21222886.047                          47.300          48.000

 128117120.682 6  99646680.077 6                  23941747.508    23941745.254
                  23941751.969                          40.700          37.600

 108115830.848 8  84090154.823 7                  20246621.484    20246621.695
                  20246624.891                          50.300          47.300

 124013270.436 7  96633756.54444                  23598939.422
                  23598942.363                          42.700          24.400

 124739099.339 6  97199359.13043                  23737076.320
                  23737082.426                          40.600          23.600

 107334688.561 8  83637451.899 8                  20425106.469
  20425110.000    20425110.230                          50.300          48.900

 111520484.573 7  86899147.802 7                  21221636.680
  21221647.066    21221647.180                          44.900          47.900

 112202079.943 8  87268298.160 7                  20960298.820    20960298.559
                  20960304.691                          49.000          46.000

 130112003.742 6                                  24759492.570
                                                        37.600

 116433821.229 7  90727681.76244                  22156611.672
                  22156616.078                          43.900          29.800

 114328440.325 6  88922182.989 6                  21372498.305    21372496.871
                  21372502.531                          41.100          41.400

 132781687.324 6 103466275.27142                  25267518.875
                  25267524.160                          39.700          16.300

 19  3 26 19 38 30.0000000  0 21G16R06R18R08G27R10G09G05R16G08R17R09
                                G11G23G07G30R07G18G28R19G13
 135302874.329 5                                  25747273.000
                                                        35.300

 121406330.588 6                                  22751505.641    22751503.270
                                                        39.800

 113080353.768 8  87951423.606 7                  21183760.125    21183760.102
                  21183763.297                          48.500          42.900

 119783788.715 7  93165215.787 6                  22368784.391    22368782.488
                  22368786.625                          45.100          40.400

 121285817.977 7  94508454.376 7                  23079914.289
  23079920.984    23079920.922                          44.300          42.300

 123099795.140 7  95744376.185 5                  23093217.086    23093216.355
                  23093221.781                          44.500          30.700

 113008462.317 7  88058566.054 7                  21504790.617
  21504798.250    21504798.363                          46.300          47.200

 130665262.650 6 101817116.444 6                  24864778.648
  24864785.695    24864785.750                          40.200          37.900

 112446102.402 7  87458141.934 6                  21050148.984    21050147.551
                  21050152.742                          43.600          39.600

 111555564.001 8  86926438.100 8                  21228305.500
  21228311.961    21228311.488                          48.300          48.100

 128216949.404 6  99724324.607 6                  23960403.109    23960401.441
                  23960406.984                          40.900          36.900

 108081402.542 8  84063377.256 7                  20240173.898    20240174.109
                  20240178.008                          49.800          47.400

 123924739.747 7  96564771.63143                  23582092.039
                  23582094.805                          42.000          22.300

 124850637.033 6  97286271.51143                  23758301.422
                  23758307.000                          39.200          21.700

 107326088.515 8  83630750.584 8                  20423470.273
  20423472.984    20423473.332                          50.600          49.000

 111463187.430 8  86854500.715 8                  21210735.703
  21210743.805    21210743.918                          48.000          48.600

 112251937.531 8  87307076.261 7                  20969612.875    20969612.145
                  20969618.160                          49.500          46.000

 130025821.227 6                                  24743093.148
                                                        36.500

 116374628.268 7  90681557.42444                  22145346.758
                  22145351.867                          44.600          29.200

 114232154.461 6  88847294.073 6                  21354498.109    21354496.910
                  21354502.688                          41.400          41.900

 132674424.142 6 103382693.57742                  25247106.672
                  25247112.133                          38.200          16.300

 19  3 26 19 39  0.0000000  0 21G16R06R18R08G27R10G09G05R16G08R17R09
                                G11G23G07G30R07G18G28R19G13
 135404950.874 5                                  25766699.555
                                                        35.500

 121531214.531 6                                  22774909.430    22774907.410
                                                        40.400

 113094604.581 7  87962507.580 7                  21186428.305    21186427.809
                  21186432.414                          47.900          42.700

 119727113.364 7  93121134.951 6                  22358198.508    22358198.953
                  22358203.793                          44.000          40.800

 121370720.288 7  94574612.022 7                  23096070.492
  23096077.012    23096077.301                          43.600          42.800

 123019853.768 7  95682199.636 5                  23078219.367    23078218.051
                  23078226.645                          42.800          34.200

 113092503.119 7  88124052.391 7                  21520783.422
  21520789.766    21520789.879                          45.200          46.800

 130699087.555 6 101843473.479 6                  24871215.898
  24871222.945    24871223.234                          41.400          38.900

 112503275.098 7  87502609.560 6                  21060852.383    21060852.242
                  21060857.199                          44.100          40.000

 111584663.718 7  86949113.217 7                  21233841.148
  21233849.133    21233848.953                          46.900          47.900

 128317232.962 6  99802322.877 6                  23979144.164    23979142.145
                  23979148.625                          41.300          37.600

 108047186.628 8  84036764.896 7                  20233767.234    20233766.504
                  20233769.234                          50.200          47.700

 123836390.156 6  96495927.84643                  23565277.883
                  23565282.758                          40.400          22.900

 124962304.911 6  97373285.28043                  23779553.313
                  23779556.781                          40.000          21.800

 107317808.081 8  83624298.293 8                  20421894.172
  20421898.348    20421898.461                          50.100          49.500

 111406102.290 7  86810018.802 8                  21199874.570
  21199881.383    21199880.969                          47.200          48.400

 112302515.566 8  87346414.711 7                  20979061.320    20979060.004
                  20979066.254                          49.800          45.500

 129939733.637 5                                  24726710.063
                                                        32.300

 116315713.972 7  90635650.22244                  22134136.820
                  22134141.109                          44.100          29.800

 114136379.688 7  88772802.648 6                  21336595.000    21336593.332
                  21336597.820                          42.100          40.800

 132567286.968 6 103299210.09042                  25226718.703
                  25226725.219                          36.900          17.400

 19  3 26 19 39 30.0000000  0 21G16R06R18R08G27R10G09G05R16G08R17R09
                                G11G23G07G30R07G18G28R19G13
 135506935.726 5                                  25786106.297
                                                        35.500

 121656227.729 6                                  22798336.203    22798335.473
                                                        41.100

 113109678.566 8  87974231.797 7                  21189252.703    21189251.855
                  21189255.875                          48.200          42.700

 119671138.597 7  93077599.034 6                  22347744.461    22347744.789
                  22347750.566                          42.800          41.600

 121456018.562 7  94641078.179 7                  23112302.297
  23112308.406    23112308.988                          42.600          42.500

 122939963.009 7  95620062.527 6                  23063234.273    23063233.543
                  23063240.848                          44.700          36.500

 113176927.071 7  88189837.269 7                  21536848.602
  21536856.117    21536856.289                          45.300          47.000

 130733335.754 6 101870160.265 6                  24877732.703
  24877740.629    24877741.035                          40.300          38.800

 112560614.200 7  87547206.622 6                  21071586.453    21071585.605
                  21071591.148                          44.500          40.100

 111614352.072 7  86972246.992 8                  21239492.625
  21239500.141    21239499.961                          47.200          49.000

 128417967.569 7  99880672.014 6                  23997967.852    23997966.652
                  23997973.254                          42.200          37.300

 108013183.261 8  84010317.837 7                  20227397.727    20227398.406
                  20227401.836                          50.200          47.000

 123748224.653 6  96427227.52843                  23548501.141
                  23548506.016                          40.800          23.900

 125074100.256 6  97460398.45443                  23800825.117
                  23800830.520                          38.000          19.000

 107309848.248 8  83618095.819 8                  20420379.289
  20420383.113    20420383.227                          50.600          49.000

 111349230.519 8  86765703.137 8                  21189053.820
  21189058.758    21189058.695                          49.300          48.500

 112353811.579 8  87386311.609 7                  20988642.914    20988642.418
                  20988647.492                          49.700          44.900

 129853743.542 5                                  24710347.180
                                                        31.500

 116257078.390 7  90589960.18845                  22122979.594
                  22122983.883                          45.000          30.700

 114041120.263 7  88698712.020 6                  21318786.813    21318786.199
                  21318790.219                          42.400          40.400

 132460278.160 6 103215826.63242                  25206354.563
                  25206362.367                          39.400          16.900

 19  3 26 19 40  0.0000000  0 21G16R06R18R08G27R10G09G05R16G08R17R09
                                G11G23G07G30R07G18G28R19G13
 135608827.645 5                                  25805493.805
                                                        34.100

 121781365.709 6                                  22821788.391    22821785.316
                                                        39.800

 113125574.928 8  87986595.643 7                  21192230.766    21192230.270
                  21192235.461                          48.300          43.800

 119615866.604 7  93034609.748 6                  22337423.266    22337424.648
                  22337429.020                          44.500          40.500

 121541709.725 7  94707850.476 7                  23128607.891
  23128615.113    23128615.520                          43.100          42.300

 122860123.975 7  95557965.592 5                  23048255.930    23048254.848
                  23048262.270                          44.800          35.400

 113261731.551 7  88255918.647 7                  21552986.688
  21552993.910    21552994.082                          46.200          47.400

 130768005.127 6 101897175.311 6                  24884330.234
  24884336.871    24884337.219                          39.900          36.800

 112618119.194 7  87591932.714 6                  21082350.758    21082351.086
                  21082355.809                          44.500          39.300

 111644627.662 7  86995838.364 7                  21245253.250
  21245260.355    21245260.176                          47.300          47.800

 128519149.003 6  99959368.664 6                  24016875.813    24016874.262
                  24016881.215                          41.400          36.700

 107979392.615 8  83984036.225 7                  20221070.258    20221070.469
                  20221073.430                          50.200          47.400

 123660246.241 6  96358672.96643                  23531758.141
                  23531764.363                          39.400          21.800

 125186020.397 6  97547608.84443                  23822124.656
                  23822128.652                          39.500          20.900

 107302210.033 8  83612143.960 8                  20418925.594
  20418929.477    20418929.648                          50.100          49.400

 111292573.276 8  86721554.630 7                  21178272.266
  21178276.559    21178276.672                          49.500          47.900

 112405822.070 8  87426764.184 7                  20998359.344    20998357.910
                  20998364.160                          48.800          45.100

 129767854.617 5                                  24694003.742
                                                        35.600

 116198721.087 7  90544487.01845                  22111874.688
                  22111879.387                          45.800          30.800

 113946380.671 7  88625025.700 6                  21301075.289    21301075.148
                  21301079.867                          43.200          40.900

 132353399.925 6 103132544.93642                  25186017.250
                  25186023.180                          39.000          14.800

 19  3 26 19 40 30.0000000  0 21G16R06R18R08G27R10G09G05R16G08R17R09
                                G11G23G07G30R07G18G28R19G13
 135710625.865 5                                  25824866.813
                                                        33.200

 121906624.135 6                                  22845262.227    22845258.680
                                                        37.600

 113142293.671 8  87999599.100 7                  21195362.555    21195362.531
                  21195367.605                          48.000          43.500

 119561299.688 7  92992168.863 6                  22327235.773    22327233.754
                  22327237.773                          44.700          40.700

 121627791.369 7  94774927.020 7                  23144989.703
  23144996.047    23144995.926                          43.400          42.200

 122780336.452 7  95495908.691 5                  23033286.555    23033286.648
                  23033293.832                          43.900          33.600

 113346914.478 7  88322294.917 7                  21569196.109
  21569203.742    21569203.855                          46.000          47.400

 130803093.881 6 101924517.202 6                  24891007.555
  24891013.840    24891013.953                          41.100          37.300

 112675790.425 7  87636788.110 6                  21093146.984    21093146.488
                  21093150.859                          43.800          38.200

 111675489.557 7  87019886.599 8                  21251126.547
  21251133.477    21251132.945                          46.600          48.200

 128620774.022 6 100038410.351 6                  24035866.117    24035865.621
                  24035872.457                          41.000          36.200

 107945815.173 8  83957920.442 7                  20214783.758    20214783.262
                  20214785.992                          50.300          47.000

 123572458.479 6  96290266.95043                  23515055.797
                  23515058.738                          40.600          23.900

 125298063.120 6  97634914.79043                  23843444.234
                  23843448.172                          40.200          18.300

 107294895.026 8  83606443.952 8                  20417533.594
  20417537.594    20417537.707                          49.900          49.500

 111236132.333 8  86677574.672 7                  21167533.234
  21167535.652    21167536.469                          49.200          47.800

 112458544.574 8  87467770.546 7                  21008208.852    21008207.535
                  21008213.195                          49.200          44.900

 129682070.079 6 101050988.09142                  24677680.297
                  24677685.230                          39.500          17.400

 116140642.365 7  90499230.91445                  22100822.281
                  22100826.395                          44.500          30.700

 113852165.610 7  88551747.369 6                  21283463.836    21283462.402
                  21283466.422                          42.600          39.700

 132246655.542 6 103049367.50842                  25165703.219
                  25165710.438                          36.500          14.800

 19  3 26 19 41  0.0000000  0 21G16R06R18R08G27R10G09G05R16G08R17R09
                                G11G23G07G30R07G18G28R19G13
 135812329.791 5                                  25844218.422
                                                        31.900

 122031998.852 6                                  22868754.391    22868752.957
                                                        37.300

 113159834.113 8  88013241.656 7                  21198649.148    21198648.652
                  21198652.438                          49.000          43.200

 119507440.694 7  92950278.524 7                  22317178.156    22317177.309
                  22317181.914                          44.500          42.300

 121714260.670 7  94842305.692 6                  23161443.672
  23161449.195    23161449.543                          43.000          40.400

 122700600.112 7  95433891.529 5                  23018329.195    23018327.645
                  23018333.891                          43.700          32.400

 113432473.322 7  88388964.135 7                  21585477.547
  21585484.242    21585484.590                          45.800          46.800

 130838600.160 7 101952184.409 6                  24897766.703
  24897771.465    24897771.520                          43.200          38.000

 112733627.969 7  87681772.826 6                  21103974.422    21103973.105
                  21103977.125                          44.000          37.900

 111706936.111 7  87044390.410 8                  21257110.086
  21257117.660    21257117.188                          47.800          48.400

 128722838.410 6 100117793.753 6                  24054940.844    24054939.059
                  24054946.129                          41.000          36.000

 107912451.255 8  83931970.741 7                  20208536.016    20208535.168
                  20208537.898                          50.500          47.400

 123484864.301 6  96222011.83143                  23498386.438
                  23498389.438                          41.800          23.800

 125410225.460 6  97722313.85142                  23864789.367
                  23864792.602                          40.800          16.900

 107287904.348 8  83600996.673 8                  20416202.906
  20416207.082    20416207.547                          49.900          49.300

 111179909.093 8  86633764.366 8                  21156832.578
  21156837.574    21156838.098                          49.600          48.300

 112511976.066 8  87509328.342 7                  21018191.750    21018190.551
                  21018195.273                          49.800          45.500

 129596393.594 6 100984227.21443                  24661375.094
                  24661381.785                          40.400          19.000

 116082842.307 7  90454191.93245                  22089822.805
                  22089826.977                          45.700          30.200

 113758479.474 7  88478880.392 6                  21265950.289    21265948.621
                  21265952.992                          42.600          39.900

 132140047.623 6 102966296.37742                  25145415.383
                  25145423.949                          37.200          15.600

 19  3 26 19 41 30.0000000  0 21G16R06R18R08G27R10G09G05R16G08R17R09
                                G11G23G07G30R07G18G28R19G13
 135913938.464 5                                  25863556.969
                                                        31.900

 122157485.471 6                                  22892271.430    22892270.699
                                                        38.400

 113178195.754 8  88027522.913 7                  21202087.984    21202087.488
                  21202091.977                          48.400          43.400

 119454291.539 7  92908940.252 7                  22307252.180    22307252.273
                  22307257.465                          44.700          42.200

 121801114.817 7  94909984.198 6                  23177972.445
  23177977.559    23177977.496                          44.000          40.800

 122620915.410 7  95371914.624 5                  23003377.766    23003377.504
                  23003384.926                          42.500          32.300

 113518405.671 7  88455924.385 7                  21601830.008
  21601836.586    21601837.109                          45.600          46.900

 130874521.582 7 101980175.099 6                  24904601.125
  24904607.762    24904607.816                          42.200          37.700

 112791631.361 7  87726886.587 6                  21114832.594    21114832.570
                  21114836.117                          43.800          37.300

 111738966.323 7  87069349.006 7                  21263205.531
  21263211.875    21263211.695                          47.200          47.900

 128825338.429 6 100197515.954 5                  24074096.102    24074093.965
                  24074100.680                          40.200          35.300

 107879301.132 8  83906187.308 7                  20202327.508    20202327.484
                  20202329.742                          50.300          47.400

 123397466.843 6  96153909.98843                  23481752.875
                  23481758.102                          41.700          22.600

 125522505.020 6  97809804.44743                  23886155.117
                  23886158.176                          39.900          19.600

 107281239.072 8  83595802.946 8                  20414935.148
  20414939.324    20414939.379                          49.100          49.200

 111123904.876 8  86590124.725 8                  21146173.766
  21146180.344    21146180.457                          48.100          48.000

 112566113.614 8  87551435.318 7                  21028303.867    21028303.020
                  21028308.563                          49.300          45.700

 129510828.176 7 100917552.96143                  24645092.078
                  24645099.121                          42.300          22.200

 116025320.859 7  90409370.06245                  22078877.383
                  22078881.496                          46.900          31.600

 113665326.674 7  88406428.245 6                  21248536.836    21248535.285
                  21248539.891                          42.300          39.800

 132033578.494 6 102883333.48742                  25125157.008
                  25125163.465                          40.500          16.300

 19  3 26 19 42  0.0000000  0 21G16R06R18R08G27R10G09G05R16G08R17R09
                                G11G23G07G30R07G18G28R19G13
 136015451.371 4                                  25882873.844
                                                        29.400

 122283079.308 6                                  22915810.016    22915807.059
                                                        39.900

 113197377.807 8  88042442.301 7                  21205681.461    21205680.613
                  21205686.039                          48.100          43.700

 119401854.364 7  92868155.794 7                  22297459.805    22297458.840
                  22297465.207                          43.800          42.700

 121888350.861 7  94977960.309 6                  23194572.984
  23194578.508    23194577.859                          44.100          41.500

 122541282.373 7  95309977.833 5                  22988440.523    22988440.500
                  22988446.629                          44.300          33.600

 113604709.025 7  88523173.719 7                  21618252.609
  21618260.594    21618260.531                          45.300          46.800

 130910856.269 6 102008487.813 6                  24911514.852
  24911522.426    24911520.898                          41.300          37.300

 112849800.963 7  87772129.613 6                  21125721.359    21125721.098
                  21125725.234                          42.900          37.100

 111771578.501 7  87094761.109 8                  21269411.070
  21269417.707    21269417.586                          46.700          48.200

 128928270.142 6 100277573.963 5                  24093331.500    24093328.309
                  24093334.789                          39.000          35.000

 107846364.863 8  83880570.206 7                  20196159.180    20196159.391
                  20196162.117                          48.800          47.600

 123310269.011 7  96085963.68544                  23465161.273
                  23465165.563                          42.300          24.500

 125634899.089 6  97897384.19542                  23907540.500
                  23907546.078                          38.700          17.800

 107274900.481 8  83590863.780 8                  20413729.133
  20413732.723    20413733.188                          50.200          49.100

 111068121.115 7  86546656.878 8                  21135557.273
  21135565.023    21135565.020                          47.300          48.600

 112620954.206 8  87594089.093 7                  21038547.953    21038546.871
                  21038553.355                          48.400          45.200

 129425377.247 7 100850967.84543                  24628831.719
                  24628837.941                          42.600          22.500

 115968078.033 7  90364765.29745                  22067983.758
                  22067987.754                          45.700          30.400

 113572711.757 6  88334394.420 6                  21231222.648    21231222.035
                  21231225.820                          41.900          39.900

 131927250.600 5 102800480.58242                  25104919.438
                  25104928.883                          34.000          14.800

 19  3 26 19 42 30.0000000  0 20R06R18R08G27R10G09G05R16G08R17R09G11
                                G23G07G30R07G18G28R19G13
 122408776.838 6                                  22939363.883    22939362.449
                                                        40.200

 113217379.849 8  88057999.439 7                  21209428.492    21209427.645
                  21209433.309                          48.700          43.900

 119350131.475 7  92827926.902 6                  22287802.875    22287801.793
                  22287804.523                          44.300          41.700

 121975966.247 7  95046232.021 6                  23211244.758
  23211249.695    23211249.984                          43.800          39.600

 122461700.491 7  95248080.917 6                  22973512.172    22973511.324
                  22973519.098                          45.000          36.100

 113691381.036 7  88590710.306 7                  21634746.414
  21634754.047    21634754.395                          44.800          47.600

 130947602.254 6 102037120.987 5                  24918507.875
  24918511.934    24918513.043                          40.900          33.100

 112908136.383 7  87817501.611 6                  21136642.063    21136641.215
                  21136645.234                          43.200          37.000

 111804771.515 7  87120625.773 8                  21275726.844
  21275735.063    21275734.648                          46.900          48.600

 129031629.807 6 100357964.789 5                  24112645.672    24112644.238
                  24112650.250                          38.700          33.200

 107813642.895 8  83855119.808 7                  20190031.078    20190030.816
                  20190033.664                          50.300          47.200

 123223274.384 7  96018175.70344                  23448606.250
                  23448610.480                          42.900          24.300

 125747405.306 6  97985051.21643                  23928952.000
                  23928956.816                          41.600          20.600

 107268889.572 8  83586179.953 8                  20412586.039
  20412588.984    20412589.215                          50.600          49.600

 111012559.408 7  86503362.084 8                  21124983.234
  21124992.684    21124992.504                          46.400          48.500

 112676494.646 8  87637287.166 7                  21048923.477    21048921.574
                  21048928.293                          49.200          45.900

 129340044.233 7 100784474.64943                  24612594.695
                  24612598.984                          43.900          22.600

 115911113.969 7  90320377.72544                  22057143.891
                  22057148.355                          45.800          29.600

 113480639.091 6  88262782.421 6                  21214009.141    21214008.176
                  21214013.957                          41.500          41.200

 131821067.026 6 102717740.05742                  25084714.398
                  25084723.375                          36.800          16.300

 19  3 26 19 43  0.0000000  0 20R06R18R08G27R10G09G05R16G08R17R09G11
                                G23G07G30R07G18G28R19G13
 122534572.727 6                                  22962938.359    22962935.871
                                                        40.100

 113238200.455 8  88074193.235 7                  21213328.781    21213328.402
                  21213333.359                          48.400          42.800

 119299124.729 7  92788255.006 7                  22278275.313    22278274.816
                  22278282.473                          44.100          43.500

 122063957.489 7  95114796.601 6                  23227988.375
  23227994.309    23227994.715                          42.500          40.400

 122382169.925 7  95186223.878 5                  22958590.828    22958590.566
                  22958598.695                          43.900          35.300

 113778418.673 7  88658531.806 7                  21651308.766
  21651315.871    21651316.336                          46.100          46.800

 130984756.910 6 102066072.762 5                  24925577.070
  24925582.652    24925582.355                          40.200          34.900

 112966637.184 7  87863002.228 6                  21147594.039    21147592.957
                  21147596.508                          44.200          38.100

 111838543.145 8  87146941.342 7                  21282153.953
  21282160.355    21282160.410                          48.100          47.600

 129135412.827 6 100438684.885 5                  24132042.875    24132039.563
                  24132044.641                          40.000          34.000

 107781135.123 8  83829835.988 7                  20183943.500    20183943.004
                  20183946.086                          49.800          47.700

 123136485.089 7  95950547.72044                  23432090.313
                  23432094.836                          43.300          24.400

 125860020.672 6  98072803.41043                  23950382.773
                  23950387.004                          41.300          20.400

 107263207.014 8  83581751.981 8                  20411503.766
  20411507.648    20411507.879                          50.300          49.300

 110957220.537 7  86460240.906 8                  21114452.578
  21114461.676    21114461.906                          46.400          48.200

 112732731.373 8  87681026.837 7                  21059428.539    21059428.277
                  21059433.707                          49.000          44.800

 129254831.636 6 100718075.26643                  24596376.766
                  24596384.043                          40.900          22.000

 115854427.793 7  90276206.72845                  22046357.602
                  22046361.949                          44.300          31.400

 113389112.577 6  88191595.128 6                  21196900.758    21196898.152
                  21196903.695                          41.400          41.300

 131715029.512 6 102635113.46342                  25064535.305
                  25064545.102                          36.400          15.600

 19  3 26 19 43 30.0000000  0 20R06R18R08G27R10G09G05R16G08R17R09G11
                                G23G07G30R07G18G28R19G13
 122660463.038 6                                  22986531.688    22986528.730
                                                        39.500

 113259839.351 8  88091023.514 7                  21217382.883    21217382.859
                  21217387.227                          48.000          42.800

 119248836.397 7  92749141.894 7                  22268884.586    22268883.973
                  22268890.457                          44.100          42.800

 122152322.254 6  95183652.209 6                  23244803.383
  23244810.430    23244810.367                          41.800          41.800

 122302690.832 7  95124406.896 5                  22943680.164    22943679.199
                  22943686.270                          42.600          32.800

 113865819.836 7  88726636.595 7                  21667941.422
  21667947.590    21667948.230                          46.000          45.800

 131022318.345 7 102095341.334 5                  24932726.695
  24932731.105    24932731.453                          42.300          34.800

 113025303.580 7  87908631.634 6                  21158576.664    21158576.051
                  21158580.188                          44.000          38.700

 111872892.393 8  87173706.988 8                  21288689.875
  21288697.859    21288697.563                          48.300          49.100

 129239615.917 6 100519731.716 5                  24151514.383    24151511.309
                  24151517.320                          38.700          34.900

 107748842.164 8  83804719.251 7                  20177896.805    20177896.664
                  20177899.742                          50.500          47.900

 123049904.876 7  95883082.64243                  23415616.031
                  23415618.738                          43.700          22.800

 125972742.667 6  98160638.57143                  23971832.086
                  23971838.250                          40.700          22.600

 107257854.795 8  83577581.420 8                  20410485.625
  20410489.566    20410489.621                          50.300          49.200

 110902106.483 8  86417294.915 8                  21103966.578
  21103973.273    21103973.211                          49.300          48.500

 112789661.892 8  87725306.093 7                  21070064.586    21070063.035
                  21070067.992                          49.000          44.900

 129169743.330 7 100651772.76243                  24580186.039
                  24580193.434                          42.200          22.300

 115798020.126 7  90232252.76445                  22035622.656
                  22035627.648                          45.500          30.800

 113298136.885 6  88120836.339 7                  21179892.969    21179891.418
                  21179897.313                          41.300          42.600

 131609141.160 6 102552603.17542                  25044387.633
                  25044395.496                          37.600          15.600

 19  3 26 19 44  0.0000000  0 20R06R18R08G27R10G09G05R16G08R17R09G11
                                G23G07G30R07G18G28R19G13
 122786443.228 6                                  23010139.102    23010137.434
                                                        38.700

 113282295.230 7  88108489.195 7                  21221589.453    21221590.133
                  21221594.387                          47.800          43.500

 119199268.245 7  92710588.891 7                  22259627.914    22259627.891
                  22259633.551                          44.900          42.300

 122241057.154 7  95252796.214 6                  23261691.172
  23261695.699    23261697.043                          43.900          41.900

 122223262.806 6  95062629.599 5                  22928778.859    22928778.363
                  22928785.902                          41.800          32.200

 113953581.531 7  88795022.306 7                  21684642.203
  21684648.313    21684648.777                          46.000          45.900

 131060284.317 6 102124925.133 6                  24939950.102
  24939956.680    24939956.266                          40.200          37.200

 113084135.150 7  87954389.518 6                  21169589.992    21169589.027
                  21169594.102                          43.700          39.500

 111907817.479 8  87200921.336 8                  21295337.320
  21295343.371    21295343.777                          48.500          48.100

 129344234.456 6 100601101.655 5                  24171063.781    24171061.762
                  24171068.008                          40.000          35.300

 107716763.837 8  83779769.447 7                  20171889.695    20171889.672
                  20171892.398                          50.200          47.000

 122963536.302 7  95815782.50944                  23399180.547
                  23399183.723                          43.600          24.100

 126085568.204 6  98248554.42643                  23993305.133
                  23993307.547                          41.100          22.500

 107252833.123 8  83573668.437 8                  20409530.594
  20409533.363    20409533.711                          50.800          49.100

 110847218.116 8  86374524.746 8                  21093522.766
  21093528.289    21093528.520                          49.900          48.000

 112847282.344 8  87770121.978 7                  21080828.984    21080827.434
                  21080831.922                          49.100          43.600

 129084782.240 6 100585569.36443                  24564017.266
                  24564025.480                          39.800          21.800

 115741890.277 7  90188515.25045                  22024942.273
                  22024946.270                          44.800          31.800

 113207716.019 6  88050509.046 6                  21162990.188    21162988.988
                  21162994.063                          41.300          41.500

 131503404.289 6 102470210.76042                  25024266.844
                  25024274.297                          38.300          14.800

 19  3 26 19 44 30.0000000  0 20R06R18R08G27R10G09G05R16G08R17R09G11
                                G23G07G30R07G18G28R19G13
 122912509.139 6                                  23033764.742    23033762.957
                                                        40.200

 113305567.420 8  88126589.742 7                  21225949.141    21225948.527
                  21225953.484                          48.100          43.000

 119150422.400 7  92672597.683 6                  22250509.039    22250507.137
                  22250511.391                          45.200          41.100

 122330159.486 7  95322226.619 6                  23278646.516
  23278651.570    23278652.621                          43.400          40.500

 122143885.886 7  95000892.016 5                  22913893.375    22913891.473
                  22913895.609                          45.600          31.700

 114041701.426 7  88863687.137 7                  21701410.945
  21701416.703    21701417.168                          46.600          46.300

 131098652.439 6 102154822.322 6                  24947249.852
  24947256.781    24947257.012                          37.700          37.000

 113143131.927 7  88000275.878 6                  21180635.227    21180633.559
                  21180638.633                          43.900          39.500

 111943317.026 7  87228583.320 7                  21302091.828
  21302098.992    21302098.813                          47.900          47.700

 129449264.593 6 100682791.763 5                  24190688.227    24190689.141
                  24190694.801                          40.400          35.000

 107684900.810 8  83754987.108 8                  20165922.344    20165921.496
                  20165925.164                          50.000          48.000

 122877382.723 6  95748649.87543                  23382784.430
                  23382789.539                          41.400          22.600

 126198495.148 6  98336549.34843                  24014794.430
                  24014796.902                          40.100          23.000

 107248143.297 8  83570014.021 8                  20408637.453
  20408640.633    20408641.098                          50.700          49.600

 110792556.990 8  86331931.673 8                  21083122.047
  21083126.633    21083126.746                          50.200          48.200

 112905589.706 8  87815472.142 7                  21091718.852    21091719.531
                  21091725.660                          48.400          44.800

 128999951.833 6 100519467.77143                  24547876.063
                  24547882.285                          38.400          18.600

 115686038.422 7  90144994.34945                  22014313.492
                  22014317.371                          45.300          31.100

 113117854.522 7  87980616.810 6                  21146191.063    21146189.863
                  21146195.523                          42.000          41.600

 131397821.505 6                                  25004175.648
                                                        39.900

 19  3 26 19 45  0.0000000  0 20R06R18R08G27R10G09G05R16G08R17R09G11
                                G23G07G30R07G18G28R19G13
 123038655.941 6                                  23057401.375    23057401.469
                                                        38.400

 113329654.838 7  88145324.394 7                  21230460.547    21230459.934
                  21230466.770                          47.100          44.100

 119102300.548 7  92635169.558 6                  22241519.844    22241519.582
                  22241523.836                          44.800          40.600

 122419626.194 6  95391940.908 6                  23295669.672
  23295676.660    23295676.129                          41.500          40.600

 122064559.970 7  94939194.096 5                  22899009.047    22899008.199
                  22899014.332                          43.900          33.000

 114130176.810 7  88932628.972 7                  21718247.234
  21718253.754    21718254.043                          45.200          46.400

 131137420.544 5 102185031.161 6                  24954626.617
  24954634.426    24954634.422                          35.900          37.700

 113202293.711 7  88046290.531 6                  21191709.492    21191708.879
                  21191713.367                          43.700          39.300

 111979389.614 7  87256691.827 7                  21308956.586
  21308962.988    21308962.691                          47.900          47.700

 129554702.552 6 100764799.037 6                  24210395.242    24210393.574
                  24210399.117                          40.800          36.100

 107653252.964 8  83730372.129 7                  20159995.320    20159995.648
                  20159998.258                          50.200          47.500

 122791446.852 7  95681686.89043                  23366431.977
                  23366436.090                          42.200          21.800

 126311520.465 6  98424620.86744                  24036303.273
                  24036305.102                          40.900          25.500

 107243786.267 8  83566618.939 8                  20407808.227
  20407811.406    20407811.813                          49.800          48.800

 110738124.477 8  86289516.722 8                  21072763.406
  21072768.461    21072768.281                          50.500          48.800

 112964580.840 8  87861354.113 7                  21102741.023    21102740.059
                  21102745.840                          48.700          44.900

 128915255.21015 100453470.51552                  24531757.031
                  24531765.949                          33.400          17.800

 115630464.122 7  90101689.74445                  22003737.688
                  22003741.684                          46.600          30.500

 113028556.460 7  87911162.804 7                  21129498.094    21129496.777
                  21129502.672                          42.200          42.300

 131292394.974 5 102305787.98242                  24984110.359
                  24984119.629                          34.400          14.800

 19  3 26 19 45 30.0000000  0 20R06R18R08G27R10G09G05R16G08R17R09G11
                                G23G07G30R07G18G28R19G13
 123164879.502 6                                  23081055.820    23081056.031
                                                        39.200

 113354556.410 7  88164692.283 7                  21235126.055    21235124.973
                  21235131.926                          47.000          44.700

 119054904.915 7  92598306.290 6                  22232669.555    22232668.707
                  22232672.727                          44.600          41.000

 122509454.518 6  95461937.005 6                  23312763.891
  23312770.293    23312770.758                          41.700          41.300

 121985285.485 7  94877536.248 5                  22884135.031    22884136.063
                  22884145.008                          43.600          35.200

 114219005.044 7  89001845.737 7                  21735150.609
  21735157.363    21735157.477                          46.000          46.200

 131176586.480 6 102215550.039 6                  24962078.898
  24962086.355    24962086.820                          38.100          36.900

 113261620.175 7  88092433.332 6                  21202815.563    21202815.066
                  21202819.672                          44.500          38.600

 112016032.807 7  87285244.947 7                  21315929.258
  21315936.070    21315936.008                          47.800          47.800

 129660543.942 6 100847120.133 5                  24230171.836    24230171.695
                  24230177.707                          41.000          35.700

 107621820.502 8  83705924.653 7                  20154108.711    20154108.449
                  20154111.766                          50.000          47.300

 122705731.855 7  95614896.03243                  23350121.594
                  23350124.594                          42.400          23.900

 126424641.571 6  98512767.01843                  24057827.742
                  24057831.328                          40.800          21.800

 107239763.076 8  83563483.976 8                  20407042.859
  20407045.980    20407046.270                          49.300          48.700

 110683921.831 8  86247280.895 8                  21062448.703
  21062454.578    21062454.457                          49.700          48.700

 113024251.873 8  87907764.868 7                  21113887.742    21113887.602
                  21113892.793                          49.800          45.500

 128830695.52315 100387579.92452                  24515667.555
                  24515674.832                          34.300          15.600

 115575167.367 7  90058601.38545                  21993216.242
                  21993219.652                          46.700          31.000

 112939825.919 7  87842150.184 6                  21112910.883    21112909.684
                  21112914.758                          43.100          41.800

 131187127.319 6 102223761.25742                  24964081.219
                  24964087.676                          38.300          16.300

 19  3 26 19 46  0.0000000  0 20R06R18R08G27R10G09G05R16G08R17R09G11
                                G23G07G30R07G18G28R19G13
 123291175.896 6                                  23104725.195    23104723.293
                                                        37.800

 113380271.569 7  88184692.959 7                  21239943.883    21239943.270
                  21239948.699                          47.600          44.700

 119008237.697 7  92562009.604 7                  22223953.484    22223953.578
                  22223959.121                          43.500          42.000

 122599641.799 7  95532212.784 7                  23329925.930
  23329933.445    23329933.090                          43.300          42.900

 121906062.248 6  94815918.278 5                  22869273.336    22869273.074
                  22869282.375                          41.800          34.900

 114308183.886 7  89071335.709 7                  21752120.500
  21752126.902    21752127.426                          46.000          45.800

 131216148.294 6 102246377.388 6                  24969608.805
  24969616.848    24969616.082                          39.700          39.000

 113321111.875 7  88138704.653 6                  21213952.984    21213951.668
                  21213956.039                          43.500          37.900

 112053245.955 7  87314242.202 8                  21323010.742
  21323017.555    21323017.434                          47.600          48.000

 129766785.389 6 100929752.362 6                  24250028.102    24250025.965
                  24250033.152                          40.700          36.400

 107590604.235 8  83681645.362 7                  20148263.375    20148263.586
                  20148266.195                          50.200          47.400

 122620241.249 6  95548280.05243                  23333851.688
                  23333857.090                          41.500          22.500

 126537855.987 6  98600985.93543                  24079371.148
                  24079375.965                          40.900          22.000

 107236075.260 8  83560610.358 8                  20406340.758
  20406344.699    20406345.105                          49.000          48.800

 110629950.864 8  86205225.597 8                  21052178.961
  21052183.723    21052183.895                          50.500          48.300

 113084600.302 8  87954702.521 7                  21125161.945    21125161.215
                  21125166.289                          49.300          44.200

 128746276.357 5 100321798.79152                  24499600.320
                  24499609.004                          33.500          16.300

 115520148.614 7  90015729.67145                  21982744.773
                  21982750.293                          46.700          31.800

 112851667.660 7  87773582.695 7                  21096430.813    21096429.027
                  21096434.102                          43.600          42.100

 131082021.727 6 102141860.88342                  24944079.203
                  24944086.832                          37.800          17.800

 19  3 26 19 46 30.0000000  0 20R06R18R08G27R10G09G05R16G08R17R09G11
                                G23G07G30R07G18G28R19G13
 123417541.269 6                                  23128405.109    23128405.086
                                                        39.000

 113406799.259 7  88205325.611 7                  21244912.570    21244912.074
                  21244917.621                          47.800          43.400

 118962300.594 7  92526280.728 6                  22215375.414    22215375.859
                  22215379.992                          44.100          40.900

 122690185.341 7  95602766.150 7                  23347155.500
  23347163.719    23347163.480                          43.900          44.000

 121826890.277 7  94754340.160 5                  22854421.750    22854420.434
                  22854427.738                          43.900          34.600

 114397711.024 7  89141097.070 7                  21769156.961
  21769163.598    21769163.887                          46.700          45.800

 131256103.861 7 102277511.538 6                  24977214.266
  24977219.848    24977219.609                          42.900          37.600

 113380768.821 7  88185104.486 6                  21225121.055    21225119.152
                  21225124.227                          43.000          38.400

 112091027.376 7  87343682.287 8                  21330199.508
  21330207.434    21330206.902                          46.400          48.000

 129873423.041 6 101012692.753 5                  24269954.688    24269952.668
                  24269958.563                          40.600          35.300

 107559604.572 8  83657534.528 7                  20142458.656    20142458.516
                  20142460.891                          50.600          47.400

 122534977.785 6  95481841.00943                  23317627.523
                  23317631.344                          41.400          22.800

 126651161.361 6  98689275.75143                  24100931.555
                  24100936.605                          38.300          19.300

 107232724.244 8  83557999.179 8                  20405703.469
  20405707.059    20405707.523                          51.000          49.700

 110576213.155 8  86163352.078 8                  21041952.375
  21041957.723    21041958.129                          49.700          48.400

 113145622.780 8  88002164.458 7                  21136561.117    21136560.387
                  21136565.109                          49.500          44.900

 128662001.290 5 100256130.06942                  24483562.820
                  24483573.262                          34.800          16.900

 115465407.612 7  89973074.40045                  21972327.906
                  21972334.129                          45.700          31.800

 112764086.089 7  87705463.721 6                  21080059.984    21080057.262
                  21080061.867                          43.800          41.900

 130977080.970 6 102060088.95542                  24924111.133
                  24924117.121                          39.500          15.600

