     2.11           OBSERVATION DATA    M (MIXED)           RINEX VERSION / TYPE
teqc  2018Jun8      root                20191212 04:36:32UTCPGM / RUN BY / DATE
Linux 2.4.21-27.ELsmp|Opteron|gcc|Linux 64|=+               COMMENT
teqc  2019Feb25     CORS-ADM Account    20190427 19:55:38UTCCOMMENT
teqc  2018Jan11     NOAA/NOS/NGS/CORS   20190327 12:48:52UTCCOMMENT
Linux 2.4.21-27.ELsmp|Opteron|gcc -static|Linux 64|=+       COMMENT
teqc  2019Feb25     UNAVCO Archive Ops  20190327 12:12:21UTCCOMMENT
Solaris x86 5.10|AMD64|cc SC5.8 -xarch=amd64|=+|=+          COMMENT
BIT 2 OF LLI FLAGS DATA COLLECTED UNDER A/S CONDITION       COMMENT
input file: p0410850.19_a.sbf                               COMMENT
RINEX file created by UNAVCO GPS Archive.                   COMMENT
For more information contact archive-gps@unavco.org         COMMENT
Monument ID: 18024                                          COMMENT
UNAVCO 4-char name:   P041                                  COMMENT
4-char name from Log or data file: P041                     COMMENT
Monument location: 39.949492 -105.194266 1728.8417          COMMENT
Visit ID: 122689                                            COMMENT
End of DB comments                                          COMMENT
 SNR is mapped to RINEX snr flag value [0-9]                COMMENT
  L1 & L2: min(max(int(snr_dBHz/6), 0), 9)                  COMMENT
teqc.e edited: all SBAS satellites excluded                 COMMENT
teqc.e edited: all QZSS satellites excluded                 COMMENT
Forced Modulo Decimation to 30 seconds                      COMMENT
P041                                                        MARKER NAME
Glen Mattioli       UNAVCO                                  OBSERVER / AGENCY
3012086             SEPT POLARX5        5.2.0               REC # / TYPE / VERS
0220363249          TRM59800.80     SCIT                    ANT # / TYPE
 -1283633.4720 -4726429.1960  4074798.0920                  APPROX POSITION XYZ
        0.0083        0.0000        0.0000                  ANTENNA: DELTA H/E/N
     1     1                                                WAVELENGTH FACT L1/2
    20    L1    L2    C1    P2    P1    S1    S2    C2    L5# / TYPES OF OBSERV
          C5    S5    L6    C6    S6    L7    C7    S7    L8# / TYPES OF OBSERV
          C8    S8                                          # / TYPES OF OBSERV
    30.0000                                                 INTERVAL
teqc.w windowed: start @ 2019 Mar 26 19:00:00.000           COMMENT
teqc.w windowed:  end  @ 2019 Mar 26 22:00:00.000           COMMENT
  2019     3    26    19     0    0.0000000     GPS         TIME OF FIRST OBS
    18                                                      LEAP SECONDS
                                                            END OF HEADER
 19  3 26 19  0  0.0000000  0 27G08E03G23E05E02G28G09G30G27R08G16R15
                                G07E24G11E08R19R09E25R16R07R06E12R18
                                G05E11R17
 111168384.574 8  86624748.011 7  21154630.956    21154631.895    21154630.711
        48.750          46.250    21154632.847    83015388.722 8  21154631.241
        50.500

 127515454.680 8                  24265388.358
        48.500                                    95222621.648 8  24265391.211
        48.500   103502838.287 8  24265387.697          52.500    97706677.884 8
  24265388.982          51.250    96464655.339 8  24265389.833          53.000
 116944969.058 7  91125941.80045  22253888.036    22253884.347    22253887.603
        46.000          33.250


 134605720.524 7                  25614616.456
        43.750                                   100517273.972 7  25614620.007
        44.000   109257884.939 7  25614615.473          47.500   103139452.891 7
  25614617.947          46.750   101828367.506 8  25614618.762          48.500
 137497774.734 7                  26164951.079
        42.250                                   102676936.596 7  26164953.860
        42.000   111605350.803 7  26164951.513          46.250   105355453.606 7
  26164951.219          44.250   104016202.177 7  26164952.289          46.250
 121801471.138 6  94910240.85243  23178045.071    23178043.890    23178044.410
        41.000          23.500


 107918261.604 8  84092161.845 8  20536159.120    20536159.410    20536158.942
        50.250          48.250    20536160.014    80588321.041 8  20536159.986
        52.500

 116348644.164 7  90661298.076 7  22140403.180    22140403.560    22140402.796
        45.500          43.000    22140404.409    86883751.586 8  22140404.283
        48.750

 116093079.045 7  90462164.319 7  22091769.285    22091769.576    22091768.919
        46.500          43.500    22091770.345    86692911.583 7  22091769.848
        47.750

 125903997.895 6  97925369.702 6  23511684.782    23511690.412
        41.000          41.250    23511690.121


 127171528.878 6  99094701.32043  24199935.808    24199933.192    24199935.169
        38.000          19.250


 127343471.455 6  99044953.865 6  23830598.534    23830604.331
        39.000          40.500    23830604.420


 108790099.599 8  84771509.943 7  20702060.504    20702058.039    20702060.321
        51.250          46.250    20702058.464


 122560777.427 7                  23322543.983
        45.750                                    91522720.464 7  23322557.157
        45.750    99481130.186 8  23322536.185          49.250    93910263.018 8
  23322555.053          48.250    92716491.815 8  23322555.895          50.000
 131150931.487 6 102195537.43742  24957187.168    24957186.980    24957186.690
        36.750          17.500


 129914317.777 6                  24721871.449
        40.750                                    97013951.462 6  24721873.153
        41.000   105449940.326 7  24721873.171          44.250    99544740.137 7
  24721870.789          42.500    98279345.373 7  24721871.716          44.750
 122886043.171 6  95578039.095 6  22972241.351    22972245.138
        40.250          40.250    22972245.304


 111301400.548 8  86567791.862 8  20843171.136    20843175.160
        50.500          49.000    20843175.129


 120639465.853 8                  22956923.260
        49.750                                    90087951.472 8  22956925.791
        50.500    97921662.204 9  22956921.830          54.750    92438059.040 8
  22956923.643          53.250    91263012.829 9  22956924.471          55.000
 108491636.928 7  84382437.817 7  20309859.205    20309863.824
        47.500          44.000    20309863.145


 110646944.722 8  86058766.213 8  20669776.078    20669780.602
        51.500          49.500    20669780.844


 112616348.524 7                  21104258.126
        44.750


 131137286.164 6                  24954591.314
        36.500                                    97927220.879 6  24954591.711
        36.000   106442610.587 6  24954588.617          41.000   100481831.131 6
  24954589.701          38.500    99204526.580 6  24954590.123          40.500
 114413897.261 8  88988631.041 7  21433570.957    21433577.417
        49.000          46.500    21433577.354


 129384318.149 6 100818948.243 5  24621017.219    24621016.713    24621017.076
        37.000          30.000    24621016.490


 133948910.732 6                  25489625.918
        37.000                                   100026813.494 5  25489625.998
        34.500   108724783.532 6  25489623.472          40.750   102636200.663 6
  25489623.966          37.750   101331513.152 6  25489624.691          39.250
 122028870.271 7  94911377.367 6  22804003.605    22804007.609
        46.000          39.500    22804007.475


 19  3 26 19  0 30.0000000  0 27G08E03G23E05E02G28G09G30G27R08G16R15
                                G07E24G11E08R19R09E25R16R07R06E12R18
                                G05E11R17
 111149597.351 8  86610108.633 7  21151055.821    21151056.769    21151055.576
        48.750          46.250    21151057.610    83001359.321 8  21151056.097
        50.500

 127533398.455 8                  24268802.817
        48.250                                    95236021.201 8  24268805.723
        48.500   103517403.031 8  24268802.384          52.750    97720426.998 8
  24268803.579          51.500    96478229.673 8  24268804.430          53.000
 117039436.409 7  91199552.68645  22271864.432    22271860.908    22271864.003
        46.000          33.500


 134690275.638 7                  25630706.557
        43.500                                   100580415.740 7  25630710.353
        43.750   109326517.308 7  25630705.605          47.500   103204241.829 7
  25630708.231          46.750   101892332.858 8  25630709.073          48.500
 137442146.785 7                  26154365.366
        42.250                                   102635396.299 7  26154368.058
        42.000   111560198.295 7  26154366.131          46.250   105312829.644 7
  26154365.668          44.500   103974120.046 7  26154366.630          46.250
 121721434.005 6  94847874.28844  23162814.644    23162813.297    23162813.960
        40.500          24.500


 107967036.790 8  84130168.467 8  20545440.646    20545441.031    20545440.468
        50.250          48.500    20545441.634    80624744.053 8  20545441.700
        52.500

 116278724.012 7  90606814.876 7  22127097.630    22127098.296    22127097.250
        45.500          43.250    22127099.275    86831538.511 8  22127098.912
        48.750

 116139324.157 7  90498199.477 7  22100569.536    22100569.598    22100569.170
        46.500          43.500    22100570.072    86727445.278 7  22100570.089
        47.750

 125802645.625 7  97846540.202 6  23492757.914    23492763.262
        42.000          41.500    23492763.039


 127277249.628 6  99177081.10143  24220053.271    24220051.406    24220052.623
        37.500          18.000


 127429988.292 6  99112245.667 6  23846788.129    23846795.012
        40.000          39.750    23846795.580


 108760747.584 8  84748638.247 7  20696474.883    20696472.580    20696474.700
        51.250          46.500    20696473.005


 122614974.960 7                  23332857.441
        45.500                                    91563192.642 7  23332870.650
        45.750    99525121.687 8  23332849.643          49.500    93951790.991 8
  23332868.452          48.250    92757491.889 8  23332869.330          50.250
 131057168.846 6 102122475.71643  24939345.086    24939344.638    24939344.639
        37.250          19.000


 129856078.512 6                  24710788.787
        40.250                                    96970461.121 6  24710790.455
        40.750   105402668.219 7  24710790.536          44.500    99500115.256 7
  24710787.998          42.750    98235287.764 7  24710789.068          44.750
 122764249.934 6  95483311.133 6  22949472.694    22949477.130
        39.500          40.250    22949477.376


 111250639.642 8  86528311.180 8  20833664.954    20833669.192
        50.750          49.000    20833669.062


 120637545.307 8                  22956557.736
        49.500                                    90086517.309 8  22956560.370
        50.500    97920103.331 9  22956556.377          55.000    92436587.464 8
  22956558.132          53.250    91261559.961 9  22956559.005          55.000
 108535209.548 7  84416327.635 7  20318016.469    20318020.654
        47.750          44.250    20318019.912


 110637231.439 8  86051211.437 8  20667961.899    20667966.057
        51.500          49.500    20667966.012


 112718285.528 7                  21123360.950
        45.000


 131108230.839 6                  24949062.259
        36.250                                    97905523.751 6  24949062.549
        36.000   106419026.739 6  24949059.733          41.500   100459567.979 6
  24949060.481          39.000    99182546.439 6  24949061.095          40.500
 114366349.681 8  88951649.607 7  21424663.953    21424669.912
        49.250          46.250    21424669.697


 129381279.408 6 100816580.383 5  24620439.520    24620438.464    24620439.386
        38.000          31.500    24620440.772


 133869406.734 6                  25474496.943
        36.750                                    99967443.687 5  25474496.943
        35.250   108660251.121 6  25474494.341          41.000   102575282.069 6
  25474494.566          38.000   101271368.952 6  25474495.515          39.750
 122083556.378 7  94953911.014 6  22814223.390    22814226.879
        46.250          40.250    22814226.481


 19  3 26 19  1  0.0000000  0 27G08E03G23E05E02G28G09G30G27R08G16R15
                                G07E24G11E08R19R09E25R16R07R06E12R18
                                G05E11R17
 111131423.264 8  86595947.013 7  21147597.385    21147598.198    21147597.140
        49.000          46.250    21147599.063    82987787.764 8  21147597.629
        50.750

 127551760.784 8                  24272297.068
        48.250                                    95249733.308 8  24272299.957
        48.500   103532307.487 8  24272296.713          52.750    97734496.798 8
  24272297.742          51.250    96492120.682 8  24272298.671          53.000
 117134221.926 7  91273411.48445  22289901.659    22289898.175    22289901.226
        45.750          34.250


 134774999.513 7                  25646829.207
        43.500                                   100643683.515 7  25646832.819
        43.750   109395286.637 7  25646828.105          47.750   103269160.079 7
  25646830.770          46.500   101956425.920 8  25646831.504          48.250
 137386632.545 7                  26143801.125
        42.000                                   102593940.896 7  26143803.788
        42.000   111515138.049 7  26143802.279          46.750   105270292.784 7
  26143801.605          44.500   103932123.926 7  26143802.569          46.500
 121641647.188 6  94785702.79444  23147631.479    23147630.607    23147630.800
        40.750          26.000


 108016339.771 8  84168586.350 8  20554822.793    20554823.052    20554822.615
        50.500          48.500    20554823.583    80661561.198 8  20554823.709
        52.500

 116208929.998 7  90552429.938 7  22113816.253    22113816.928    22113815.873
        45.750          43.500    22113817.769    86779419.621 8  22113817.508
        49.000

 116186150.603 7  90534687.604 7  22109480.212    22109480.391    22109479.846
        46.750          43.750    22109481.263    86762413.049 8  22109480.777
        48.000

 125701745.118 7  97768062.027 6  23473915.818    23473920.618
        42.750          41.750    23473920.433


 127382980.754 6  99259468.95843  24240173.135    24240171.798    24240172.492
        36.750          18.000


 127516487.533 6  99179522.737 6  23862976.647    23862982.492
        41.250          39.250    23862981.850


 108731630.148 8  84725949.331 7  20690933.995    20690931.674    20690933.808
        51.250          46.500    20690932.117


 122669220.921 7                  23343180.136
        45.500                                    91603700.968 7  23343193.425
        45.750    99569152.483 8  23343172.432          49.750    93993356.063 8
  23343191.183          48.250    92798528.539 8  23343192.002          50.000
 130963362.341 6 102049379.80343  24921493.802    24921493.422    24921493.342
        37.750          20.250


 129798146.166 6                  24699764.729
        40.250                                    96927199.971 6  24699766.401
        40.750   105355645.214 7  24699766.241          44.750    99455725.549 7
  24699764.102          42.750    98191462.337 7  24699764.881          44.750
 122642609.133 6  95388701.734 6  22926733.444    22926737.154
        38.750          39.750    22926738.328


 111200092.474 8  86488996.735 8  20824198.692    20824203.321
        50.250          49.250    20824203.145


 120635782.955 8                  22956222.390
        49.500                                    90085201.268 8  22956224.929
        50.500    97918672.847 9  22956220.982          55.000    92435237.093 8
  22956222.733          53.000    91260226.877 9  22956223.632          54.750
 108578981.992 7  84450372.862 7  20326210.286    20326215.081
        47.500          44.750    20326214.535


 110628339.726 8  86044295.653 8  20666300.981    20666304.837
        51.750          49.250    20666305.007


 112820694.189 7                  21142552.992
        45.250


 131079559.634 6                  24943606.552
        36.000                                    97884113.391 6  24943606.598
        36.250   106395754.622 6  24943603.769          41.750   100437599.120 6
  24943604.361          39.000    99160856.839 6  24943605.151          40.750
 114319525.932 8  88915231.167 7  21415892.496    21415898.405
        49.250          46.750    21415898.194


 129378764.098 6 100814620.378 5  24619961.005    24619960.037    24619960.880
        37.750          31.000    24619959.844


 133789986.586 6                  25459383.306
        36.500                                    99908136.524 5  25459383.725
        35.750   108595786.746 6  25459381.138          41.000   102514427.741 6
  25459381.429          38.250   101211288.079 6  25459382.297          40.000
 122138945.052 7  94996990.055 6  22824574.071    22824577.905
        46.000          40.750    22824577.779


 19  3 26 19  1 30.0000000  0 27G08E03G23E05E02G28G09G30G27R08G16R15
                                G07E24G11E08R19R09E25R16R07R06E12R18
                                G05E11R17
 111113863.474 8  86582264.081 7  21144255.851    21144256.785    21144255.606
        49.250          46.500    21144257.742    82974674.969 8  21144256.167
        50.500

 127570542.082 8                  24275871.120
        48.500                                    95263758.310 8  24275873.955
        48.500   103547552.065 8  24275870.678          52.500    97748887.684 8
  24275871.753          51.500    96506328.570 8  24275872.648          53.000
 117229324.037 7  91347516.97945  22307998.864    22307995.640    22307998.431
        46.000          33.000


 134859891.223 7                  25662983.624
        43.750                                   100707076.647 7  25662987.278
        44.000   109464192.240 7  25662982.717          47.750   103334206.933 7
  25662984.915          46.500   102020645.870 8  25662985.882          48.250
 137331232.639 7                  26133258.796
        42.250                                   102552570.896 7  26133261.742
        42.250   111470170.642 7  26133259.856          46.500   105227843.574 7
  26133259.294          44.750   103890214.309 7  26133260.301          46.500
 121562111.674 6  94723727.11044  23132496.548    23132495.094    23132495.851
        40.750          24.500


 108066170.098 8  84207415.179 8  20564305.241    20564305.438    20564305.063
        50.500          48.500    20564305.957    80698772.148 8  20564306.085
        52.250

 116139263.883 7  90498144.690 7  22100559.379    22100559.857    22100558.995
        46.000          43.250    22100560.617    86727396.260 8  22100560.523
        48.750

 116233557.445 7  90571628.017 7  22118501.533    22118501.707    22118501.167
        46.750          43.750    22118502.454    86797814.291 7  22118501.975
        47.500

 125601300.827 7  97689938.775 6  23455158.732    23455163.660
        42.250          41.000    23455163.432


 127488721.249 6  99341864.10042  24260294.707    24260293.669    24260294.064
        36.750          16.250


 127602970.075 7  99246785.970 6  23879160.568    23879166.445
        42.250          37.500    23879166.736


 108702749.478 8  84703444.932 7  20685438.142    20685435.767    20685437.959
        51.500          46.500    20685436.282


 122723515.615 7                  23353511.997
        45.750                                    91644245.730 7  23353525.336
        45.500    99613222.869 8  23353504.365          49.500    94034958.502 8
  23353522.991          48.250    92839602.189 8  23353523.958          50.000
 130869515.714 6 101976252.63843  24903635.533    24903635.238    24903635.077
        38.750          20.000


 129740523.098 6                  24688799.213
        40.250                                    96884169.794 6  24688800.881
        40.500   105308873.264 7  24688801.065          44.750    99411572.840 7
  24688798.679          42.750    98147870.890 7  24688799.587          44.750
 122521126.118 6  95294216.079 6  22904023.706    22904027.314
        39.250          39.250    22904027.725


 111149759.711 8  86449849.052 8  20814773.110    20814777.706
        50.250          49.000    20814777.644


 120634179.059 8                  22955917.219
        49.750                                    90084003.570 8  22955919.709
        50.500    97917370.999 9  22955915.770          55.000    92434008.150 8
  22955917.493          53.250    91259013.434 9  22955918.407          55.000
 108622954.591 7  84484573.779 7  20334442.385    20334446.682
        47.500          44.250    20334446.405


 110620270.425 8  86038019.535 8  20664793.207    20664797.651
        51.500          49.250    20664797.763


 112923570.357 7                  21161831.223
        45.000


 131051274.511 6                  24938224.138
        36.500                                    97862991.417 6  24938223.977
        36.500   106372795.962 6  24938221.289          41.500   100415926.108 6
  24938222.194          39.250    99139459.338 6  24938222.705          40.750
 114273429.789 8  88879378.634 7  21407256.686    21407263.060
        49.250          46.500    21407262.823


 129376772.396 6 100813068.372 5  24619582.033    24619580.892    24619581.926
        38.000          31.500    24619582.113


 133710653.300 6                  25444286.744
        36.500                                    99848894.197 6  25444286.878
        36.000   108531392.909 6  25444284.298          40.500   102453639.947 6
  25444284.707          38.750   101151273.140 6  25444285.562          40.250
 122195034.680 7  95040615.360 6  22835055.695    22835059.873
        45.750          40.750    22835059.676


 19  3 26 19  2  0.0000000  0 27G08E03G23E05E02G28G09G30G27R08G16R15
                                G07E24G11E08R19R09E25R16R07R06E12R18
                                G05E11R17
 111096918.912 8  86569060.540 7  21141031.358    21141032.440    21141031.108
        48.750          46.000    21141033.218    82962021.577 8  21141031.773
        50.500

 127589742.075 8                  24279524.846
        48.500                                    95278095.954 8  24279527.596
        48.750   103563136.458 8  24279524.140          52.500    97763599.347 8
  24279525.488          51.250    96520853.219 8  24279526.285          53.000
 117324740.641 7  91421867.53645  22326156.150    22326152.837    22326155.721
        45.750          33.250


 134944949.100 7                  25679169.583
        44.000                                   100770593.853 7  25679173.272
        44.000   109533232.696 7  25679168.694          47.750   103399381.125 7
  25679171.034          46.000   102084991.563 8  25679171.916          48.000
 137275946.914 7                  26122738.176
        42.000                                   102511286.152 7  26122741.110
        42.500   111425295.907 7  26122739.370          46.250   105185481.825 7
  26122738.849          44.500   103848391.063 7  26122739.740          46.500
 121482828.035 6  94661947.70344  23117408.921    23117407.982    23117408.228
        40.500          24.750


 108116526.602 8  84246654.003 8  20573887.592    20573888.030    20573887.414
        50.000          48.000    20573888.589    80736376.021 8  20573888.574
        52.250

 116069726.647 7  90443959.840 7  22087327.043    22087327.288    22087326.668
        45.750          43.000    22087327.923    86675469.115 8  22087327.954
        48.750

 116281542.980 7  90609019.345 7  22127632.938    22127633.081    22127632.572
        46.500          43.250    22127633.783    86833647.642 7  22127633.295
        47.500

 125501316.912 7  97612173.512 6  23436487.212    23436491.903
        42.250          40.750    23436491.093


 127594469.529 6  99424265.31542  24280418.430    24280416.757    24280417.813
        36.500          16.500


 127689435.781 7  99314036.979 6  23895341.582    23895346.850
        43.250          36.250    23895346.689


 108674106.219 8  84681125.504 7  20679987.551    20679985.065    20679987.368
        51.250          46.000    20679985.556


 122777858.673 7                  23363853.098
        45.750                                    91684826.568 7  23363866.339
        46.000    99657332.484 8  23363845.327          49.250    94076597.986 8
  23363864.110          48.000    92880712.350 8  23363865.117          50.000
 130775631.883 6 101903096.48643  24885769.979    24885769.407    24885769.537
        38.500          20.250


 129683210.890 6                  24677893.046
        40.250                                    96841371.713 6  24677894.852
        40.750   105262353.610 7  24677894.781          44.750    99367658.279 7
  24677892.399          42.500    98104514.574 7  24677893.357          44.750
 122399805.606 6  95199855.784 6  22881342.768    22881347.673
        39.250          38.250    22881347.968


 111099641.381 8  86410868.134 8  20805387.737    20805392.025
        50.500          49.000    20805391.931


 120632733.108 8                  22955642.008
        49.750                                    90082923.803 8  22955644.579
        50.750    97916197.334 9  22955640.608          55.000    92432900.212 8
  22955642.318          53.000    91257919.582 9  22955643.259          55.000
 108667126.576 7  84518929.757 7  20342711.220    20342715.888
        47.750          44.250    20342715.352


 110613024.385 8  86032383.710 8  20663439.618    20663444.049
        51.500          49.500    20663443.794


 113026909.945 7                  21181197.264
        44.500


 131023376.690 6                  24932915.292
        36.250                                    97842158.637 6  24932915.422
        36.750   106350151.622 6  24932912.287          41.500   100394549.868 6
  24932913.546          39.000    99118354.832 6  24932913.958          41.000
 114228064.125 8  88844094.233 7  21398758.441    21398764.315
        49.500          46.250    21398764.118


 129375303.772 6 100811923.971 5  24619301.813    24619301.893    24619301.697
        37.000          31.000    24619302.519


 133631409.028 5                  25429206.742
        35.750                                    99789718.340 5  25429207.059
        35.750   108467071.304 6  25429204.551          40.500   102392920.375 6
  25429205.188          38.500   101091325.429 6  25429205.860          40.250
 122251823.050 7  95084784.075 6  22845668.298    22845672.029
        45.500          41.000    22845671.810


 19  3 26 19  2 30.0000000  0 27G08E03G23E05E02G28G09G30G27R08G16R15
                                G07E24G11E08R19R09E25R16R07R06E12R18
                                G05E11R17
 111080588.251 8  86556335.361 7  21137923.905    21137924.647    21137923.655
        49.250          46.500    21137925.680    82949826.606 8  21137924.123
        50.500

 127609358.256 8                  24283257.550
        48.500                                    95292744.378 8  24283260.497
        48.500   103579058.675 8  24283256.969          52.500    97778629.914 8
  24283258.357          51.000    96535692.720 8  24283259.127          53.000
 117420467.259 7  91496459.66245  22344372.440    22344368.974    22344372.016
        46.000          33.750


 135030169.368 7                  25695386.557
        44.000                                   100834232.309 7  25695390.157
        43.500   109602404.946 7  25695385.730          47.750   103464679.728 7
  25695387.959          45.750   102149460.092 7  25695388.845          47.750
 137220773.112 7                  26112239.048
        42.500                                   102470084.963 7  26112242.052
        42.000   111380511.994 7  26112240.117          46.250   105143205.818 7
  26112239.662          44.750   103806652.464 7  26112240.464          46.500
 121403795.421 6  94600363.90344  23102369.888    23102368.430    23102369.204
        41.000          26.250


 108167405.874 8  84286300.166 8  20583569.803    20583570.048    20583569.625
        50.500          48.500    20583570.567    80774370.255 8  20583570.606
        52.000

 116000317.139 7  90389874.525 7  22074118.460    22074119.170    22074118.076
        45.750          43.500    22074119.939    86623637.363 8  22074119.697
        48.750

 116330103.353 7  90646858.578 7  22136873.567    22136873.746    22136873.196
        46.750          43.750    22136874.560    86869910.246 7  22136873.991
        47.500

 125401795.047 7  97534767.669 6  23417901.658    23417907.270
        42.750          41.000    23417906.886


 127700222.000 6  99506669.79843  24300542.426    24300540.695    24300541.765
        37.250          18.000


 127775882.480 7  99381273.285 5  23911518.427    23911524.130
        44.000          35.000    23911524.801


 108645699.876 8  84658990.695 7  20674581.976    20674579.570    20674581.793
        51.750          46.500    20674580.062


 122832247.528 7                  23374203.004
        45.750                                    91725441.611 7  23374216.164
        45.500    99701479.267 8  23374195.273          49.250    94118272.545 7
  23374214.006          47.750    92921857.151 8  23374214.978          49.750
 130681711.553 6 101829911.88843  24867897.561    24867896.358    24867897.132
        39.000          21.250


 129626208.890 6                  24667045.971
        40.250                                    96798805.303 6  24667047.576
        40.250   105216085.781 7  24667047.947          45.000    99323981.442 7
  24667045.615          42.500    98061392.946 7  24667046.211          44.500
 122278650.364 6  95105624.034 6  22858694.393    22858698.466
        40.000          38.000    22858698.667


 111049735.212 8  86372052.240 8  20796041.844    20796046.154
        50.750          49.250    20796046.333


 120631442.480 8                  22955396.341
        49.750                                    90081960.018 8  22955399.015
        50.250    97915149.740 9  22955395.013          55.000    92431911.284 8
  22955396.750          52.750    91256943.224 9  22955397.650          54.750
 108711495.207 7  84553438.685 7  20351017.142    20351021.828
        47.250          44.500    20351020.938


 110606599.242 8  86027386.359 8  20662239.495    20662243.720
        51.500          49.500    20662243.523


 113130706.466 7                  21200649.139
        45.000


 130995865.202 6                  24927679.705
        36.250                                    97821614.348 6  24927679.830
        36.500   106327820.876 6  24927677.228          41.750   100373469.646 6
  24927677.919          38.500    99097542.574 6  24927678.675          40.500
 114183429.672 8  88809378.563 7  21390396.921    21390402.942
        49.500          46.750    21390403.014


 129374355.740 6 100811185.218 5  24619121.413    24619121.319    24619121.306
        37.500          31.250    24619121.225


 133552253.940 6                  25414144.238
        36.000                                    99730609.070 6  25414144.470
        36.250   108402822.080 6  25414141.635          40.000   102332269.113 6
  25414142.473          38.750   101031445.162 6  25414143.176          40.500
 122309305.822 7  95129492.889 6  22856409.487    22856413.709
        44.750          41.000    22856413.853


 19  3 26 19  3  0.0000000  0 27G08E03G23E05E02G28G09G30G27R08G16R15
                                G07E24G11E08R19R09E25R16R07R06E12R18
                                G05E11R17
 111064874.763 8  86544091.110 7  21134933.721    21134934.383    21134933.471
        49.000          46.500    21134935.398    82938092.542 8  21134933.881
        50.500

 127629392.852 8                  24287070.139
        48.250                                    95307705.294 8  24287072.961
        48.250   103595320.539 8  24287069.478          52.500    97793981.109 8
  24287070.803          51.000    96550848.774 8  24287071.600          52.750
 117516504.164 7  91571293.56545  22362647.625    22362644.244    22362647.192
        45.750          34.000


 135115552.894 7                  25711634.443
        43.500                                   100897992.709 7  25711638.213
        43.250   109671709.736 7  25711633.701          47.500   103530103.438 7
  25711635.948          45.750   102214052.148 7  25711636.803          47.500
 137165713.681 7                  26101761.642
        42.250                                   102428969.222 6  26101764.415
        41.750   111335820.939 7  26101762.278          45.750   105101017.484 7
  26101762.181          44.750   103765000.434 7  26101763.036          46.250
 121325016.641 6  94538977.89744  23087378.196    23087377.185    23087377.503
        40.500          26.250


 108218809.255 8  84326354.761 8  20593351.525    20593351.780    20593351.347
        50.250          48.250    20593352.392    80812755.888 8  20593352.423
        52.000

 115931038.958 7  90335891.552 7  22060935.110    22060935.973    22060934.726
        45.500          43.500    22060936.621    86571903.691 8  22060936.500
        48.750

 116379239.327 7  90685146.379 7  22146223.886    22146224.037    22146223.520
        46.500          43.500    22146224.614    86906602.709 7  22146224.394
        47.250

 125302741.700 7  97457726.255 6  23399404.974    23399409.983
        42.000          40.250    23399409.924


 127805979.534 6  99589078.24043  24320667.420    24320665.461    24320666.727
        37.250          18.750


 127862312.860 7  99448496.948 5  23927692.425    23927698.888
        44.000          34.500    23927698.213


 108617533.518 8  84637042.911 7  20669222.168    20669219.775    20669221.985
        51.250          46.750    20669220.303


 122886684.327 7                  23384562.063
        45.500                                    91766092.491 7  23384575.139
        45.250    99745665.005 8  23384554.301          49.000    94159983.880 7
  23384573.070          47.750    92963038.259 8  23384573.952          49.500
 130587759.702 6 101756702.72643  24850018.964    24850017.998    24850018.544
        39.000          21.250


 129569521.293 6                  24656258.869
        40.250                                    96756473.666 6  24656260.215
        40.000   105170073.148 7  24656260.676          45.000    99280545.510 7
  24656258.017          42.500    98018509.160 7  24656259.002          44.250
 122157667.469 6  95011526.302 6  22836077.574    22836082.081
        40.750          37.000    22836081.554


 111000043.941 8  86333403.492 8  20786736.438    20786740.596
        50.500          48.750    20786740.332


 120630309.224 8                  22955180.737
        49.500                                    90081113.784 8  22955183.389
        50.000    97914229.906 9  22955179.436          54.750    92431042.975 8
  22955181.141          52.750    91256085.953 9  22955181.997          54.500
 108756062.445 7  84588102.101 7  20359360.157    20359364.838
        47.250          44.000    20359364.454


 110600998.094 8  86023029.929 8  20661193.183    20661197.283
        51.250          49.250    20661197.292


 113234958.130 7                  21220185.719
        45.000


 130968743.826 5                  24922518.790
        35.750                                    97801361.385 6  24922519.054
        36.500   106305806.796 6  24922516.403          41.750   100352688.343 6
  24922516.816          38.500    99077025.430 6  24922517.640          40.500
 114139531.793 8  88775235.809 7  21382173.051    21382179.292
        49.250          46.250    21382179.417


 129373930.474 6 100810853.873 5  24619041.191    24619040.399    24619041.102
        37.500          30.750    24619039.219


 133473192.735 5                  25399099.191
        35.250                                    99671569.913 6  25399099.423
        36.000   108338649.098 6  25399096.790          39.500   102271689.839 6
  25399097.619          38.500   100971635.950 6  25399098.273          40.250
 122367483.150 7  95174741.936 6  22867281.909    22867285.586
        44.500          40.750    22867285.220


 19  3 26 19  3 30.0000000  0 28R10G08E03G23E05E02G28G09G30G27R08G16
                                R15G07E24G11E08R19R09E25R16R07R06E12
                                R18G05E11R17
 128825672.436 5                  24167367.888
        33.500


 111049778.197 8  86532327.538 7  21132060.839    21132061.769    21132060.589
        49.000          46.500    21132062.745    82926819.118 8  21132061.113
        50.500

 127649844.573 8                  24290961.967
        48.000                                    95322977.649 8  24290964.762
        48.500   103611920.924 8  24290961.412          52.500    97809651.873 8
  24290962.580          51.000    96566320.391 8  24290963.436          52.750
 117612848.062 7  91646366.68245  22380981.453    22380977.893    22380981.020
        45.750          33.000


 135201097.004 7                  25727913.038
        43.250                                   100961872.986 7  25727916.728
        43.500   109741144.841 7  25727912.156          47.500   103595650.160 7
  25727914.619          45.750   102278765.703 7  25727915.322          47.750
 137110767.528 6                  26091305.501
        41.750                                   102387938.021 7  26091308.474
        42.500   111291221.798 7  26091306.464          46.250   105058915.906 7
  26091306.243          45.000   103723434.053 7  26091307.099          46.750
 121246491.563 6  94477789.58044  23072435.812    23072434.187    23072435.124
        41.250          25.500


 108270734.492 8  84366815.943 8  20603232.572    20603232.862    20603232.389
        50.250          48.250    20603233.363    80851531.207 8  20603233.398
        51.750

 115861892.180 7  90282010.928 7  22047777.086    22047777.771    22047776.706
        45.500          43.500    22047778.426    86520268.100 8  22047778.249
        48.500

 116428948.172 7  90723880.528 7  22155683.050    22155683.381    22155682.684
        46.250          43.500    22155684.347    86943722.929 7  22155683.614
        47.250

 125204159.750 7  97381051.378 6  23380995.424    23380999.869
        42.250          40.500    23380999.356


 127911739.731 6  99671488.74343  24340792.968    24340790.856    24340792.293
        37.500          18.250


 127948726.083 7  99515707.226 5  23943864.329    23943869.555
        44.500          34.500    23943870.210


 108589608.067 8  84615282.795 7  20663908.151    20663905.758    20663907.968
        51.250          46.500    20663906.219


 122941167.735 7                  23394929.914
        45.000                                    91806778.124 7  23394943.176
        45.500    99789888.532 8  23394922.086          49.250    94201730.880 7
  23394941.030          47.750    93004254.530 8  23394941.783          49.750
 130493778.254 6 101683470.47643  24832134.712    24832133.930    24832134.301
        38.750          20.250


 129513148.666 6                  24645531.495
        39.750                                    96714377.245 6  24645532.925
        40.500   105124316.161 7  24645533.109          45.250    99237350.920 7
  24645530.786          42.750    97975863.666 7  24645531.654          44.500
 122036860.723 6  94917565.520 6  22813494.524    22813498.463
        41.250          37.750    22813498.898


 110950566.106 8  86294920.717 8  20777470.976    20777475.014
        50.750          49.250    20777474.822


 120629331.928 8                  22954994.735
        49.250                                    90080383.973 8  22954997.370
        50.500    97913436.643 9  22954993.399          55.000    92430294.115 8
  22954995.160          52.750    91255346.742 9  22954996.026          54.750
 108800826.777 7  84622918.768 7  20367740.108    20367744.860
        47.250          44.250    20367744.294


 110596220.257 8  86019313.800 8  20660300.844    20660304.788
        51.250          49.500    20660304.576


 113339659.284 7                  21239806.667
        44.750


 130942012.803 5                  24917432.036
        35.500                                    97781399.874 6  24917432.150
        36.750   106284109.485 6  24917429.537          41.750   100332206.118 6
  24917430.433          39.000    99056803.574 6  24917430.883          41.000
 114096372.387 8  88741667.382 7  21374088.079    21374094.017
        49.500          46.500    21374093.923


 129374026.345 6 100810928.404 5  24619059.212    24619058.542    24619059.172
        36.750          30.750    24619059.129


 133394226.831 5                  25384072.320
        34.750                                    99612601.900 6  25384072.718
        36.750   108274553.377 6  25384069.939          39.000   102211183.503 6
  25384070.703          38.500   100911898.664 6  25384071.528          40.750
 122426351.771 7  95220528.565 7  22878282.214    22878287.107
        44.250          42.000    22878286.937


 19  3 26 19  4  0.0000000  0 28R10G08E03G23E05E02G28G09G30G27R08G16
                                R15G07E24G11E08R19R09E25R16R07R06E12
                                R18G05E11R17
 128741421.738 6 100132242.254 6  24151562.392    24151570.301
        36.750          36.000    24151571.648


 111035300.316 8  86521046.094 7  21129305.935    21129306.712    21129305.685
        49.250          46.500    21129307.636    82916007.727 8  21129306.149
        50.750

 127670714.172 8                  24294933.310
        48.250                                    95338562.073 8  24294936.139
        48.500   103628860.529 8  24294932.753          52.750    97825642.861 8
  24294933.942          51.250    96582108.096 8  24294934.805          53.000
 117709498.171 7  91721678.41545  22399373.255    22399369.918    22399372.822
        45.750          33.000


 135286801.248 7                  25744221.992
        43.500                                   101025872.857 7  25744225.969
        44.000   109810709.944 7  25744221.122          47.750   103661319.618 7
  25744223.463          46.000   102343600.366 8  25744224.334          48.000
 137055935.711 7                  26080871.397
        42.250                                   102346992.233 7  26080874.356
        42.750   111246715.502 7  26080872.391          46.250   105016901.968 7
  26080872.048          45.500   103681954.188 7  26080872.940          47.250
 121168222.601 7  94416800.82444  23057541.749    23057540.356    23057541.061
        42.000          26.000


 108323181.473 8  84407683.710 8  20613212.914    20613213.195    20613212.731
        50.500          48.250    20613213.719    80890696.148 8  20613213.773
        52.000

 115792878.989 7  90228234.459 7  22034644.300    22034644.965    22034643.925
        46.000          43.750    22034645.677    86468732.314 8  22034645.449
        49.000

 116479229.304 7  90763060.600 7  22165251.237    22165251.647    22165250.871
        46.500          43.750    22165252.379    86981270.532 7  22165251.760
        47.500

 125106054.273 6  97304747.197 6  23362674.664    23362679.227
        41.250          40.000    23362678.774


 128017502.065 6  99753900.91043  24360918.714    24360917.147    24360918.030
        38.250          20.000


 128035123.168 7  99582904.883 6  23960032.972    23960038.371
        45.500          36.000    23960037.573


 108561925.402 8  84593711.888 7  20658640.111    20658637.834    20658639.928
        51.500          46.750    20658638.381


 122995698.548 7                  23405306.702
        45.250                                    91847499.178 7  23405320.127
        45.750    99834150.539 8  23405299.022          49.500    94243514.224 8
  23405317.925          48.250    93045506.727 8  23405318.668          50.000
 130399771.416 6 101610218.48843  24814245.711    24814245.063    24814245.300
        38.500          20.000


 129457093.801 6                  24634864.556
        40.250                                    96672518.099 6  24634866.297
        40.500   105078817.064 7  24634866.140          45.500    99194399.770 7
  24634863.909          43.000    97933458.512 7  24634864.747          45.000
 121916235.916 6  94823746.311 6  22790944.731    22790948.943
        41.500          38.250    22790949.162


 110901303.070 8  86256605.037 8  20768245.189    20768249.478
        51.000          49.250    20768249.263


 120628511.279 8                  22954838.647
        49.750                                    90079771.145 8  22954841.193
        50.500    97912770.525 9  22954837.226          55.250    92429665.308 8
  22954838.954          53.250    91254725.925 9  22954839.868          55.000
 108845788.778 7  84657889.204 7  20376157.116    20376161.932
        47.750          44.500    20376161.215


 110592266.748 8  86016238.832 8  20659561.873    20659566.243
        51.500          49.750    20659566.270


 113444807.631 7                  21259511.234
        45.000


 130915674.414 6                  24912420.235
        36.000                                    97761731.679 6  24912420.182
        37.000   106262730.990 7  24912417.461          42.000   100312024.790 6
  24912418.292          39.500    99036878.804 6  24912418.910          41.250
 114053955.420 8  88708676.411 7  21366141.807    21366148.074
        50.000          46.750    21366147.901


 129374644.012 6 100811409.761 5  24619176.579    24619175.997    24619176.583
        36.750          31.000    24619176.293


 133315359.421 5                  25369064.334
        34.750                                    99553707.518 6  25369064.952
        37.000   108210537.715 6  25369062.031          39.000   102150752.713 6
  25369062.849          39.000   100852236.070 6  25369063.536          41.000
 122485910.386 7  95266851.904 7  22889412.383    22889417.009
        44.250          42.250    22889416.745


 19  3 26 19  4 30.0000000  0 28R10G08E03G23E05E02G28G09G30G27R08G16
                                R15G07E24G11E08R19R09E25R16R07R06E12
                                R18G05E11R17
 128657227.849 5 100066758.253 6  24135766.270    24135775.459
        35.750          36.250    24135775.379


 111021438.025 8  86510244.311 7  21126667.897    21126668.657    21126667.643
        49.250          46.500    21126669.520    82905656.025 8  21126668.102
        50.750

 127691997.659 8                  24298983.480
        48.250                                    95354455.562 8  24298986.243
        48.500   103646136.070 8  24298982.796          52.500    97841950.964 8
  24298984.103          51.250    96598208.837 8  24298984.923          53.000
 117806448.379 7  91797223.98145  22417822.377    22417818.946    22417821.944
        46.000          33.000


 135372660.243 7                  25760560.340
        43.250                                   101089988.318 7  25760564.347
        43.750   109880400.664 7  25760559.540          47.250   103727107.643 7
  25760561.858          45.750   102408552.054 7  25760562.821          47.750
 137001214.406 7                  26070458.264
        42.500                                   102306128.961 7  26070461.180
        42.750   111202298.883 7  26070459.311          46.250   104974972.700 7
  26070458.888          45.500   103640557.905 7  26070459.761          47.000
 121090206.410 6  94356009.02844  23042695.101    23042694.474    23042694.422
        41.250          26.250


 108376145.254 8  84448954.177 8  20623291.612    20623291.880    20623291.434
        50.500          48.500    20623292.340    80930247.007 8  20623292.509
        52.250

 115723996.732 7  90174559.993 7  22021536.302    22021537.008    22021535.922
        46.000          43.750    22021537.746    86417294.291 8  22021537.539
        49.000

 116530077.216 7  90802682.363 7  22174927.175    22174927.626    22174926.813
        46.500          43.750    22174928.292    87019241.373 7  22174927.759
        47.250

 125008425.512 6  97228813.725 6  23344443.410    23344448.195
        41.250          40.250    23344447.318


 128123261.074 6  99836310.48143  24381044.392    24381043.108    24381043.735
        38.750          20.750


 128121500.511 7  99650087.229 6  23976197.181    23976202.580
        45.000          36.500    23976202.964


 108534483.217 8  84572328.375 7  20653418.135    20653415.706    20653417.952
        51.750          47.000    20653415.921


 123050272.695 7                  23415691.838
        45.250                                    91888252.577 7  23415705.204
        45.250    99878447.728 8  23415684.205          49.250    94285330.765 8
  23415702.862          48.000    93086791.745 8  23415703.780          49.750
 130305738.232 6 101536945.94343  24796351.688    24796350.954    24796351.295
        38.250          19.500


 129401354.474 6                  24624257.639
        40.250                                    96630894.562 6  24624259.245
        40.500   105033574.109 7  24624259.164          45.250    99151690.422 7
  24624256.850          42.750    97891292.066 7  24624257.906          44.750
 121795794.237 6  94730069.494 6  22768429.791    22768433.730
        41.500          39.250    22768433.466


 110852251.141 8  86218453.550 8  20759059.330    20759063.528
        50.750          49.500    20759063.287


 120627843.119 8                  22954711.454
        49.500                                    90079272.196 8  22954714.012
        50.250    97912228.194 9  22954710.126          55.000    92429153.349 8
  22954711.836          53.000    91254220.346 9  22954712.705          54.750
 108890944.086 7  84693009.988 7  20384610.332    20384614.942
        47.500          44.250    20384614.383


 110589134.272 8  86013802.441 8  20658977.007    20658981.219
        51.500          49.500    20658981.178


 113550394.609 7                  21279297.863
        44.750


 130889726.215 5                  24907481.993
        35.500                                    97742354.756 6  24907482.542
        36.750   106241669.142 6  24907479.533          41.750   100292142.407 6
  24907480.331          39.250    99017249.155 6  24907481.119          41.000
 114012279.827 8  88676262.081 7  21358334.810    21358340.684
        50.000          46.750    21358340.509


 129375779.154 6 100812294.307 5  24619393.235    24619392.211    24619393.270
        37.500          30.500    24619392.296


 133236589.287 5                  25354075.144
        34.750                                    99494885.673 6  25354075.207
        37.000   108146600.890 6  25354072.207          38.750   102090396.417 6
  25354073.241          39.000   100792647.118 6  25354074.052          41.000
 122546152.909 7  95313707.174 7  22900670.465    22900674.876
        44.000          43.000    22900674.840


 19  3 26 19  5  0.0000000  0 28R10G08E03G23E05E02G28G09G30G27R08G16
                                R15G07E24G11E08R19R09E25R16R07R06E12
                                R18G05E11R17
 128573093.744 5 100001320.650 6  24119980.854    24119992.400
        35.000          36.000    24119992.158


 111008194.536 8  86499924.734 7  21124147.812    21124148.460    21124147.558
        49.250          46.250    21124149.475    82895766.432 8  21124147.936
        50.500

 127713697.346 8                  24303112.693
        48.000                                    95370659.882 8  24303115.586
        48.500   103663749.456 8  24303112.108          52.250    97858577.997 8
  24303113.482          50.750    96614624.512 8  24303114.257          52.750
 117903699.236 7  91873003.82445  22436328.599    22436325.173    22436328.166
        45.500          32.250


 135458675.124 7                  25776928.505
        43.000                                   101154220.173 7  25776932.486
        44.000   109950217.905 7  25776927.621          47.000   103793015.116 7
  25776930.055          45.250   102473621.719 7  25776930.995          47.500
 136946606.266 7                  26060066.703
        42.250                                   102265350.220 7  26060069.524
        43.000   111157974.139 7  26060067.485          46.000   104933130.152 7
  26060067.165          45.000   103599247.259 7  26060068.137          47.000
 121012446.665 6  94295417.07644  23027898.324    23027897.166    23027897.654
        41.750          25.750


 108429627.274 8  84490628.473 8  20633468.851    20633469.168    20633468.673
        50.250          48.250    20633469.633    80970184.873 8  20633469.722
        52.000

 115655249.291 7  90120990.584 7  22008453.990    22008454.746    22008453.610
        45.500          43.500    22008455.613    86365956.944 8  22008455.304
        49.000

 116581492.830 7  90842746.494 7  22184711.497    22184711.586    22184711.131
        46.250          43.250    22184712.351    87057636.159 7  22184711.759
        47.000

 124911280.227 6  97153256.331 6  23326301.255    23326306.228
        40.500          39.000    23326306.953


 128229017.857 6  99918718.32043  24401169.329    24401167.956    24401168.712
        38.500          20.750


 128207861.022 7  99717256.475 6  23992357.699    23992363.893
        44.000          37.000    23992364.984


 108507285.447 8  84551135.318 7  20648242.573    20648240.198    20648242.390
        51.500          46.750    20648240.788


 123104892.582 7                  23426085.742
        45.000                                    91929040.162 7  23426099.014
        45.500    99922782.052 8  23426077.948          49.000    94327182.371 7
  23426096.690          47.500    93128111.340 8  23426097.617          49.500
 130211684.437 6 101463657.35243  24778453.824    24778452.661    24778453.409
        38.000          18.500


 129345935.035 6                  24613711.650
        40.000                                    96589509.949 6  24613713.550
        40.500   104988590.819 7  24613713.371          45.000    99109226.198 7
  24613711.003          42.750    97849367.648 7  24613711.818          44.750
 121675543.099 6  94636540.920 6  22745949.645    22745954.192
        40.750          39.750    22745953.973


 110803413.098 8  86180468.426 8  20749913.830    20749917.930
        50.750          49.250    20749917.988


 120627329.727 8                  22954613.809
        49.250                                    90078888.838 8  22954616.264
        50.500    97911811.494 9  22954612.352          54.750    92428759.986 8
  22954614.182          52.750    91253831.986 9  22954615.002          54.750
 108936294.999 7  84728282.926 7  20393099.910    20393104.730
        47.250          44.250    20393104.270


 110586825.614 8  86012006.813 8  20658545.750    20658549.904
        51.250          49.250    20658549.859


 113656418.847 7                  21299167.009
        44.500


 130864172.116 5                  24902619.359
        35.500                                    97723272.150 6  24902619.976
        37.000   106220927.187 6  24902616.640          41.500   100272562.007 6
  24902617.568          39.000    98997917.653 6  24902618.267          41.000
 113971351.166 8  88644428.690 7  21350667.104    21350673.175
        49.250          46.250    21350673.005


 129377434.134 6 100813583.891 5  24619707.028    24619706.969    24619707.072
        36.000          31.000    24619708.127


 133157921.185 5                  25339104.883
        34.250                                    99436140.115 6  25339105.093
        37.000   108082746.999 6  25339102.271          38.500   102030118.345 6
  25339103.293          38.500   100733135.303 6  25339103.987          40.750
 122607079.951 7  95361094.830 7  22912056.375    22912060.611
        43.750          43.250    22912060.285


 19  3 26 19  5 30.0000000  0 28R10G08E03G23E05E02G28G09G30G27R08G16
                                R15G07E24G11E08R19R09E25R16R07R06E12
                                R18G05E11R17
 128489019.939 6  99935929.985 5  24104213.859    24104219.816
        39.000          35.500    24104221.113


 110995571.257 8  86490088.422 7  21121745.584    21121746.420    21121745.330
        49.250          46.500    21121747.386    82886339.971 8  21121745.873
        50.750

 127735813.554 8                  24307321.352
        48.000                                    95387175.212 8  24307324.205
        48.500   103681700.911 8  24307320.740          52.500    97875524.171 8
  24307322.066          51.000    96631355.265 8  24307322.836          52.750
 118001248.960 7  91949016.54845  22454891.780    22454888.287    22454891.342
        45.750          32.250


 135544844.859 7                  25793326.017
        42.500                                   101218567.642 7  25793330.118
        43.750   110020160.840 7  25793325.365          47.000   103859041.231 7
  25793327.670          45.500   102538808.511 7  25793328.628          47.750
 136892111.857 6                  26049696.702
        41.750                                   102224656.393 7  26049699.536
        42.750   111113741.704 7  26049697.999          46.250   104891374.741 7
  26049697.379          45.500   103558022.641 7  26049698.185          47.250
 120934944.869 6  94235026.11744  23013149.938    23013148.896    23013149.277
        41.750          25.750


 108483626.860 8  84532706.058 8  20643744.728    20643744.925    20643744.550
        50.250          48.250    20643745.524    81010509.229 8  20643745.483
        52.000

 115586638.361 7  90067527.541 7  21995397.729    21995398.583    21995397.345
        46.000          43.500    21995399.267    86314721.532 8  21995399.029
        48.750

 116633474.990 7  90883252.080 7  22194603.409    22194603.422    22194603.038
        46.500          43.500    22194604.075    87096454.003 7  22194603.770
        47.250

 124814622.412 6  97078079.076 6  23308252.418    23308255.910
        41.500          39.000    23308256.286


 128334771.871 6 100001123.99243  24421293.836    24421292.284    24421293.215
        38.750          20.500


 128294205.421 7  99784413.178 6  24008515.791    24008521.583
        43.500          37.500    24008521.029


 108480333.735 8  84530133.986 7  20643113.805    20643111.551    20643113.622
        51.500          46.750    20643112.097


 123159558.514 7                  23436488.408
        44.750                                    91969862.115 7  23436501.582
        45.500    99967153.747 8  23436480.436          48.750    94369069.245 7
  23436499.205          47.750    93169465.755 8  23436500.217          49.500
 130117613.264 6 101390355.21442  24760553.007    24760551.625    24760552.583
        37.500          17.750


 129290837.707 6                  24603226.817
        40.000                                    96548365.867 6  24603228.337
        40.250   104943868.978 7  24603228.753          45.250    99067008.785 7
  24603226.524          43.250    97807686.900 7  24603227.151          44.750
 121555488.042 6  94543164.873 6  22723507.618    22723510.787
        41.000          39.250    22723511.073


 110754789.580 8  86142650.180 8  20740807.782    20740812.303
        50.750          49.000    20740812.115


 120626971.339 8                  22954545.603
        49.000                                    90078621.214 8  22954548.081
        50.250    97911520.598 9  22954544.222          54.750    92428485.377 8
  22954545.914          52.750    91253560.869 9  22954546.787          54.750
 108981841.649 7  84763708.108 7  20401626.655    20401631.381
        47.250          44.000    20401630.701


 110585341.267 8  86010852.337 8  20658268.343    20658272.541
        51.250          49.250    20658272.693


 113762876.811 7                  21319117.501
        44.500


 130839013.895 5                  24897831.932
        35.500                                    97704485.200 6  24897832.254
        37.000   106200506.561 6  24897829.307          41.500   100253284.938 6
  24897830.195          39.500    98978885.642 6  24897830.817          41.250
 113931172.637 8  88613178.774 7  21343140.401    21343146.588
        49.500          46.500    21343146.337


 129379608.992 6 100815278.546 5  24620120.938    24620120.562    24620120.964
        36.500          30.750    24620121.157


 133079358.308 5                  25324154.746
        34.250                                    99377473.065 6  25324155.139
        37.000   108018978.449 6  25324152.188          38.250   101969920.867 6
  25324153.009          38.250   100673703.039 6  25324153.926          40.750
 122668689.389 7  95409013.255 7  22923569.004    22923574.010
        43.500          43.000    22923573.893


 19  3 26 19  6  0.0000000  0 28R10G08E03G23E05E02G28G09G30G27R08G16
                                R15G07E24G11E08R19R09E25R16R07R06E12
                                R18G05E11R17
 128405002.594 6  99870583.201 5  24088450.696    24088458.612
        39.500          35.000    24088459.738


 110983565.185 8  86480733.058 7  21119460.896    21119461.719    21119460.646
        49.500          46.500    21119462.720    82877374.411 8  21119461.145
        50.500

 127758342.045 8                  24311608.354
        48.250                                    95403998.425 8  24311611.234
        48.500   103699987.021 8  24311607.796          52.500    97892786.251 8
  24311609.063          51.250    96648397.912 8  24311609.882          53.000
 118099091.482 7  92025257.42245  22473510.591    22473507.242    22473510.153
        45.750          31.750


 135631163.917 7                  25809752.164
        43.000                                   101283026.633 7  25809755.979
        43.750   110090224.974 7  25809751.338          47.000   103925181.771 7
  25809753.745          45.750   102604108.276 7  25809754.659          47.750
 136837727.182 7                  26039347.632
        42.500                                   102184044.509 7  26039350.516
        43.000   111069598.334 7  26039348.392          46.000   104849703.417 7
  26039348.157          45.500   103516881.039 7  26039349.075          47.500
 120857697.742 7  94174833.61044  22998450.511    22998449.035    22998449.845
        42.500          26.000


 108538138.853 8  84575182.927 8  20654117.957    20654118.296    20654117.779
        50.250          48.250    20654118.784    81051216.219 8  20654118.850
        51.750

 115518161.174 7  90014168.716 7  21982367.291    21982367.840    21982366.907
        46.250          43.750    21982368.601    86263585.995 8  21982368.300
        48.750

 116686018.037 7  90924194.683 7  22204601.799    22204602.166    22204601.433
        46.500          43.750    22204603.069    87135690.682 7  22204602.406
        47.250

 124718452.534 6  97003280.330 6  23290293.057    23290297.734
        41.750          39.000    23290297.649


 128440517.482 6 100083523.11943  24441416.517    24441415.001    24441415.878
        39.000          21.000


 128380529.694 7  99851555.286 6  24024669.894    24024676.952
        43.000          39.250    24024676.853


 108453625.738 8  84509322.569 7  20638031.559    20638029.158    20638031.376
        51.750          46.750    20638029.591


 123214266.316 7                  23446898.855
        45.000                                    92010715.332 7  23446912.065
        45.500   100011559.425 8  23446891.111          49.000    94410988.200 7
  23446909.768          47.750    93210851.838 8  23446910.780          49.750
 130023524.250 6 101317039.17142  24742648.643    24742647.109    24742648.210
        37.250          17.000


 129236060.230 6                  24592803.446
        40.750                                    96507460.606 6  24592804.841
        40.750   104899406.753 7  24592805.042          45.500    99025036.451 7
  24592802.840          43.500    97766248.104 7  24592803.382          45.000
 121435629.864 6  94449941.924 6  22701100.276    22701104.510
        41.000          39.750    22701104.948


 110706376.625 8  86104995.668 8  20731741.965    20731746.011
        50.750          49.250    20731745.832


 120626763.647 8                  22954506.096
        49.500                                    90078466.119 8  22954508.533
        50.500    97911352.018 9  22954504.692          55.000    92428326.237 8
  22954506.358          53.000    91253403.752 9  22954507.262          54.750
 109027579.657 7  84799282.112 7  20410189.074    20410193.626
        47.250          44.250    20410193.156


 110584677.531 8  86010336.085 8  20658144.177    20658148.568
        51.250          49.500    20658148.514


 113869759.520 7                  21339147.552
        44.250


 130814248.850 5                  24893119.024
        35.750                                    97685991.838 6  24893119.417
        37.000   106180405.112 6  24893116.663          41.250   100234309.163 6
  24893117.872          39.750    98960151.074 6  24893118.222          41.500
 113891743.098 8  88582511.381 7  21335753.672    21335759.966
        49.500          46.500    21335759.859


 129382299.210 6 100817374.778 5  24620633.859    24620632.387    24620633.890
        37.500          30.750    24620633.836


 133000898.816 5                  25309224.687
        35.500                                    99318883.252 6  25309224.892
        37.250   107955293.817 6  25309221.709          38.250   101909802.596 6
  25309222.466          38.000   100614348.996 6  25309223.424          40.500
 122730974.981 7  95457457.571 7  22935208.833    22935213.127
        44.250          43.250    22935213.565


 19  3 26 19  6 30.0000000  0 28R10G08E03G23E05E02G28G09G30G27R08G16
                                R15G07E24G11E08R19R09E25R16R07R06E12
                                R18G05E11R17
 128321045.404 6  99805283.184 5  24072700.047    24072708.369
        40.500          34.500    24072707.796


 110972180.717 8  86471862.045 7  21117294.478    21117295.243    21117294.219
        49.250          46.250    21117296.142    82868873.022 8  21117294.632
        50.500

 127781286.262 8                  24315974.439
        48.000                                    95421132.084 8  24315977.319
        48.500   103718610.563 8  24315973.882          52.500    97910366.864 8
  24315975.232          51.000    96665755.104 8  24315976.030          52.750
 118197228.704 7  92101727.93745  22492185.655    22492182.175    22492185.217
        45.250          31.500


 135717634.516 7                  25826206.997
        42.750                                   101347598.783 7  25826210.917
        44.000   110160412.103 7  25826206.146          47.250   103991438.412 7
  25826208.526          45.750   102669522.726 8  25826209.511          48.000
 136783456.060 7                  26029019.887
        42.000                                   102143517.413 7  26029023.043
        43.250   111025547.125 7  26029020.872          46.250   104808119.080 7
  26029020.736          45.500   103475825.336 7  26029021.628          47.500
 120780709.826 7  94114843.07144  22983800.345    22983798.431    22983799.684
        42.000          25.750


 108593165.769 8  84618061.010 8  20664589.176    20664589.627    20664588.998
        50.000          48.250    20664590.144    81092307.718 8  20664590.175
        51.750

 115449822.697 7  89960917.987 7  21969362.939    21969363.439    21969362.555
        46.000          43.750    21969364.262    86212554.031 8  21969364.014
        49.000

 116739123.931 7  90965575.884 7  22214707.664    22214707.967    22214707.298
        46.250          43.250    22214708.568    87175347.669 7  22214708.083
        47.000

 124622778.428 6  96928866.139 6  23272426.647    23272430.874
        41.750          38.500    23272431.384


 128546257.542 6 100165917.93443  24461538.132    24461536.045    24461537.480
        38.500          21.000


 128466838.125 7  99918684.972 6  24040822.288    24040828.384
        42.250          39.750    24040829.086


 108427166.172 8  84488704.711 7  20632996.476    20632994.003    20632996.289
        51.500          46.500    20632994.623


 123269019.541 7                  23457317.968
        44.750                                    92051602.456 7  23457331.293
        45.500   100056001.954 8  23457310.285          49.000    94452941.949 7
  23457329.047          47.750    93252272.225 8  23457329.987          49.750
 129929423.588 6 101243714.07042  24724741.255    24724740.601    24724740.795
        37.250          16.000


 129181607.951 6                  24582441.054
        40.500                                    96466798.207 6  24582442.933
        40.750   104855208.484 7  24582442.996          45.500    98983313.291 7
  24582440.797          43.750    97725055.329 7  24582441.441          45.250
 121315977.509 6  94356879.013 6  22678733.021    22678736.864
        41.250          39.500    22678737.017


 110658178.056 8  86067507.879 8  20722715.828    20722719.840
        51.000          49.250    20722719.775


 120626710.102 8                  22954495.820
        49.500                                    90078426.128 8  22954498.434
        50.500    97911308.548 9  22954494.603          55.000    92428285.201 8
  22954496.160          53.000    91253363.362 9  22954497.083          55.000
 109073512.254 7  84835007.440 7  20418787.649    20418792.139
        47.000          44.000    20418791.580


 110584838.206 8  86010461.023 8  20658174.760    20658178.744
        51.250          49.500    20658178.481


 113977067.288 7                  21359256.449
        44.250


 130789882.038 5                  24888482.582
        35.750                                    97667795.858 6  24888482.642
        37.250   106160626.852 6  24888479.806          41.500   100215638.522 6
  24888480.613          39.500    98941717.758 6  24888481.388          41.500
 113853069.036 8  88552431.557 7  21328508.873    21328514.917
        49.250          46.500    21328514.623


 129385508.057 6 100819875.128 5  24621243.955    24621243.324    24621244.004
        37.000          30.250    24621243.699


 132922549.010 6                  25294315.148
        36.250                                    99260375.320 6  25294315.301
        36.750   107891698.223 6  25294312.367          38.750   101849768.331 6
  25294312.736          37.250   100555077.791 6  25294313.857          40.000
 122793938.160 7  95506428.879 7  22946975.187    22946979.316
        44.750          42.750    22946979.581


 19  3 26 19  7  0.0000000  0 29R10G08E03G23E05E02G28G09G30G27R08G16
                                R15G07E24G11E08R19R09E25R16R07R06E12
                                G18R18G05E11R17
 128237145.567 6  99740027.791 5  24056960.988    24056968.907
        41.500          33.000    24056968.684


 110961415.341 8  86463473.503 7  21115245.838    21115246.590    21115245.584
        49.250          46.500    21115247.577    82860834.014 8  21115246.035
        50.500

 127804642.741 8                  24320418.972
        48.250                                    95438573.640 8  24320421.942
        48.500   103737568.779 8  24320418.476          52.250    97928263.421 8
  24320419.827          51.000    96683424.130 8  24320420.629          52.750
 118295654.790 7  92178423.53945  22510915.234    22510911.988    22510914.792
        45.000          31.250


 135804251.976 7                  25842689.708
        42.750                                   101412280.602 7  25842693.659
        44.000   110230718.453 7  25842689.041          46.500   104057807.590 7
  25842691.376          45.750   102735048.215 8  25842692.302          48.000
 136729295.240 7                  26018713.625
        42.500                                   102103072.705 7  26018716.414
        43.250   110981585.468 7  26018714.460          45.750   104766619.273 7
  26018714.003          45.250   103434853.078 7  26018715.109          47.250
 120703978.721 6  94055052.65544  22969198.557    22969197.221    22969197.905
        41.750          26.000


 108648703.142 8  84661336.883 8  20675157.574    20675158.013    20675157.391
        50.000          48.250    20675158.586    81133780.427 8  20675158.612
        51.750

 115381620.989 7  89907773.823 7  21956384.393    21956385.073    21956384.004
        46.250          44.000    21956385.561    86161624.238 8  21956385.565
        49.000

 116792787.774 7  91007391.871 7  22224919.830    22224919.759    22224919.464
        46.500          43.500    22224920.349    87215421.332 7  22224919.976
        47.000

 124527600.617 7  96854838.898 6  23254652.944    23254656.361
        42.000          38.000    23254656.448


 128651986.976 6 100248304.46343  24481657.555    24481655.940    24481656.907
        38.000          20.250


 128553127.617 7  99985798.956 6  24056971.505    24056975.636
        42.250          39.750    24056975.533


 108400953.367 8  84468279.168 7  20628008.328    20628005.869    20628008.145
        51.500          46.750    20628006.197


 123323814.748 7                  23467745.233
        45.250                                    92092520.969 7  23467758.596
        45.500   100100478.595 8  23467737.357          48.500    94494927.894 7
  23467756.364          47.750    93293724.448 8  23467757.175          49.750
 129835311.426 6 101170379.99042  24706832.041    24706831.253    24706831.545
        37.000          16.000


 129127479.425 6                  24572140.924
        40.750                                    96426377.631 6  24572142.460
        40.500   104811273.037 7  24572142.621          45.000    98941838.237 7
  24572140.443          43.750    97684107.484 7  24572141.189          45.250
 121196532.445 6  94263977.356 6  22656403.566    22656407.728
        41.250          39.500    22656407.897


 110610190.841 8  86030184.506 8  20713729.232    20713733.347
        51.000          49.250    20713733.052


 120626807.159 8                  22954514.404
        49.750                                    90078498.621 8  22954516.879
        50.500    97911387.332 9  22954512.972          54.750    92428359.584 8
  22954514.649          53.000    91253436.796 9  22954515.545          54.750
 109119636.091 7  84870881.501 7  20427422.588    20427426.510
        47.500          44.250    20427426.063


 110585819.973 8  86011224.597 8  20658357.798    20658362.127
        51.250          49.250    20658362.114


 114084792.534 7                  21379444.626
        44.250


 130765911.390 6                  24883920.641
        36.000                                    97649895.787 6  24883921.286
        37.500   106141170.224 6  24883918.255          41.250   100197271.464 6
  24883918.941          39.500    98923584.188 6  24883919.868          41.500
 135589048.602 5                  25801738.260
        35.500


 113815149.969 8  88522938.967 7  21321405.408    21321411.613
        49.500          46.500    21321411.309


 129389231.709 6 100822776.818 5  24621952.270    24621952.084    24621952.323
        37.000          30.000    24621951.773


 132844308.005 6                  25279426.296
        36.500                                    99201948.642 6  25279426.391
        36.250   107828190.933 6  25279423.504          38.750   101789817.520 6
  25279424.199          37.500   100495889.034 6  25279425.005          40.000
 122857573.293 7  95555922.801 7  22958867.046    22958871.530
        45.000          43.250    22958871.579


 19  3 26 19  7 30.0000000  0 29R10G08E03G23E05E02G28G09G30G27R08G16
                                R15G07E24G11E08R19R09E25R16R07R06E12
                                G18R18G05E11R17
 128153303.557 6  99674817.293 5  24041231.585    24041240.300
        41.750          32.750    24041240.945


 110951269.966 8  86455567.988 7  21113315.328    21113316.044    21113315.069
        49.250          46.500    21113317.018    82853257.879 8  21113315.520
        50.250

 127828411.736 8                  24324942.126
        48.250                                    95456323.160 8  24324945.006
        48.500   103756861.740 8  24324941.581          52.500    97946475.978 8
  24324942.990          51.000    96701405.196 8  24324943.716          52.750
 118394368.617 7  92255343.35645  22529699.917    22529696.492    22529699.466
        44.750          30.500


 135891015.310 7                  25859200.302
        42.750                                   101477071.335 7  25859204.285
        43.750   110301143.189 7  25859199.374          46.500   104124288.538 7
  25859201.997          45.750   102800684.064 8  25859202.851          48.000
 136675245.420 7                  26008428.376
        42.500                                   102062710.871 7  26008431.114
        43.500   110937713.871 7  26008429.080          46.250   104725204.522 7
  26008428.758          45.500   103393964.779 7  26008429.745          47.500
 120627506.047 7  93995463.60544  22954646.343    22954644.885    22954645.677
        42.000          25.750


 108704750.352 8  84705010.003 8  20685823.097    20685823.410    20685822.919
        50.000          48.250    20685823.952    81175633.832 8  20685824.036
        51.500

 115313557.857 7  89854737.612 7  21943432.397    21943433.082    21943432.004
        46.250          44.000    21943433.770    86110797.865 8  21943433.602
        48.750

 116847008.335 7  91049641.666 7  22235237.263    22235237.442    22235236.892
        46.250          43.000    22235238.196    87255910.693 7  22235237.724
        46.750

 124432923.932 7  96781202.525 6  23236971.998    23236976.723
        42.250          38.250    23236976.285


 128757704.963 6 100330682.06243  24501774.659    24501773.497    24501774.033
        36.750          18.250


 128639399.013 6 100052898.866 6  24073115.844    24073120.345
        40.250          40.000    24073120.635


 108374989.288 8  84448047.422 7  20623067.494    20623065.093    20623067.311
        51.750          47.000    20623065.576


 123378652.426 7                  23478180.595
        45.250                                    92133471.143 7  23478193.760
        45.250   100144989.663 8  23478172.837          49.000    94536946.337 7
  23478191.571          47.750    93335208.762 8  23478192.435          49.500
 129741191.010 6 101097039.48442  24688921.394    24688920.713    24688920.916
        37.000          16.000


 129073676.894 6                  24561902.495
        40.500                                    96386200.342 6  24561904.076
        41.000   104767602.125 7  24561904.211          45.500    98900612.898 7
  24561902.111          43.750    97643406.201 7  24561902.919          45.500
 121077300.250 6  94171241.244 6  22634115.410    22634118.321
        40.500          39.750    22634119.054


 110562415.690 8  85993026.088 8  20704782.454    20704786.609
        51.000          49.000    20704786.459


 120627055.130 8                  22954561.502
        49.500                                    90078683.786 8  22954564.042
        50.500    97911588.604 9  22954560.113          55.000    92428549.583 8
  22954561.912          53.000    91253624.380 9  22954562.722          54.750
 109165951.202 7  84906904.394 7  20436092.326    20436097.219
        47.250          44.250    20436096.887


 110587623.447 8  86012627.303 8  20658695.046    20658698.973
        51.500          49.000    20658698.986


 114192931.568 7                  21399709.382
        44.000


 130742338.931 6                  24879434.996
        36.000                                    97632292.958 6  24879435.621
        37.500   106122036.705 6  24879432.362          41.250   100179209.400 6
  24879433.538          39.750    98905751.762 6  24879434.124          41.750
 135502824.925 5 105586626.23642  25785330.241    25785332.750    25785329.951
        35.250          12.750


 113777989.066 8  88494036.089 7  21314443.740    21314450.040
        49.500          46.500    21314449.943


 129393470.350 6 100826079.433 5  24622760.098    24622758.618    24622760.098
        38.000          30.000    24622758.269


 132766178.809 6                  25264558.907
        37.000                                    99143605.481 6  25264558.916
        36.000   107764774.411 6  25264556.256          39.750   101729952.323 6
  25264556.573          36.750   100436784.849 6  25264557.397          39.500
 122921878.548 7  95605938.025 7  22970883.452    22970888.340
        44.750          43.250    22970888.126


 19  3 26 19  8  0.0000000  0 29R10G08E03G23E05E02G28G09G30G27R08G16
                                R15G07E24G11E08R19R09E25R16R07R06E12
                                G18R18G05E11R17
 128069524.335 7  99609655.712 5  24025515.565    24025523.543
        42.500          32.500    24025523.491


 110941749.538 8  86448149.466 7  21111503.649    21111504.353    21111503.390
        49.000          46.250    21111505.406    82846148.476 8  21111503.867
        50.500

 127852597.346 8                  24329544.448
        48.250                                    95474383.818 8  24329547.359
        48.500   103776492.900 8  24329543.980          52.250    97965007.792 8
  24329545.385          50.750    96719701.460 8  24329546.092          52.750
 118493372.271 7  92332489.01145  22548539.824    22548536.343    22548539.373
        44.500          30.250


 135977927.370 7                  25875739.128
        42.750                                   101541973.156 7  25875743.164
        43.750   110371688.652 7  25875738.217          46.500   104190883.439 7
  25875740.778          45.500   102866432.443 7  25875741.732          47.750
 136621310.940 7                  25998164.943
        42.500                                   102022435.135 7  25998167.682
        43.500   110893935.899 7  25998165.368          46.000   104683878.124 7
  25998165.252          45.250   103353163.746 7  25998166.282          47.500
 120551296.988 6  93936079.96444  22940144.190    22940142.538    22940143.520
        41.750          25.500


 108761310.472 8  84749082.815 8  20696586.187    20696586.462    20696586.004
        49.750          48.000    20696587.121    81217870.271 8  20696586.999
        51.500

 115245638.921 7  89801813.794 7  21930508.014    21930508.432    21930507.617
        46.000          43.750    21930509.048    86060079.201 8  21930508.995
        49.000

 116901788.221 7  91092327.273 7  22245661.203    22245661.697    22245660.832
        45.750          43.000    22245662.432    87296817.736 7  22245662.145
        46.750

 124338756.591 7  96707962.336 6  23219387.456    23219391.755
        42.250          39.500    23219391.149


 128863415.036 6 100413053.50142  24521890.843    24521889.867    24521890.209
        36.250          17.500


 128725656.903 6 100119988.236 6  24089257.031    24089262.697
        37.250          40.750    24089262.382


 108349279.739 8  84428014.004 7  20618175.170    20618172.762    20618174.987
        51.500          46.750    20618173.352


 123433536.668 7                  23488624.705
        45.250                                    92174456.122 7  23488637.967
        45.250   100189538.572 8  23488616.886          48.750    94579000.502 7
  23488635.687          47.500    93376728.360 8  23488636.568          49.500
 129647070.293 6 101023698.69842  24671010.547    24671009.900    24671010.087
        37.250          17.000


 129020206.343 6                  24551727.452
        40.750                                    96346271.043 6  24551728.961
        41.000   104724200.727 7  24551729.278          45.500    98859641.969 7
  24551726.975          43.750    97602956.120 7  24551727.756          45.500
 120958290.196 6  94078677.919 6  22611866.575    22611870.689
        40.000          40.000    22611871.218


 110514857.217 8  85956036.174 8  20695876.400    20695880.323
        50.750          49.000    20695880.054


 120627458.079 8                  22954638.062
        49.500                                    90078984.694 8  22954640.723
        50.250    97911915.674 9  22954636.819          54.750    92428858.342 8
  22954638.584          53.000    91253929.236 9  22954639.394          54.750
 109212461.736 7  84943079.228 7  20444799.191    20444803.969
        47.000          44.000    20444803.230


 110590253.399 8  86014672.808 8  20659186.220    20659190.231
        51.250          49.250    20659190.055


 114301484.424 7                  21420052.581
        44.000


 130719170.127 5                  24875026.180
        35.750                                    97614991.594 6  24875026.707
        37.500   106103230.866 6  24875023.598          41.000   100161456.704 6
  24875024.748          39.750    98888224.749 6  24875025.259          41.750
 135416509.886 6 105519367.75142  25768905.759    25768907.402    25768905.567
        37.000          15.250


 113741593.403 8  88465728.358 7  21307626.022    21307631.861
        49.250          47.000    21307631.580


 129398227.856 6 100829786.579 5  24623665.023    24623664.216    24623664.988
        37.500          31.750    24623665.030


 132688168.199 6                  25249713.834
        36.750                                    99085350.853 5  25249713.699
        35.500   107701454.161 6  25249711.478          39.750   101670177.978 6
  25249711.418          36.500   100377770.391 6  25249712.372          39.000
 122986855.846 7  95656476.865 7  22983026.803    22983030.969
        45.000          43.250    22983031.015


 19  3 26 19  8 30.0000000  0 29R10G08E03G23E05E02G28G09G30G27R08G16
                                R15G07E24G11E08R19R09E25R16R07R06E12
                                G18R18G05E11R17
 127985799.582 7  99544536.547 4  24009808.337    24009815.952
        42.250          29.000    24009816.203


 110932847.297 8  86441212.672 7  21109809.446    21109810.206    21109809.192
        49.000          46.250    21109811.243    82839500.722 8  21109809.664
        50.750

 127877191.745 8                  24334224.774
        48.250                                    95492749.761 8  24334227.533
        48.500   103796455.883 8  24334224.198          52.250    97983852.845 8
  24334225.447          50.750    96738306.876 8  24334226.275          52.750
 118592655.855 7  92409852.79845  22567432.785    22567429.681    22567432.329
        44.750          31.500


 136064979.126 7                  25892304.540
        42.750                                   101606979.294 7  25892308.533
        44.000   110442347.534 7  25892303.802          46.500   104257585.398 7
  25892306.335          45.750   102932286.420 8  25892307.217          48.000
 136567484.355 7                  25987922.169
        43.000                                   101982240.023 7  25987924.726
        43.750   110850245.525 7  25987922.835          46.250   104642634.431 7
  25987922.551          45.750   103312444.300 7  25987923.402          47.750
 120475344.919 6  93876896.58644  22925690.685    22925689.665    22925690.015
        41.750          26.500


 108818374.728 8  84793548.465 8  20707445.193    20707445.501    20707445.010
        50.000          48.000    20707446.127    81260483.186 8  20707446.024
        51.750

 115177857.952 7  89748997.481 7  21917609.685    21917610.163    21917609.296
        46.000          44.000    21917610.932    86009463.587 8  21917610.752
        49.250

 116957118.180 7  91135441.529 7  22256190.620    22256190.759    22256190.249
        46.000          42.750    22256191.541    87338135.564 7  22256191.115
        47.250

 124245094.715 7  96635115.248 6  23201896.509    23201900.748
        42.500          40.000    23201900.614


 128969107.837 6 100495411.45743  24542003.757    24542002.407    24542003.131
        36.250          18.000


 128811893.862 6 100187061.364 6  24105394.393    24105400.909
        36.500          41.250    24105400.167


 108323818.341 8  84408173.954 7  20613330.041    20613327.634    20613329.858
        51.500          46.750    20613327.988


 123488459.901 7                  23499076.278
        45.250                                    92215470.223 7  23499089.487
        45.250   100234119.108 8  23499068.319          48.500    94621084.533 7
  23499087.173          47.500    93418277.453 8  23499088.127          49.500
 129552944.553 6 100950354.03742  24653099.483    24653098.360    24653099.041
        37.750          17.500


 128967062.062 6                  24541614.632
        40.750                                    96306585.434 6  24541615.844
        41.250   104681064.146 7  24541616.090          45.250    98818921.040 7
  24541614.084          44.000    97562752.809 7  24541614.765          45.750
 120839499.708 6  93986285.436 6  22589659.699    22589663.955
        40.500          40.000    22589664.447


 110467508.041 8  85919210.049 8  20687009.040    20687013.234
        50.750          48.750    20687013.287


 120628008.243 8                  22954742.822
        49.500                                    90079395.542 8  22954745.451
        50.500    97912362.251 9  22954741.499          54.750    92429279.904 8
  22954743.253          52.750    91254345.297 9  22954744.091          54.750
 109259159.787 7  84979399.963 7  20453541.099    20453545.624
        47.500          43.500    20453545.016


 110593701.904 8  86017354.974 8  20659830.398    20659834.418
        51.250          49.000    20659834.377


 114410439.374 7                  21440470.620
        44.250


 130696398.699 6                  24870692.996
        36.250                                    97597987.006 6  24870693.313
        38.000   106084747.612 6  24870690.273          41.000   100144008.528 6
  24870691.254          40.000    98870998.341 7  24870692.011          42.000
 135330099.010 6 105452034.57243  25752461.929    25752464.017    25752461.661
        37.250          18.000


 113705958.034 8  88438011.988 7  21300950.036    21300956.295
        49.250          46.750    21300956.000


 129403496.116 6 100833891.743 5  24624666.782    24624666.867    24624666.711
        37.250          31.250    24624668.776


 132610271.074 6                  25234890.502
        37.000                                    99027180.944 5  25234890.569
        35.750   107638225.985 6  25234887.846          40.250   101610490.609 6
  25234888.232          36.500   100318841.851 6  25234888.958          39.000
 123052495.142 7  95707529.638 7  22995293.190    22995297.207
        45.750          43.250    22995297.122


 19  3 26 19  9  0.0000000  0 29R10G08E03G23E05E02G28G09G30G27R08G16
                                R15G07E24G11E08R19R09E25R16R07R06E12
                                G18R18G05E11R17
 127902131.804 7  99479463.664 4  23994112.678
        43.500          28.750    23994121.393


 110924565.568 8  86434759.398 7  21108233.528    21108234.293    21108233.269
        49.250          46.500    21108235.455    82833316.335 8  21108233.701
        50.500

 127902196.154 8                  24338982.861
        48.750                                    95511421.883 8  24338985.799
        48.500   103816751.667 8  24338982.330          52.250    98003012.067 8
  24338983.628          51.000    96757222.548 8  24338984.474          52.750
 118692218.788 7  92487434.25945  22586379.165    22586375.771    22586378.714
        45.000          30.750


 136152170.631 7                  25908896.584
        43.000                                   101672089.788 7  25908900.569
        43.750   110513119.817 7  25908895.700          46.250   104324394.434 7
  25908898.161          46.000   102998246.185 8  25908899.253          48.000
 136513767.234 7                  25977699.959
        43.000                                   101942126.627 7  25977702.771
        43.750   110806643.997 7  25977700.518          46.000   104601474.609 7
  25977700.372          45.750   103271807.693 7  25977701.335          47.750
 120399652.149 7  93817915.24844  22911287.007    22911285.486    22911286.337
        42.000          26.000


 108875943.373 8  84838407.138 8  20718399.979    20718400.475    20718399.792
        50.000          48.000    20718400.917    81303472.750 8  20718400.957
        51.750

 115110217.753 7  89696290.868 7  21904738.142    21904738.664    21904737.753
        46.250          44.000    21904739.308    85958953.079 8  21904739.227
        49.250

 117012997.895 7  91178984.166 7  22266824.388    22266824.428    22266824.017
        46.250          42.750    22266824.991    87379863.929 7  22266824.570
        47.000

 124151944.397 7  96562665.017 6  23184501.449    23184506.435
        43.750          41.250    23184505.854


 129074783.688 6 100577756.22242  24562114.008    24562112.237    24562113.369
        36.250          16.000


 128898111.904 6 100254119.725 7  24121528.803    24121535.619
        36.000          42.000    24121534.752


 108298608.106 8  84388529.631 7  20608532.619    20608530.240    20608532.432
        51.500          47.000    20608530.723


 123543423.465 7                  23509535.412
        45.250                                    92256514.433 7  23509548.644
        45.250   100278732.386 8  23509527.699          48.500    94663199.462 7
  23509546.459          47.500    93459857.021 8  23509547.363          49.500
 129458818.555 6 100877009.17742  24635188.050    24635186.596    24635187.572
        38.000          17.250


 128914247.132 6                  24531564.239
        41.000                                    96267145.729 6  24531565.719
        41.250   104638194.898 7  24531565.903          45.250    98778452.482 7
  24531563.660          44.000    97522798.679 7  24531564.403          45.750
 120720935.447 6  93894068.836 6  22567496.137    22567499.544
        41.000          40.000    22567500.192


 110420369.708 8  85882546.905 8  20678181.784    20678185.982
        50.750          49.000    20678185.678


 120628706.847 8                  22954875.843
        50.000                                    90079917.240 8  22954878.334
        50.500    97912929.305 9  22954874.426          54.750    92429815.208 8
  22954876.150          53.000    91254873.797 9  22954877.036          54.750
 109306046.586 7  85015867.472 7  20462318.885    20462323.195
        47.500          43.750    20462322.614


 110597970.031 8  86020674.612 8  20660627.861    20660632.006
        51.250          49.250    20660632.024


 114519794.418 7                  21460963.546
        44.250


 130674027.475 6                  24866435.755
        36.250                                    97581281.247 6  24866436.332
        37.750   106066589.172 6  24866433.395          41.000   100126866.954 6
  24866434.076          39.750    98854074.673 7  24866434.873          42.000
 135243596.964 6 105384630.42742  25736001.529    25736003.233    25736001.248
        38.500          17.500


 113671087.079 8  88410890.158 7  21294417.209    21294423.606
        49.500          46.750    21294423.167


 129409276.109 6 100838395.607 5  24625767.287    24625767.005    24625767.194
        38.250          31.000    24625767.502


 132532491.367 6                  25220089.404
        37.500                                    98969098.746 5  25220089.485
        35.250   107575093.127 6  25220086.994          40.750   101550893.208 6
  25220087.139          36.750   100260002.050 6  25220087.977          39.000
 123118795.439 7  95759096.514 7  23007683.138    23007687.173
        46.250          43.000    23007687.061


 19  3 26 19  9 30.0000000  0 29R10G08E03G23E05E02G28G09G30G27R08G16
                                R15G07E24G11E08R19R09E25R16R07R06E12
                                G18R18G05E11R17
 127818523.911 7  99414435.289 4  23978428.391
        43.750          29.500    23978438.341


 110916907.652 8  86428792.196 7  21106776.356    21106777.102    21106776.097
        49.250          46.250    21106777.873    82827597.763 8  21106776.567
        50.750

 127927613.310 8                  24343819.654
        48.500                                    95530402.195 8  24343822.528
        48.500   103837382.455 8  24343818.984          52.500    98022487.524 8
  24343820.372          51.250    96776450.491 8  24343821.222          53.000
 118792062.391 7  92565234.40945  22605378.951    22605375.463    22605378.495
        45.000          30.750


 136239503.391 7                  25925515.431
        43.000                                   101737305.756 7  25925519.513
        43.500   110584006.757 7  25925514.865          46.500   104391311.701 7
  25925517.281          46.000   103064312.849 8  25925518.180          48.000
 136460162.702 7                  25967499.385
        43.000                                   101902097.304 7  25967502.171
        43.750   110763133.830 7  25967500.095          46.750   104560401.022 7
  25967499.725          46.000   103231256.249 8  25967500.702          48.000
 120324222.833 7  93759139.21244  22896933.248    22896931.874    22896932.578
        42.000          25.750


 108934018.174 8  84883660.207 7  20729451.312    20729451.728    20729451.129
        50.000          47.750    20729452.217    81346840.267 8  20729452.282
        51.500

 115042722.737 7  89643697.347 7  21891894.032    21891894.769    21891893.643
        46.250          43.750    21891895.504    85908550.965 8  21891895.307
        49.250

 117069428.634 7  91222956.167 7  22277562.429    22277562.621    22277562.063
        46.000          42.500    22277563.210    87422003.752 7  22277562.953
        47.000

 124059312.574 7  96490618.061 6  23167204.193    23167207.951
        44.000          41.750    23167207.302


 129180444.877 5 100660089.58842  24582220.038    24582218.857    24582219.381
        35.500          14.500


 128984314.426 6 100321166.018 7  24137660.860    24137667.543
        36.250          42.750    24137666.940


 108273653.422 8  84369084.410 7  20603783.878    20603781.480    20603783.695
        51.500          46.750    20603781.968


 123598430.304 7                  23520002.776
        45.250                                    92297590.948 7  23520016.084
        45.000   100323380.769 8  23519995.032          48.750    94705347.537 8
  23520013.927          48.000    93501469.262 8  23520014.809          49.500
 129364698.283 6 100803668.76843  24617277.461    24617276.267    24617277.005
        38.500          18.500


 128861766.345 6                  24521577.390
        40.750                                    96227955.540 6  24521578.979
        41.250   104595596.852 7  24521579.057          45.500    98738239.929 7
  24521576.849          44.500    97483097.315 7  24521577.633          46.000
 120602605.420 6  93802034.426 6  22545375.566    22545379.124
        41.750          40.000    22545379.362


 110373445.571 8  85846050.362 8  20669394.304    20669398.397
        50.750          49.500    20669398.226


 120629556.714 8                  22955037.563
        50.000                                    90080551.868 8  22955040.042
        50.500    97913619.123 9  22955036.099          55.000    92430466.394 8
  22955037.854          53.250    91255516.827 9  22955038.753          55.000
 109353124.766 7  85052483.822 7  20471131.707    20471136.213
        47.500          44.250    20471135.839


 110603061.306 8  86024634.478 8  20661578.670    20661582.983
        51.250          49.500    20661582.960


 114629547.423 7                  21481531.425
        44.250


 130652060.685 6                  24862255.590
        36.000                                    97564877.535 6  24862256.113
        38.000   106048758.993 6  24862253.168          41.250   100110035.288 6
  24862254.075          40.250    98837456.975 7  24862254.715          42.250
 135157009.707 6 105317159.91843  25719523.528    25719526.143    25719523.256
        40.000          21.000


 113636986.100 8  88384367.180 7  21288029.145    21288035.397
        49.500          47.500    21288035.156


 129415570.305 6 100843300.190 5  24626965.317    24626964.342    24626965.210
        38.000          30.250    24626964.555


 132454834.601 6                  25205311.859
        37.500                                    98911108.332 5  25205311.765
        35.000   107512060.075 6  25205309.327          41.500   101491389.988 6
  25205309.522          36.750   100201255.111 6  25205310.267          39.000
 123185757.437 7  95811178.027 7  23020196.576    23020200.591
        46.500          43.250    23020200.868


 19  3 26 19 10  0.0000000  0 29R10G08E03G23E05E02G28G09G30G27R08G16
                                R15G07E24G11E08R19R09E25R16R07R06E12
                                G18R18G05E11R17
 127734974.442 7  99349452.468 4  23962754.622
        43.750          29.000    23962764.026


 110909872.543 8  86423310.309 7  21105437.529    21105438.258    21105437.270
        49.250          46.250    21105439.228    82822344.293 8  21105437.810
        50.500

 127953441.053 8                  24348734.473
        48.750                                    95549689.151 8  24348737.402
        48.500   103858346.532 8  24348733.906          52.250    98042277.615 8
  24348735.227          51.000    96795988.957 8  24348736.082          52.750
 118892182.585 7  92643250.10045  22624431.065    22624427.662    22624430.609
        45.000          32.500


 136326974.122 7                  25942160.767
        43.250                                   101802624.753 7  25942164.698
        43.250   110655005.713 7  25942159.815          46.000   104458334.681 7
  25942162.580          45.750   103130483.791 7  25942163.337          47.500
 136406668.989 7                  25957319.763
        43.250                                   101862150.761 7  25957322.647
        43.750   110719713.670 7  25957320.537          46.500   104519412.388 7
  25957320.194          45.500   103190788.647 7  25957321.157          47.750
 120249055.528 7  93700567.33344  22882629.117    22882627.913    22882628.433
        42.000          27.750


 108992595.977 8  84929305.244 7  20740598.388    20740598.678    20740598.205
        50.000          47.750    20740599.179    81390583.430 8  20740599.316
        51.500

 114975372.333 7  89591216.542 7  21879077.800    21879078.367    21879077.411
        46.500          44.000    21879079.016    85858256.859 8  21879078.930
        49.000

 117126406.734 7  91267354.668 7  22288404.935    22288404.948    22288404.564
        45.750          42.250    22288405.618    87464552.336 7  22288405.515
        46.750

 123967200.987 7  96418975.772 6  23150001.830    23150006.110
        43.750          41.250    23150006.221


 129286087.736 5 100742408.63942  24602322.662    24602321.870    24602321.992
        35.250          15.500


 129070499.756 6 100388198.952 7  24153788.352    24153795.521
        37.250          42.250    24153795.508


 108248953.993 8  84349838.120 7  20599083.707    20599081.323    20599083.524
        51.750          46.750    20599081.743


 123653478.452 7                  23530478.173
        45.500                                    92338698.326 7  23530491.365
        44.750   100368062.708 8  23530470.232          48.500    94747527.278 7
  23530489.350          47.750    93543112.875 8  23530490.116          49.250
 129270584.949 6 100730333.77743  24599368.285    24599367.216    24599367.843
        39.250          21.000


 128809619.531 6                  24511654.063
        41.250                                    96189014.766 6  24511655.763
        41.500   104553269.924 7  24511655.843          45.250    98698283.308 7
  24511653.618          44.250    97443648.610 7  24511654.424          46.000
 120484512.725 6  93710184.625 6  22523298.751    22523302.810
        41.750          39.250    22523303.150


 110326734.165 8  85809719.302 8  20660646.796    20660650.873
        50.500          49.000    20660650.766


 120630555.743 8                  22955227.672
        50.000                                    90081297.927 8  22955230.150
        50.250    97914430.047 9  22955226.237          54.750    92431231.914 8
  22955228.019          53.000    91256272.494 9  22955228.847          54.750
 109400392.496 7  85089247.618 7  20479980.476    20479984.916
        47.250          44.000    20479984.125


 110608973.414 8  86029232.790 8  20662683.228    20662687.345
        51.250          49.000    20662687.220


 114739693.057 7                  21502172.647
        44.000


 130630497.770 6                  24858152.124
        36.250                                    97548775.348 6  24858152.804
        37.750   106031256.644 6  24858149.670          40.750   100093513.075 6
  24858150.812          40.000    98821144.787 7  24858151.412          42.000
 135070338.445 6 105249623.97743  25703030.506    25703032.853    25703030.278
        38.750          22.750


 113603655.817 8  88358443.669 7  21281785.272    21281791.436
        49.750          47.000    21281791.150


 129422376.274 6 100848603.457 5  24628261.084    24628258.862    24628260.977
        38.500          30.750    24628259.582


 132377301.321 6                  25190557.769
        37.750                                    98853210.146 5  25190557.724
        34.500   107449127.257 6  25190555.328          41.000   101431981.423 6
  25190555.428          36.750   100142601.858 6  25190556.211          38.750
 123253376.839 7  95863770.880 7  23032832.423    23032836.771
        45.500          42.000    23032836.771


 19  3 26 19 10 30.0000000  0 29R10G08E03G23E05E02G28G09G30G27R08G16
                                R15G07E24G11E08R19R09E25R16R07R06E12
                                G18R18G05E11R17
 127651479.441 7  99284512.004 4  23947090.961
        42.500          29.250    23947098.872


 110903456.783 8  86418311.029 7  21104216.725    21104217.351    21104216.462
        49.250          46.250    21104218.357    82817553.320 8  21104216.724
        50.250

 127979675.346 8                  24353726.618
        48.250                                    95569279.684 8  24353729.561
        48.250   103879640.594 8  24353726.087          52.250    98062379.205 8
  24353727.492          51.000    96815835.018 8  24353728.321          52.750
 118992573.227 7  92721476.52545  22643534.788    22643531.581    22643534.332
        44.750          31.500


 136414577.537 7                  25958831.136
        43.000                                   101868042.834 7  25958835.081
        43.000   110726112.339 7  25958830.337          46.000   104525459.316 7
  25958832.932          45.750   103196755.149 7  25958833.725          47.500
 136353282.437 7                  25947160.594
        42.750                                   101822284.198 7  25947163.491
        43.500   110676380.437 7  25947161.564          46.750   104478505.830 7
  25947161.087          45.500   103150402.087 7  25947161.961          47.500
 120174147.610 7  93642197.57844  22868374.683    22868373.122    22868373.990
        42.000          26.750


 109051671.732 8  84975338.281 7  20751840.170    20751840.411    20751839.987
        50.000          47.750    20751841.024    81434698.423 8  20751841.054
        51.250

 114908164.130 7  89538846.540 7  21866288.610    21866289.012    21866288.221
        46.750          44.000    21866289.709    85808068.943 8  21866289.543
        49.000

 117183926.659 7  91312175.388 7  22299350.794    22299350.776    22299350.428
        46.000          42.250    22299351.357    87507505.508 7  22299351.280
        46.750

 123875610.027 7  96347738.370 6  23132897.876    23132902.277
        43.500          41.750    23132902.277


 129391707.417 5 100824709.60542  24622422.010    24622420.440    24622421.340
        35.500          13.500


 129156664.365 6 100455215.724 7  24169914.203    24169919.789
        39.000          42.000    24169920.165


 108224507.446 8  84330788.869 7  20594431.595    20594429.292    20594431.408
        51.750          46.500    20594429.810


 123708564.068 7                  23540960.698
        45.000                                    92379833.685 7  23540973.881
        44.750   100412775.055 8  23540952.914          48.500    94789735.729 7
  23540971.857          47.500    93584784.780 8  23540972.542          49.250
 129176478.234 6 100657003.93043  24581460.385    24581459.253    24581459.920
        39.250          19.750


 128757804.643 6                  24501793.924
        40.750                                    96150321.859 6  24501795.860
        41.500   104511212.407 7  24501795.664          45.250    98658581.020 7
  24501793.595          44.500    97404451.014 7  24501794.321          46.000
 120366658.691 6  93618520.415 6  22501268.045    22501271.165
        41.750          39.250    22501271.031


 110280231.565 8  85773550.620 8  20651937.957    20651942.352
        50.500          49.250    20651942.235


 120631699.989 8                  22955445.292
        49.750                                    90082152.398 8  22955447.886
        50.250    97915358.817 9  22955444.041          55.000    92432108.671 8
  22955445.728          53.250    91257138.108 9  22955446.588          54.750
 109447845.475 7  85126155.474 7  20488863.863    20488868.205
        47.250          43.750    20488867.727


 110615702.370 8  86034466.399 8  20663940.306    20663944.490
        51.250          49.250    20663944.432


 114850222.929 7                  21522885.976
        43.750


 130609336.193 6                  24854125.346
        36.250                                    97532972.873 6  24854125.691
        37.750   106014080.048 6  24854122.691          40.750   100077298.358 6
  24854123.850          40.250    98805136.187 7  24854124.536          42.000
 134983582.449 6 105182022.03543  25686521.893    25686523.511    25686521.661
        39.250          22.000


 113571094.810 8  88333118.448 7  21275685.668    21275691.564
        49.750          47.250    21275691.313


 129429689.814 6 100854302.250 5  24629652.759    24629650.563    24629652.697
        37.250          30.500    24629650.697


 132299890.305 6                  25175827.126
        37.750                                    98795403.248 5  25175826.772
        34.750   107386293.682 6  25175824.412          41.500   101372666.516 6
  25175824.583          37.000   100084040.958 6  25175825.295          38.750
 123321647.040 7  95916869.874 7  23045590.050    23045594.836
        45.250          42.250    23045594.885


 19  3 26 19 11  0.0000000  0 29R10G08E03G23E05E02G28G09G30G27R08G16
                                R15G07E24G11E08R19R09E25R16R07R06E12
                                G18R18G05E11R17
 127568044.912 7  99219618.450 4  23931438.067
        42.250          27.500    23931448.602


 110897666.218 8  86413798.915 7  21103114.757    21103115.526    21103114.494
        49.500          46.500    21103116.461    82813229.205 8  21103114.872
        50.500

 128006321.016 8                  24358797.283
        48.500                                    95589177.404 8  24358800.123
        48.500   103901268.558 8  24358796.671          52.500    98082795.999 8
  24358797.978          51.250    96835992.274 8  24358798.834          53.000
 119093237.338 7  92799916.04245  22662690.501    22662687.527    22662690.045
        45.000          31.250


 136502317.387 7                  25975527.444
        43.000                                   101933562.788 7  25975531.513
        43.250   110797329.705 7  25975526.608          46.250   104592688.493 7
  25975529.346          46.000   103263129.714 7  25975530.135          47.750
 136300008.279 7                  25937022.757
        43.000                                   101782501.586 7  25937025.538
        44.000   110633138.447 7  25937023.580          46.750   104437685.403 7
  25937023.089          45.750   103110100.568 7  25937024.191          47.750
 120099505.115 7  93584034.64744  22854170.880    22854169.542    22854170.187
        42.500          26.500


 109111249.311 8  85021762.348 7  20763177.259    20763177.706    20763177.076
        50.000          47.500    20763178.104    81479188.145 8  20763178.264
        51.500

 114841104.657 7  89486592.423 7  21853527.567    21853527.982    21853527.178
        46.750          44.000    21853528.747    85757992.077 8  21853528.621
        49.500

 117241991.726 7  91357420.873 7  22310400.327    22310400.474    22310399.952
        46.250          42.500    22310400.849    87550865.766 7  22310400.661
        47.000

 123784548.966 7  96276913.128 7  23115892.440    23115897.426
        43.500          42.500    23115897.297


 129497307.679 6 100906995.51542  24642517.055    24642515.320    24642516.336
        36.750          13.750


 129242814.066 6 100522220.934 7  24186037.052    24186041.587
        41.250          42.000    24186041.574


 108200320.412 8  84311941.820 7  20589828.947    20589826.693    20589828.764
        51.750          47.000    20589827.082


 123763692.266 7                  23551451.176
        45.250                                    92421000.825 7  23551464.457
        45.000   100457521.955 8  23551443.441          48.750    94831976.797 7
  23551462.317          47.750    93626488.884 8  23551463.087          49.500
 129082386.540 6 100583685.79243  24563555.344    24563553.439    24563554.897
        39.750          20.500


 128706328.589 6                  24491998.296
        41.000                                    96111881.941 6  24492000.089
        41.750   104469429.892 7  24492000.299          45.250    98619138.327 7
  24491997.944          44.750    97365509.709 7  24491998.746          46.250
 120249053.439 7  93527049.715 6  22479281.682    22479285.965
        42.000          39.500    22479286.546


 110233943.526 8  85737548.830 8  20643269.857    20643274.216
        50.500          49.500    20643274.073


 120632994.399 8                  22955691.725
        50.000                                    90083119.005 8  22955694.229
        50.500    97916409.477 9  22955690.228          55.250    92433100.495 8
  22955692.032          53.500    91258117.324 9  22955692.905          55.000
 109495488.771 7  85163211.370 7  20497782.521    20497787.064
        47.500          44.000    20497786.263


 110623253.134 8  86040339.201 8  20665350.830    20665355.113
        51.250          49.250    20665355.011


 114961138.110 7                  21543671.071
        44.000


 130588582.327 6                  24850175.979
        36.000                                    97517474.856 6  24850176.614
        38.500   105997234.376 6  24850173.315          40.750   100061396.073 6
  24850174.381          40.250    98789436.039 7  24850175.182          42.500
 134896750.180 6 105114360.67843  25669997.305    25669999.652    25669997.113
        38.500          21.250


 113539310.905 8  88308397.641 7  21269731.399    21269737.518
        50.000          47.500    21269737.174


 129437515.329 6 100860400.058 5  24631141.001    24631139.565    24631140.885
        37.250          30.500    24631140.093


 132222609.135 6                  25161120.735
        37.500                                    98737693.301 5  25161120.359
        34.500   107323565.466 6  25161118.222          41.750   101313451.103 6
  25161118.546          37.750   100025578.282 6  25161119.128          39.250
 123390571.098 7  95970477.437 6  23058470.492    23058475.051
        45.250          41.750    23058475.015


 19  3 26 19 11 30.0000000  0 29R10G08E03G23E05E02G28G09G30G27R08G16
                                R15G07E24G11E08R19R09E25R16R07R06E12
                                G18R18G05E11R17
 127484668.974 7  99154770.515 5  23915797.730
        43.250          32.000    23915806.392


 110892499.102 8  86409772.595 7  21102131.410    21102132.264    21102131.151
        49.250          46.750    21102133.252    82809370.651 8  21102131.740
        50.750

 128033375.863 8                  24363945.667
        48.250                                    95609380.683 8  24363948.511
        48.500   103923228.648 8  24363945.023          52.250    98103526.322 8
  24363946.313          51.000    96856459.075 8  24363947.204          53.000
 119194170.967 7  92878565.56445  22681897.662    22681894.607    22681897.206
        44.750          31.750


 136590190.295 7                  25992249.134
        42.750                                   101999182.110 7  25992253.043
        42.750   110868655.075 7  25992248.307          46.250   104660019.628 7
  25992250.894          45.750   103329604.943 7  25992251.816          47.500
 136246844.724 7                  25926906.122
        42.750                                   101742801.560 7  25926908.800
        43.750   110589986.240 7  25926906.770          46.750   104396949.725 7
  25926906.387          45.750   103069882.717 7  25926907.444          47.750
 120025126.804 7  93526077.56044  22840016.808    22840015.689    22840016.120
        42.250          27.500


 109171325.523 8  85068574.957 8  20774609.476    20774609.833    20774609.293
        49.750          48.000    20774610.343    81524050.234 8  20774610.333
        51.500

 114774193.453 7  89434453.824 7  21840794.626    21840795.198    21840794.237
        46.750          44.500    21840796.016    85708025.927 8  21840795.783
        49.500

 117300598.233 7  91403088.278 7  22321552.793    22321552.967    22321552.422
        46.000          42.750    22321553.258    87594630.342 7  22321553.136
        47.000

 123694019.748 7  96206501.533 7  23098987.313    23098991.928
        43.750          42.750    23098991.709


 129602885.952 6 100989264.28742  24662608.471    24662606.244    24662607.743
        37.000          14.500


 129328947.121 7 100589213.201 6  24202154.890    24202160.866
        42.500          41.750    24202160.570


 108176392.510 8  84293296.707 7  20585275.721    20585273.391    20585275.538
        51.750          47.250    20585273.807


 123818861.083 7                  23561949.325
        44.500                                    92462198.297 7  23561962.812
        45.000   100502301.829 8  23561941.545          48.750    94874248.995 7
  23561960.497          47.500    93668223.721 8  23561961.371          49.250
 128988310.919 6 100510380.16743  24545653.149    24545651.986    24545652.684
        39.750          21.750


 128655191.145 6                  24482267.315
        40.750                                    96073694.897 7  24482268.903
        42.000   104427922.230 7  24482269.042          45.250    98579955.092 7
  24482266.843          44.750    97326824.568 7  24482267.672          46.500
 120131700.191 7  93435774.994 6  22457344.581    22457347.965
        42.000          39.500    22457348.162


 110187868.233 8  85701712.504 8  20634641.543    20634645.688
        50.750          49.750    20634645.558


 120634436.877 8                  22955966.135
        49.500                                    90084196.176 8  22955968.742
        50.500    97917580.314 9  22955964.790          55.000    92434205.761 8
  22955966.526          53.250    91259208.541 9  22955967.390          55.000
 109543320.446 7  85200413.768 7  20506736.632    20506741.161
        47.500          44.000    20506740.325


 110631623.600 8  86046849.533 8  20666914.219    20666918.619
        51.500          49.250    20666918.462


 115072432.423 7                  21564528.381
        44.250


 130568235.492 6                  24846304.170
        36.000                                    97502280.822 6  24846304.962
        38.250   105980719.106 6  24846301.430          40.500   100045805.665 6
  24846302.750          40.250    98774043.818 7  24846303.333          42.250
 134809842.868 6 105046640.85343  25653460.194    25653461.602    25653459.998
        36.250          20.250


 113508304.574 8  88284281.614 7  21263922.920    21263928.834
        50.000          47.000    21263928.570


 129445850.583 6 100866895.004 5  24632727.178    24632725.488    24632727.125
        37.000          30.000    24632725.439


 132145458.421 6                  25146439.548
        37.000                                    98680080.794 5  25146439.239
        34.750   107260943.166 7  25146436.852          42.000   101254335.640 6
  25146437.211          38.250    99967214.288 6  25146437.834          39.500
 123460144.177 7  96024589.795 6  23071472.114    23071476.336
        46.000          41.500    23071475.916


 19  3 26 19 12  0.0000000  0 29R10G08E03G23E05E02G28G09G30G27R08G16
                                R15G07E24G11E08R19R09E25R16R07R06E12
                                G18R18G05E11R17
 127401346.560 6  99089964.313 5  23900166.847    23900174.293
        40.250          32.250    23900174.849


 110887952.247 8  86406229.607 7  21101266.226    21101266.927    21101265.963
        49.000          46.750    21101268.000    82805975.294 8  21101266.413
        50.750

 128060835.276 8                  24369171.016
        48.000                                    95629886.082 8  24369173.894
        48.500   103945517.129 8  24369170.285          52.250    98124566.635 8
  24369171.726          50.750    96877231.995 8  24369172.564          52.750
 119295367.733 7  92957420.13845  22701154.828    22701151.652    22701154.377
        44.500          31.000


 136678190.526 7                  26008995.044
        42.250                                   102064896.508 7  26008999.033
        42.500   110940083.783 7  26008994.343          46.250   104727448.307 7
  26008997.015          45.250   103396176.544 7  26008997.751          47.000
 136193787.605 7                  25916809.648
        42.500                                   101703181.036 7  25916812.398
        43.750   110546920.419 7  25916810.221          46.750   104356295.602 7
  25916809.964          45.500   103029745.413 7  25916810.978          47.500
 119951009.511 7  93468323.87444  22825912.633    22825911.567    22825911.931
        42.000          27.000


 109231894.729 8  85115771.716 7  20786135.492    20786135.763    20786135.309
        49.500          47.750    20786136.240    81569280.459 8  20786136.384
        51.500

 114707427.600 7  89382428.492 7  21828089.652    21828090.125    21828089.263
        46.500          44.500    21828090.949    85658168.329 8  21828090.693
        49.500

 117359740.047 7  91449172.794 7  22332806.938    22332807.197    22332806.567
        45.500          42.750    22332807.929    87638794.685 7  22332807.407
        47.000

 123604021.940 7  96136503.273 7  23082181.307    23082185.445
        43.500          42.750    23082185.718


 129708436.356 6 101071511.32142  24682693.990    24682692.106    24682693.284
        37.000          14.000


 129415059.536 7 100656189.449 6  24218268.548    24218276.067
        42.750          41.500    24218275.158


 108152720.820 8  84274851.228 7  20580771.155    20580768.752    20580770.968
        51.500          47.250    20580769.218


 123874066.189 7                  23572454.723
        44.250                                    92503422.873 7  23572467.919
        44.750   100547111.142 8  23572447.020          48.500    94916548.984 7
  23572465.646          47.000    93709985.965 8  23572466.570          49.000
 128894250.128 6 100437086.09943  24527753.700    24527752.987    24527753.240
        39.500          21.500


 128604389.734 6                  24472600.276
        40.750                                    96035758.801 6  24472601.701
        41.750   104386687.319 7  24472601.638          44.750    98541029.360 7
  24472599.640          44.500    97288393.663 7  24472600.505          46.250
 120014599.589 6  93344696.792 6  22435453.722    22435457.042
        41.750          39.250    22435457.404


 110142001.777 8  85666038.612 8  20626051.975    20626056.355
        50.250          49.500    20626056.254


 120636022.939 8                  22956267.925
        49.250                                    90085380.576 8  22956270.559
        50.500    97918867.701 9  22956266.641          55.000    92435421.060 8
  22956268.311          53.000    91260408.524 9  22956269.212          54.750
 109591335.673 7  85237758.925 7  20515725.335    20515729.854
        47.250          43.750    20515729.490


 110640808.909 8  86053993.657 8  20668630.311    20668634.426
        51.000          49.000    20668634.462


 115184097.699 7                  21585454.334
        43.750


 130548292.684 5                  24842509.166
        35.500                                    97487388.478 6  24842509.880
        38.250   105964531.770 6  24842506.668          40.500   100030524.828 6
  24842507.764          40.250    98758957.235 7  24842508.300          42.250
 134722859.376 6 104978861.69743  25636907.770    25636909.218    25636907.542
        36.250          18.500


 113478073.855 8  88260768.864 7  21258259.329    21258265.643
        49.250          47.000    21258265.481


 129454689.995 6 100873782.850 5  24634409.323    24634407.864    24634409.252
        37.000          30.500    24634409.829


 132068436.312 6                  25131782.562
        36.250                                    98622564.313 5  25131782.335
        35.000   107198425.260 7  25131780.193          42.000   101195318.740 6
  25131780.535          38.250    99908947.495 6  25131781.075          39.750
 123530359.530 7  96079201.748 6  23084593.950    23084597.589
        45.750          40.500    23084597.699


 19  3 26 19 12 30.0000000  0 29R10G08E03G23E05E02G28G09G30G27R08G16
                                R15G07E24G11E08R19R09E25R16R07R06E12
                                G18R18G05E11R17
 127318082.450 6  99025203.400 5  23884545.812    23884555.445
        41.500          33.750    23884556.272


 110884029.314 8  86403172.785 7  21100519.752    21100520.426    21100519.493
        49.750          46.750    21100521.419    82803045.838 8  21100519.764
        50.750

 128088702.377 8                  24374473.838
        48.250                                    95650695.903 8  24374476.776
        48.500   103968136.509 8  24374473.275          52.250    98145919.333 8
  24374474.663          51.000    96898313.191 8  24374475.505          52.750
 119396829.041 7  93036480.84245  22720462.456    22720459.115    22720462.000
        45.500          30.750


 136766320.074 7                  26025765.686
        42.750                                   102130707.485 7  26025769.563
        42.500   111011617.475 7  26025764.962          46.250   104794976.096 7
  26025767.405          45.250   103462845.863 7  26025768.238          47.000
 136140840.522 7                  25906734.119
        42.750                                   101663642.653 7  25906737.012
        43.750   110503943.916 7  25906734.902          46.750   104315725.785 7
  25906734.515          45.500   102989691.291 7  25906735.401          47.750
 119877157.298 7  93410776.74144  22811859.104    22811857.807    22811858.411
        42.750          26.750


 109292959.042 8  85163354.296 8  20797755.698    20797755.926    20797755.511
        50.250          48.000    20797756.418    81614880.418 8  20797756.555
        51.500

 114640811.943 7  89330520.205 7  21815413.058    21815413.594    21815412.669
        47.500          44.500    21815414.457    85608422.885 8  21815414.224
        49.750

 117419418.768 7  91495675.682 7  22344163.490    22344163.570    22344163.115
        46.500          42.750    22344164.209    87683359.948 7  22344163.958
        47.000

 123514563.057 7  96066924.198 7  23065474.263    23065479.191
        43.250          42.750    23065479.066


 129813961.362 6 101153738.56942  24702774.622    24702772.913    24702773.952
        38.000          15.750


 129501155.407 7 100723152.841 6  24234381.424    24234387.163
        44.500          41.000    24234386.250


 108129310.293 8  84256609.265 7  20576316.276    20576313.838    20576316.089
        52.250          47.250    20576314.312


 123929311.002 7                  23582967.384
        44.750                                    92544677.110 7  23582980.674
        45.000   100591952.712 8  23582959.760          48.750    94958879.423 7
  23582978.449          47.250    93751778.339 8  23582979.326          49.250
 128800210.836 6 100363808.80143  24509858.264    24509857.517    24509857.813
        40.250          22.000


 128553929.509 6                  24462997.793
        41.000                                    95998077.463 7  24462999.608
        42.250   104345729.347 7  24462999.519          45.250    98502365.038 7
  24462997.330          44.500    97250220.824 7  24462998.216          46.500
 119897760.250 7  93253821.794 6  22413612.014    22413615.202
        42.000          40.000    22413615.367


 110096347.800 8  85630529.989 8  20617502.660    20617506.885
        50.500          49.750    20617506.720


 120637755.898 8                  22956597.825
        49.750                                    90086674.669 8  22956600.262
        50.500    97920274.325 9  22956596.399          55.000    92436748.915 8
  22956598.122          53.250    91261719.366 9  22956598.977          55.000
 109639537.854 7  85275249.534 7  20524748.699    20524753.511
        47.750          44.250    20524752.885


 110650812.656 8  86061774.339 8  20670498.992    20670503.333
        51.500          49.500    20670503.271


 115296133.012 7                  21606448.873
        43.500


 130528758.533 6                  24838792.238
        36.250                                    97472801.288 6  24838792.417
        38.250   105948676.129 6  24838789.269          40.750   100015557.088 6
  24838790.438          40.250    98744179.762 7  24838791.092          42.250
 134635806.190 5 104911028.18542  25620342.000    25620343.211    25620341.808
        34.000          14.000


 113448624.716 8  88237863.976 7  21252742.686    21252748.859
        49.750          47.500    21252748.828


 129464036.923 6 100881066.228 5  24636187.467    24636186.554    24636187.414
        37.750          30.500    24636187.364


 131991548.813 6                  25117151.267
        36.750                                    98565148.354 5  25117151.012
        35.250   107136016.604 7  25117148.852          42.000   101136404.974 6
  25117149.149          38.500    99850782.738 6  25117149.937          40.250
 123601218.098 7  96134313.932 6  23097834.510    23097839.072
        45.250          40.000    23097839.050


 19  3 26 19 13  0.0000000  0 29R10G08E03G23E05E02G28G09G30G27R08G16
                                R15G07E24G11E08R19R09E25R16R07R06E12
                                G18R18G05E11R17
 127234877.284 6  98960488.311 5  23868937.115    23868944.977
        38.750          33.250    23868944.722


 110880731.676 8  86400603.216 7  21099892.147    21099892.974    21099891.888
        49.500          46.500    21099893.989    82800583.336 8  21099892.320
        50.750

 128116977.862 8                  24379854.552
        48.250                                    95671810.706 8  24379857.459
        48.750   103991087.385 8  24379854.034          52.250    98167584.959 8
  24379855.314          51.000    96919703.406 8  24379856.165          53.000
 119498553.640 7  93115746.70945  22739820.093    22739816.645    22739819.642
        45.000          30.750


 136854578.550 7                  26042560.740
        43.000                                   102196614.727 7  26042564.514
        42.500   111083255.802 7  26042559.954          46.500   104862602.672 7
  26042562.549          45.250   103529612.774 7  26042563.270          47.000
 136088004.614 7                  25896679.906
        43.250                                   101624187.309 7  25896682.598
        44.250   110461057.662 7  25896680.501          47.000   104275241.169 7
  25896679.886          45.500   102949721.314 7  25896681.023          47.750
 119803572.035 7  93353437.60844  22797856.260    22797854.869    22797855.558
        42.500          27.500


 109354518.160 8  85211322.429 7  20809469.910    20809470.268    20809469.723
        50.000          47.750    20809470.728    81660849.882 8  20809470.942
        51.500

 114574348.942 7  89278730.883 7  21802765.755    21802766.036    21802765.366
        47.250          44.500    21802766.721    85558791.450 8  21802766.648
        50.000

 117479633.601 7  91542596.323 7  22355622.037    22355622.171    22355621.657
        46.250          42.750    22355622.555    87728325.554 7  22355622.617
        47.000

 123425647.919 7  95997767.986 7  23048870.034    23048874.980
        42.250          42.250    23048874.685


 129919460.972 6 101235946.00642  24722850.617    24722848.909    24722849.960
        38.500          16.750


 129587236.187 7 100790104.521 6  24250490.197    24250496.002
        45.250          39.250    24250494.571


 108106163.365 8  84238572.699 7  20571911.564    20571909.149    20571911.381
        52.000          47.000    20571909.712


 123984596.528 7                  23593487.938
        44.750                                    92585961.751 7  23593501.120
        45.000   100636827.328 8  23593480.176          48.750    95001241.057 7
  23593499.074          47.250    93793601.477 8  23593499.827          49.250
 128706197.252 6 100290551.52743  24491968.279    24491967.376    24491967.832
        39.750          22.250


 128503813.187 6                  24453460.887
        41.000                                    95960652.961 7  24453462.806
        42.250   104305050.539 7  24453462.359          45.000    98463964.237 7
  24453460.487          44.750    97212308.172 7  24453461.378          46.500
 119781188.430 7  93163154.872 6  22391820.145    22391823.346
        42.000          40.250    22391823.569


 110050907.847 8  85595187.822 8  20608993.083    20608997.318
        50.750          49.500    20608997.233


 120639636.600 8                  22956955.753
        50.000                                    90088079.099 8  22956958.181
        50.750    97921800.879 9  22956954.287          55.250    92438189.985 8
  22956956.010          53.250    91263142.116 9  22956956.861          55.000
 109687927.976 7  85312886.278 7  20533806.934    20533812.197
        47.500          44.000    20533811.607


 110661634.846 8  86070191.584 8  20672520.868    20672525.021
        51.750          49.250    20672524.892


 115408535.539 7                  21627513.848
        44.000


 130509635.278 6                  24835152.951
        36.250                                    97458520.954 6  24835153.434
        38.750   105933154.022 6  24835150.246          40.750   100000904.228 6
  24835151.263          40.250    98729713.167 7  24835152.038          42.500
 134548687.774 5 104843143.87242  25603765.125    25603765.223    25603764.866
        34.000          14.250


 113419960.348 8  88215569.488 7  21247372.751    21247378.937
        49.750          47.250    21247378.544


 129473891.661 6 100888745.237 4  24638062.871    24638061.815    24638062.840
        36.750          29.750    24638062.880


 131914799.441 6                  25102546.319
        36.750                                    98507835.547 6  25102546.274
        36.250   107073720.077 6  25102543.761          41.750   101077597.056 6
  25102544.313          39.000    99792722.373 6  25102545.025          40.750
 123672718.326 7  96189925.197 6  23111196.023    23111200.559
        44.500          39.250    23111201.270


 19  3 26 19 13 30.0000000  0 29R10G08E03G23E05E02G28G09G30G27R08G16
                                R15G07E24G11E08R19R09E25R16R07R06E12
                                G18R18G05E11R17
 127151729.803 6  98895818.147 5  23853337.523    23853346.704
        37.500          33.750    23853348.019


 110878057.747 8  86398519.643 7  21099383.424    21099384.073    21099383.165
        49.250          46.500    21099384.827    82798586.585 8  21099383.523
        51.000

 128145659.639 8                  24385312.597
        48.500                                    95693228.894 8  24385315.428
        48.500   104014368.032 8  24385311.985          52.500    98189561.875 8
  24385313.202          51.000    96941401.011 8  24385314.138          52.750
 119600537.846 7  93195214.86845  22759226.869    22759223.640    22759226.418
        44.500          31.000


 136942962.717 7                  26059379.781
        43.000                                   102262615.853 7  26059383.615
        42.250   111154996.158 7  26059378.750          46.500   104930325.572 7
  26059381.522          45.000   103596474.829 7  26059382.240          46.750
 136035278.210 7                  25886646.184
        43.500                                   101584813.746 7  25886648.953
        43.750   110418260.293 7  25886646.755          47.250   104234840.459 7
  25886646.338          45.750   102909834.186 7  25886647.489          47.750
 119730253.085 7  93296306.00644  22783904.173    22783902.913    22783903.480
        42.750          28.750


 109416568.992 8  85259673.703 7  20821277.750    20821278.126    20821277.567
        49.750          47.500    20821278.644    81707186.523 8  20821278.769
        51.750

 114508038.280 7  89227060.245 7  21790146.993    21790147.462    21790146.609
        47.000          44.500    21790148.293    85509273.761 8  21790148.118
        50.000

 117540380.901 7  91589931.872 7  22367181.693    22367182.163    22367181.318
        46.000          42.750    22367182.667    87773688.779 7  22367182.453
        47.250

 123337278.995 7  95929036.657 7  23032367.515    23032372.785
        42.000          42.250    23032372.634


 130024932.201 6 101318131.35843  24742921.165    24742919.010    24742920.513
        38.000          18.000


 129673300.307 7 100857043.200 6  24266595.719    24266602.385
        45.500          39.000    24266602.356


 108083279.792 8  84220741.343 7  20567556.987    20567554.573    20567556.804
        51.750          47.000    20567554.957


 124039921.036 7                  23604015.722
        45.000                                    92627275.483 7  23604029.014
        44.750   100681733.561 8  23604008.237          48.750    95043632.542 7
  23604027.011          47.500    93835454.028 8  23604027.716          49.000
 128612211.256 6 100217315.75643  24474083.407    24474082.433    24474082.974
        39.250          22.750


 128454040.757 6                  24443989.388
        41.500                                    95923485.250 7  24443991.455
        42.250   104264650.840 7  24443991.312          45.250    98425826.933 7
  24443989.158          45.000    97174655.663 7  24443989.991          46.750
 119664887.401 7  93072698.550 6  22370078.268    22370081.981
        42.000          40.500    22370082.696


 110005680.278 8  85560010.845 8  20600523.546    20600527.728
        51.000          50.000    20600527.741


 120641663.136 8                  22957341.378
        50.250                                    90089592.419 8  22957343.805
        50.500    97923445.797 9  22957339.894          55.250    92439742.787 8
  22957341.641          53.500    91264675.292 9  22957342.491          55.000
 109736503.998 7  85350667.650 7  20542901.183    20542905.560
        47.500          44.000    20542904.991


 110673273.774 8  86079244.066 8  20674695.061    20674699.275
        51.750          49.500    20674699.307


 115521299.408 7                  21648645.379
        44.000


 130490922.374 6                  24831592.288
        36.750                                    97444547.054 6  24831592.417
        38.500   105917964.978 6  24831589.337          40.750    99986565.793 6
  24831590.389          40.500    98715556.990 7  24831591.076          42.500
 134461505.227 5 104775209.50941  25587174.808    25587174.760    25587174.558
        30.000          10.000


 113392081.351 8  88193885.840 7  21242150.187    21242156.414
        50.000          47.250    21242156.197


 129484251.785 6 100896817.933 5  24640034.374    24640034.083    24640034.370
        37.500          30.750    24640035.291


 131838188.984 6                  25087967.703
        36.750                                    98450626.491 6  25087967.730
        36.500   107011536.307 6  25087965.086          41.750   101018895.573 6
  25087965.881          39.250    99734766.979 6  25087966.501          41.000
 123744855.782 7  96246032.124 6  23124677.854    23124681.102
        44.750          38.750    23124680.936


 19  3 26 19 14  0.0000000  0 29R10G08E03G23E05E02G28G09G30G27R08G16
                                R15G07E24G11E08R19R09E25R16R07R06E12
                                G18R18G05E11R17
 127068636.359 6  98831190.167 5  23837752.411    23837758.243
        37.250          33.250    23837758.497


 110876003.960 8  86396919.301 7  21098992.521    21098993.173    21098992.262
        49.500          46.750    21098994.040    82797052.920 8  21098992.661
        50.750

 128174743.042 8                  24390846.973
        48.250                                    95714947.006 8  24390849.856
        48.250   104037974.676 8  24390846.404          52.250    98211846.553 8
  24390847.632          51.000    96963402.411 8  24390848.532          52.750
 119702775.271 7  93274880.33145  22778682.042    22778678.858    22778681.577
        44.250          30.000


 137031466.873 7                  26076221.460
        42.500                                   102328706.552 7  26076225.333
        42.000   111226833.899 7  26076220.755          46.250   104998140.373 7
  26076223.110          44.500   103663427.589 7  26076224.056          46.500
 135982657.145 7                  25876632.625
        43.250                                   101545518.831 7  25876635.489
        43.750   110375548.417 7  25876633.633          47.250   104194520.456 7
  25876632.893          45.500   102870026.735 7  25876633.932          47.500
 119657196.880 7  93239379.13244  22770002.169    22770000.559    22770001.481
        43.000          28.000


 109479105.811 8  85308403.678 7  20833178.206    20833178.510    20833178.019
        50.000          47.750    20833178.930    81753886.073 8  20833179.200
        51.500

 114441877.094 7  89175506.077 7  21777557.138    21777557.392    21777556.749
        47.250          44.500    21777558.248    85459867.703 8  21777558.004
        49.750

 117601654.443 7  91637677.492 7  22378841.802    22378842.066    22378841.422
        46.000          43.000    22378842.607    87819444.992 7  22378842.334
        47.000

 123249455.552 7  95860729.590 7  23015967.836    23015972.055
        42.000          42.000    23015971.592


 130130369.510 6 101400290.25343  24762984.698    24762983.310    24762984.023
        38.250          18.250


 129759343.902 7 100923966.010 6  24282698.575    24282703.598
        44.750          36.000    24282702.767


 108060657.062 8  84203113.249 7  20563252.011    20563249.623    20563251.824
        51.750          47.500    20563250.077


 124095280.165 7                  23614550.238
        44.750                                    92668615.082 7  23614563.567
        44.500   100726667.912 8  23614542.636          48.500    95086050.559 7
  23614561.429          47.250    93877332.844 8  23614562.192          49.000
 128518251.593 6 100144100.50243  24456203.323    24456202.490    24456202.885
        38.750          22.000


 128404609.591 6                  24434583.350
        41.750                                    95886572.356 7  24434584.909
        42.250   104224528.131 7  24434584.653          45.000    98387951.096 7
  24434582.780          44.750    97137261.310 7  24434583.545          46.500
 119548857.814 6  92982454.393 6  22348388.028    22348391.417
        41.250          40.500    22348392.163


 109960660.927 8  85524995.814 8  20592092.827    20592097.003
        50.500          49.750    20592097.064


 120643831.026 8                  22957753.835
        50.000                                    90091211.295 8  22957756.370
        50.500    97925205.443 9  22957752.470          55.000    92441403.896 8
  22957754.162          53.250    91266315.295 9  22957755.029          55.000
 109785261.414 7  85388590.059 7  20552028.943    20552033.129
        47.250          43.750    20552032.735


 110685724.478 8  86088927.924 8  20677021.052    20677025.329
        51.500          49.250    20677025.279


 115634415.969 7                  21669843.343
        43.750


 130472616.725 6                  24828108.425
        36.250                                    97430877.246 6  24828108.955
        38.500   105903106.502 6  24828105.692          40.250    99972539.386 6
  24828106.917          40.250    98701708.895 7  24828107.606          42.500
                                  25570568.395
        25.000


 113364985.514 8  88172811.322 7  21237074.126    21237080.287
        49.500          47.000    21237080.137


 129495112.660 6 100905280.928 5  24642101.692    24642100.793    24642101.688
        38.500          30.250    24642101.821


 131761715.605 6                  25073415.278
        36.250                                    98393519.735 6  25073415.394
        36.500   106949463.733 6  25073412.805          41.250   100960299.076 6
  25073413.441          39.750    99676915.368 6  25073414.082          41.250
 123817623.321 7  96302629.052 6  23138275.776    23138279.476
        43.750          39.000    23138279.746


 19  3 26 19 14 30.0000000  0 29R10G08E03G23E05E02G28G09G30G27R08G16
                                R15G07E24G11E08R19R09E25R16R07R06E12
                                G18R18G05E11R17
 126985600.090 6  98766606.440 5  23822172.686    23822180.904
        38.000          35.750    23822181.516


 110874573.949 8  86395805.025 7  21098720.406    21098721.081    21098720.147
        49.000          46.750    21098722.174    82795985.072 8  21098720.447
        50.500

 128204231.227 8                  24396458.350
        48.250                                    95736967.427 8  24396461.370
        48.500   104061909.936 8  24396457.859          52.000    98234441.436 8
  24396459.161          50.750    96985710.030 8  24396459.971          52.750
 119805267.091 7  93354744.03944  22798185.542    22798182.353    22798185.077
        44.000          29.750


 137120093.071 7                  26093086.412
        42.250                                   102394888.396 7  26093090.444
        42.000   111298770.704 7  26093085.834          46.250   105066048.704 7
  26093088.265          44.500   103730472.677 7  26093089.118          46.250
 135930145.051 7                  25866640.079
        43.000                                   101506305.334 7  25866642.735
        44.000   110332925.017 7  25866640.989          47.000   104154283.973 7
  25866640.315          45.500   102830301.743 7  25866641.177          47.750
 119584407.720 7  93182660.33044  22756150.922    22756149.415    22756150.243
        42.750          28.500


 109542130.744 8  85357514.009 7  20845171.497    20845171.797    20845171.314
        49.500          47.500    20845172.254    81800950.140 8  20845172.473
        51.250

 114375870.339 7  89124072.314 7  21764996.189    21764996.744    21764995.800
        46.750          44.500    21764997.416    85410576.988 8  21764997.349
        49.500

 117663455.897 7  91685834.468 7  22390602.355    22390602.413    22390601.980
        45.750          42.500    22390602.686    87865595.437 7  22390602.760
        46.750

 123162185.508 7  95792852.896 7  22999671.038    22999675.502
        42.750          42.000    22999675.265


 130235775.578 6 101482424.80443  24783043.338    24783041.582    24783042.681
        37.750          18.500


 129845371.074 7 100990875.957 5  24298796.877    24298801.721
        43.500          32.750    24298800.885


 108038299.982 8  84185692.154 7  20558997.550    20558995.139    20558997.367
        51.500          47.250    20558995.519


 124150677.451 7                  23625092.208
        44.750                                    92709983.180 7  23625105.329
        44.750   100771633.235 8  23625084.259          48.500    95128497.829 7
  23625103.083          47.000    93919240.527 8  23625103.960          49.000
 128424325.081 6 100070911.08443  24438329.535    24438328.665    24438329.106
        38.250          21.750


 128355524.897 6                  24425242.784
        41.250                                    95849918.280 7  24425244.358
        42.500   104184686.741 7  24425244.131          44.750    98350340.815 7
  24425242.239          44.750    97100129.096 7  24425243.058          46.750
 119433108.288 6  92892427.030 6  22326749.146    22326753.392
        41.250          40.500    22326753.318


 109915853.861 8  85490145.891 8  20583701.708    20583706.049
        50.250          49.500    20583705.807


 120646143.646 8                  22958193.843
        49.750                                    90092938.280 8  22958196.449
        50.750    97927082.596 9  22958192.515          54.750    92443175.921 8
  22958194.278          53.250    91268064.798 9  22958195.106          55.000
 109834203.601 7  85426656.183 7  20561191.059    20561195.250
        47.000          44.000    20561194.630


 110698989.910 8  86099245.463 8  20679499.033    20679503.336
        51.250          49.250    20679503.171


 115747884.174 7                  21691107.239
        43.250


 130454722.992 6                  24824703.331
        36.000                                    97417515.105 6  24824703.998
        38.500   105888582.391 6  24824700.556          40.000    99958828.656 6
  24824701.765          40.250    98688172.434 7  24824702.539          42.500
                                  25553964.199
        20.750


 113338678.843 8  88152350.571 7  21232145.906    21232152.189
        49.750          46.750    21232152.199


 129506476.277 6 100914135.752 5  24644264.998    24644263.318    24644265.029
        39.000          30.500    24644263.961


 131685385.267 6                  25058890.088
        36.250                                    98336519.890 6  25058890.139
        37.000   106887507.363 6  25058887.537          40.750   100901812.313 6
  25058888.385          40.000    99619172.049 6  25058888.948          41.500
 123891021.755 7  96359716.682 6  23151992.451    23151995.724
        43.500          38.250    23151996.635


 19  3 26 19 15  0.0000000  0 28R10G08E03G23E05E02G28G09G30G27R08G16
                                R15G07E24G11E08R19R09E25R16R07R06E12
                                R18G05E11R17
 126902621.408 6  98702067.572 6  23806605.719    23806614.225
        37.000          36.000    23806614.130


 110873768.804 8  86395177.636 7  21098567.305    21098567.868    21098567.046
        49.000          46.750    21098568.847    82795383.831 8  21098567.282
        50.750

 128234124.315 8                  24402146.912
        48.250                                    95759290.128 8  24402149.813
        48.750   104086173.737 8  24402146.334          52.250    98257346.459 8
  24402147.526          51.000    97008323.939 8  24402148.439          53.000
 119908012.034 7  93434804.98044  22817737.173    22817734.345    22817736.708
        43.500          29.500


 137208840.377 7                  26109974.680
        42.250                                   102461160.660 7  26109978.592
        42.500   111370805.801 7  26109974.003          46.500   105134049.832 7
  26109976.202          44.500   103797609.388 7  26109977.227          46.500
 135877742.617 7                  25856668.062
        43.000                                   101467173.656 7  25856670.666
        43.750   110290390.568 7  25856668.948          47.250   104114131.475 7
  25856668.311          45.500   102790659.669 7  25856669.256          47.750
 119511886.847 7  93126150.60044  22742350.387    22742349.209    22742349.694
        42.500          28.500


 109605642.956 8  85407004.011 7  20857257.585    20857257.786    20857257.402
        49.500          47.500    20857258.114    81848378.064 8  20857258.454
        51.250

 114310019.982 7  89072760.311 7  21752465.278    21752465.769    21752464.889
        46.500          44.500    21752466.663    85361402.996 8  21752466.339
        49.750

 117725783.879 7  91734401.696 7  22402462.800    22402462.956    22402462.429
        45.250          42.500    22402463.976    87912139.024 7  22402463.371
        46.750

 123075473.023 7  95725409.892 7  22983477.696    22983482.220
        42.500          42.250    22983482.487


 130341149.489 6 101564534.30843  24803095.448    24803093.943    24803094.805
        37.250          18.500


 129931382.650 7 101057773.954 5  24314891.838    24314898.351
        43.500          30.500    24314895.885


 108016210.402 8  84168479.487 7  20554794.103    20554791.647    20554793.920
        51.250          47.250    20554792.142


 124206113.434 7                  23635641.159
        44.750                                    92751380.172 7  23635654.457
        45.000   100816629.961 8  23635633.569          48.500    95170974.743 7
  23635652.301          47.000    93961177.493 8  23635653.095          49.000
 128330435.076 6  99997750.12443  24420462.902    24420462.198    24420462.460
        38.000          21.250


 128306788.838 6                  24415968.630
        41.250                                    95813524.459 7  24415970.196
        42.500   104145128.213 7  24415970.212          45.500    98312997.587 7
  24415968.065          44.750    97063260.615 7  24415968.855          46.750
 119317644.611 6  92802621.986 6  22305164.850    22305168.442
        41.500          40.250    22305169.284


 109871259.757 8  85455462.617 8  20575350.872    20575355.059
        50.500          49.750    20575354.807


 120648601.397 8                  22958661.567
        49.750                                    90094773.599 8  22958664.102
        50.750    97929077.498 9  22958660.189          55.000    92445059.116 8
  22958661.943          53.250    91269924.066 9  22958662.790          55.000
 109883331.135 7  85464866.490 7  20570387.399    20570392.046
        47.000          43.500    20570391.869


 110713069.983 8  86110196.624 8  20682129.492    20682133.528
        51.250          49.250    20682133.625


 115861700.435 7                  21712437.002
        43.500


 130437242.828 6                  24821377.021
        36.250                                    97404461.730 6  24821377.503
        39.000   105874393.937 6  24821374.375          40.500    99945434.746 6
  24821375.298          40.500    98674948.832 7  24821376.161          42.750
 113313163.918 8  88132505.670 7  21227366.568    21227372.483
        50.000          47.250    21227372.248


 129518342.762 6 100923382.199 5  24646521.997    24646521.299    24646522.059
        37.750          30.000    24646521.829


 131609201.082 6                  25044392.690
        36.250                                    98279629.108 6  25044392.733
        37.750   106825669.558 6  25044390.343          41.000   100843437.401 6
  25044390.879          40.000    99561539.237 7  25044391.560          42.000
 123965049.121 7  96417293.524 6  23165825.201    23165829.522
        42.500          38.750    23165830.030


 19  3 26 19 15 30.0000000  0 29R10G08E03G23E05E02G28G09G30G27R08G16
                                R15G07E24G11E08R19R09E25R16R07R06E12
                                G18R18G05E11R17
 126819698.923 6  98637572.443 6  23791050.503    23791058.288
        41.000          36.000    23791058.932


 110873586.339 8  86395035.470 7  21098532.554    21098533.193    21098532.295
        49.250          46.750    21098534.092    82795247.589 8  21098532.673
        50.750

 128264419.476 8                  24407911.799
        48.250                                    95781913.133 8  24407914.791
        48.500   104110763.967 8  24407911.339          52.250    98280559.634 8
  24407912.606          50.500    97031241.957 8  24407913.434          52.750
 120011005.071 7  93515059.24144  22837336.424    22837333.083    22837335.951
        43.500          28.750


 137297704.911 7                  26126885.115
        42.250                                   102527520.496 7  26126889.050
        42.500   111442936.073 7  26126884.507          46.500   105202140.797 7
  26126886.816          44.000   103864834.720 7  26126887.649          46.250
 135825447.459 7                  25846716.528
        42.750                                   101428122.143 7  25846719.112
        43.500   110247943.267 7  25846717.378          47.250   104074061.223 7
  25846716.744          45.250   102751098.756 7  25846717.788          47.250
 119439632.757 7  93069848.74444  22728601.173    22728599.451    22728600.480
        42.750          28.500


 109669638.513 8  85456870.681 7  20869435.385    20869435.675    20869435.202
        49.500          47.250    20869436.136    81896166.944 8  20869436.452
        51.500

 114244325.019 7  89021569.457 7  21739964.071    21739964.464    21739963.687
        47.000          44.500    21739965.072    85312345.102 8  21739965.089
        50.000

 117788633.936 7  91783375.781 7  22414422.613    22414423.038    22414422.238
        45.250          42.500    22414423.892    87959072.518 7  22414423.412
        46.750

 122989319.487 7  95658401.612 7  22967389.309    22967393.749
        42.750          42.000    22967393.441


 130446487.894 6 101646616.14243  24823140.149    24823139.263    24823139.515
        37.000          18.750


 130017376.716 7 101124658.181 5  24330984.597    24330992.245
        43.250          31.500    24330990.979


 107994387.472 8  84151474.619 7  20550641.342    20550638.905    20550641.159
        51.750          47.250    20550639.392


 124261585.645 7                  23646197.271
        44.500                                    92792804.212 7  23646210.610
        45.000   100861656.100 8  23646189.522          48.500    95213479.411 7
  23646208.260          46.500    94003141.885 8  23646209.147          48.750
 128236582.858 6  99924618.59643  24402603.459    24402602.368    24402603.012
        38.500          20.750


 128258400.695 6                  24406760.471
        41.250                                    95777390.452 7  24406762.014
        42.250   104105852.114 7  24406762.064          45.250    98275920.962 7
  24406759.932          44.250    97026655.281 7  24406760.895          46.500
 119202469.364 7  92713041.304 6  22283633.976    22283637.718
        42.000          41.250    22283637.812


 109826876.629 8  85420942.415 8  20567039.158    20567043.580
        50.750          49.750    20567043.490


 120651201.630 8                  22959156.329
        49.750                                    90096715.346 8  22959158.882
        50.500    97931188.094 9  22959155.023          55.000    92447051.522 8
  22959156.796          53.000    91271891.008 9  22959157.584          54.750
 109932641.345 7  85503218.880 7  20579618.860    20579623.152
        47.000          43.500    20579622.875


 110727961.832 8  86121779.157 8  20684911.016    20684915.648
        51.000          49.250    20684915.625


 115975858.641 7                  21733830.393
        43.750


 130420174.990 6                  24818129.383
        36.500                                    97391716.293 6  24818129.817
        38.750   105860540.219 6  24818126.472          40.500    99932356.827 6
  24818127.458          40.000    98662037.134 7  24818128.224          42.250
 134112175.403 5 104503017.25441  25520699.901    25520702.253    25520699.950
        31.500           7.250


 113288440.321 8  88113276.216 7  21222734.582    21222740.751
        49.750          47.000    21222740.675


 129530708.824 6 100933018.109 4  24648875.018    24648874.150    24648874.996
        37.750          29.500    24648875.702


 131533163.099 6                  25029923.252
        36.750                                    98222847.574 6  25029923.189
        37.500   106763950.457 6  25029920.650          40.750   100785174.610 6
  25029921.277          39.750    99504017.168 6  25029921.981          41.750
 124039700.118 7  96475355.363 6  23179776.542    23179780.335
        42.750          39.000    23179780.331


 19  3 26 19 16  0.0000000  0 29R10G08E03G23E05E02G28G09G30G27R08G16
                                R15G07E24G11E08R19R09E25R16R07R06E12
                                G18R18G05E11R17
 126736832.332 6  98573120.717 6  23775504.413    23775512.824
        40.500          36.750    23775513.151


 110874026.812 8  86395378.700 7  21098616.102    21098616.996    21098615.843
        49.250          47.000    21098617.891    82795576.519 8  21098616.361
        50.750

 128295116.296 8                  24413753.139
        48.250                                    95804836.061 8  24413756.207
        48.750   104135680.196 8  24413752.746          52.250    98304080.552 8
  24413754.004          50.750    97054463.880 8  24413754.864          53.000
 120114244.353 7  93595505.38344  22856982.146    22856978.966    22856981.681
        43.750          29.000


 137386685.178 7                  26143817.430
        42.000                                   102593966.742 7  26143821.508
        42.750   111515160.270 7  26143816.729          46.250   105270320.430 7
  26143819.127          44.250   103932147.659 7  26143820.116          46.500
 135773259.705 7                  25836785.736
        43.250                                   101389150.800 7  25836788.231
        44.000   110205583.089 7  25836786.322          47.250   104034073.231 7
  25836785.854          45.500   102711619.089 7  25836786.777          47.750
 119367646.081 7  93013755.27344  22714902.390    22714900.995    22714901.697
        43.000          29.500


 109734115.946 8  85507112.818 7  20881705.089    20881705.339    20881704.906
        49.750          47.750    20881705.818    81944315.655 8  20881706.054
        51.250

 114178786.895 7  88970500.796 7  21727492.646    21727492.878    21727492.266
        47.250          45.000    21727493.736    85263404.308 8  21727493.512
        50.000

 117852004.144 7  91832755.148 7  22426481.757    22426482.070    22426481.386
        45.500          43.000    22426482.593    88006394.410 7  22426482.320
        46.750

 122903728.764 7  95591831.086 7  22951405.651    22951410.271
        42.250          42.250    22951409.855


 130551790.056 6 101728669.71543  24843178.717    24843177.407    24843178.047
        36.250          18.750


 130103353.505 7 101191529.041 5  24347075.921    24347080.564
        43.000          31.750    24347078.319


 107972832.743 8  84134678.728 7  20546539.560    20546537.208    20546539.377
        52.000          47.750    20546537.552


 124317094.096 7                  23656759.921
        44.500                                    92834255.307 7  23656773.520
        45.000   100906711.645 8  23656752.414          48.500    95256011.846 7
  23656771.179          46.750    94045133.650 8  23656772.088          49.000
 128142771.339 6  99851518.76443  24384751.519    24384750.915    24384751.077
        38.500          21.500


 128210362.073 6                  24397618.911
        41.750                                    95741517.470 7  24397620.973
        43.000   104066859.734 7  24397620.830          45.750    98239112.156 7
  24397618.480          44.500    96990314.386 7  24397619.407          46.750
 119087587.501 7  92623688.820 6  22262158.192    22262161.822
        42.250          41.500    22262162.033


 109782704.703 8  85386586.492 8  20558767.490    20558771.599
        51.000          50.000    20558771.433


 120653944.203 8                  22959678.205
        49.750                                    90098763.367 8  22959680.798
        50.750    97933414.202 9  22959676.917          55.250    92449152.968 8
  22959678.641          53.250    91273965.741 9  22959679.469          55.250
 109982134.162 7  85541713.294 7  20588883.715    20588888.150
        47.250          43.750    20588887.837


 110743664.809 8  86133992.566 8  20687845.022    20687849.059
        51.500          49.500    20687848.822


 116090354.512 7                  21755286.165
        43.500


 130403520.506 6                  24814959.661
        36.500                                    97379279.534 6  24814960.448
        39.000   105847021.976 6  24814957.193          40.500    99919595.620 6
  24814958.215          40.250    98649438.149 7  24814958.963          42.750
 134024711.616 5 104434863.65441  25504054.096    25504056.578    25504054.212
        32.500           8.750


 113264510.039 8  88094663.788 7  21218251.870    21218257.842
        50.000          47.500    21218257.552


 129543573.703 6 100943042.718 5  24651323.251    24651322.383    24651323.251
        38.000          30.250    24651323.653


 131457273.744 6                  25015481.930
        37.250                                    98166176.984 6  25015481.921
        38.000   106702351.965 6  25015479.359          40.750   100727025.642 6
  25015479.920          40.000    99446607.386 7  25015480.699          42.000
 124114971.937 7  96533901.082 6  23193841.401    23193846.460
        42.250          38.750    23193846.728


 19  3 26 19 16 30.0000000  0 29R10G08E03G23E05E02G28G09G30G27R08G16
                                R15G07E24G11E08R19R09E25R16R07R06E12
                                G18R18G05E11R17
 126654020.661 6  98508711.788 6  23759969.803    23759977.454
        41.750          36.250    23759977.910


 110875089.008 8  86396206.404 7  21098818.365    21098819.067    21098818.106
        49.500          46.500    21098820.091    82796369.734 8  21098818.480
        50.750

 128326213.310 8                  24419670.847
        48.000                                    95828057.861 8  24419673.852
        48.750   104160921.274 8  24419670.307          52.250    98327908.141 8
  24419671.529          50.750    97077988.574 8  24419672.434          52.750
 120217726.581 7  93676140.83244  22876673.905    22876671.043    22876673.445
        43.750          28.500


 137475778.720 6                  26160771.273
        41.750                                   102660497.579 7  26160775.530
        42.500   111587476.418 7  26160770.809          46.000   105338586.868 7
  26160773.167          44.000   103999546.297 7  26160774.103          46.250
 135721178.429 7                  25826874.956
        43.250                                   101350258.999 7  25826877.532
        43.750   110163309.380 7  25826875.498          47.250   103994166.859 7
  25826875.034          45.500   102672220.003 7  25826875.983          47.750
 119295926.717 7  92957870.09644  22701254.599    22701253.132    22701253.911
        43.500          29.000


 109799072.812 8  85557728.550 7  20894066.012    20894066.302    20894065.825
        49.750          47.250    20894066.713    81992822.405 8  20894066.967
        51.250

 114113406.065 7  88919554.734 7  21715051.129    21715051.406    21715050.745
        47.250          44.500    21715052.161    85214580.997 8  21715051.959
        50.000

 117915891.487 7  91882537.498 7  22438639.176    22438639.431    22438638.805
        45.750          42.500    22438639.668    88054102.491 7  22438639.640
        46.750

 122818703.561 7  95525700.415 7  22935527.960    22935532.374
        43.250          42.000    22935532.369


 130657053.532 5 101810693.16742  24863209.592    24863208.285    24863208.926
        35.750          17.500


 130189312.438 6 101258386.078 5  24363161.626    24363166.282
        41.250          30.500    24363165.795


 107951546.466 8  84118092.040 7  20542488.971    20542486.592    20542488.788
        52.000          47.250    20542487.093


 124372637.770 7                  23667329.745
        44.500                                    92875732.714 7  23667343.138
        45.000   100951795.806 8  23667322.265          48.500    95298571.296 7
  23667340.788          46.750    94087152.085 8  23667341.751          49.000
 128049003.169 6  99778452.71343  24366907.907    24366907.137    24366907.474
        38.750          20.250


 128162673.569 6                  24388544.472
        41.500                                    95705905.953 7  24388545.867
        42.500   104028151.553 7  24388545.729          45.500    98202571.634 7
  24388543.620          44.250    96954238.366 7  24388544.525          46.500
 118973003.145 7  92534567.743 6  22240737.205    22240741.466
        42.250          41.750    22240741.985


 109738743.199 8  85352394.254 8  20550534.919    20550538.907
        51.000          49.750    20550538.831


 120656827.933 8                  22960227.020
        49.750                                    90100916.826 8  22960229.587
        50.750    97935754.909 9  22960225.607          55.000    92451362.598 8
  22960227.330          53.000    91276147.286 9  22960228.230          55.000
 110031808.376 7  85580348.805 7  20598182.551    20598187.184
        47.000          43.250    20598186.330


 110760177.080 8  86146835.452 8  20690929.469    20690933.685
        51.750          49.000    20690933.453


 116205182.650 7                  21776804.711
        43.250


 130387279.513 6                  24811869.281
        36.500                                    97367151.560 6  24811869.720
        39.000   105833839.376 6  24811866.460          40.250    99907151.250 6
  24811867.633          40.250    98637151.979 7  24811868.417          42.500
 133937200.025 5 104366672.88941  25487400.450    25487403.486    25487400.334
        33.750           6.000


 113241374.276 8  88076669.328 7  21213917.824    21213923.791
        50.000          47.250    21213923.465


 129556935.793 6 100953454.684 5  24653866.408    24653865.192    24653866.404
        38.500          30.000    24653866.287


 131381534.458 6                  25001069.232
        37.250                                    98109618.519 6  25001069.237
        38.250   106640875.333 6  25001066.554          40.500   100668991.709 6
  25001067.061          39.750    99389311.185 7  25001067.925          42.000
 124190860.858 7  96592925.792 6  23208024.196    23208028.209
        43.000          39.250    23208028.424


 19  3 26 19 17  0.0000000  0 29R10G08E03G23E05E02G28G09G30G27R08G16
                                R15G07E24G11E08R19R09E25R16R07R06E12
                                G18R18G05E11R17
 126571265.280 7  98444346.539 6  23744445.771    23744452.600
        43.000          36.500    23744453.271


 110876774.372 8  86397519.671 7  21099139.093    21099139.795    21099138.834
        49.500          47.000    21099140.716    82797628.274 8  21099139.190
        50.750

 128357710.758 8                  24425664.772
        48.750                                    95851578.650 8  24425667.715
        48.500   104186487.369 8  24425664.102          52.500    98352042.519 8
  24425665.365          51.000    97101816.159 8  24425666.215          52.750
 120321450.375 7  93756964.51244  22896412.628    22896409.122    22896412.177
        44.000          28.500


 137564984.796 7                  26177746.730
        42.000                                   102727112.431 7  26177751.050
        42.750   111659883.874 7  26177746.168          46.000   105406939.497 7
  26177748.696          44.250   104067030.038 7  26177749.555          46.500
 135669204.464 7                  25816984.503
        43.500                                   101311447.303 7  25816986.944
        43.500   110121122.733 7  25816985.348          47.500   103954342.675 7
  25816984.612          45.750   102632902.064 7  25816985.646          47.750
 119224476.103 7  92902194.32444  22687657.970    22687656.342    22687657.282
        43.500          28.750


 109864508.290 8  85608717.207 7  20906517.845    20906518.310    20906517.662
        49.500          47.500    20906518.730    82041686.524 8  20906518.859
        51.250

 114048184.698 7  88868732.884 7  21702639.771    21702640.146    21702639.387
        47.500          45.000    21702640.951    85165876.730 8  21702640.686
        50.000

 117980294.694 7  91932721.789 7  22450894.692    22450894.870    22450894.330
        45.750          42.750    22450895.286    88102195.758 7  22450895.205
        46.750

 122734248.438 7  95460013.085 6  22919756.409    22919760.711
        43.500          41.500    22919760.300


 130762277.962 5 101892686.15442  24883233.622    24883231.659    24883232.876
        35.000          16.750


 130275254.854 6 101325230.162 5  24379244.869    24379249.534
        39.500          33.500    24379247.549


 107930530.991 8  84101716.331 7  20538489.849    20538487.469    20538489.666
        52.000          47.500    20538487.760


 124428217.389 7                  23677906.208
        45.000                                    92917236.946 7  23677919.516
        45.000   100996909.099 8  23677898.423          48.500    95341158.241 7
  23677917.269          47.000    94129197.667 8  23677918.240          49.000
 127955281.837 6  99705423.15543  24349073.235    24349072.104    24349072.770
        38.750          19.750


 128115337.582 7                  24379536.533
        42.000                                    95670557.643 7  24379538.429
        42.500   103989729.478 7  24379538.205          45.750    98166301.206 7
  24379535.761          44.500    96918428.998 7  24379536.769          46.500
 118858722.237 7  92445682.625 6  22219373.341    22219377.857
        42.750          41.500    22219377.651


 109694993.196 8  85318366.470 8  20542341.839    20542345.966
        51.000          50.000    20542345.769


 120659853.379 8                  22960802.756
        50.250                                    90103176.075 8  22960805.292
        50.500    97938210.620 9  22960801.339          55.250    92453680.789 8
  22960803.040          53.250    91278436.006 9  22960803.954          55.000
 110081664.361 7  85619125.666 7  20607515.898    20607520.575
        47.000          43.750    20607520.186


 110777498.470 8  86160307.602 8  20694165.091    20694169.320
        51.500          49.250    20694169.369


 116320339.411 7                  21798385.653
        43.750


 130371453.825 6                  24808858.078
        37.000                                    97355333.663 6  24808858.226
        38.750   105820993.847 6  24808854.935          40.500    99895025.077 6
  24808856.220          40.500    98625179.943 7  24808856.874          42.750
 133849644.334 5 104298447.7354   25470740.515    25470742.375    25470740.599
        35.250           4.250


 113219035.600 8  88059294.807 7  21209732.734    21209738.979
        50.250          47.500    21209738.921


 129570794.618 6 100964253.752 5  24656503.982    24656502.587    24656503.974
        38.250          31.000    24656503.231


 131305948.475 6                  24986685.589
        37.750                                    98053174.455 6  24986685.683
        38.250   106579523.084 6  24986682.942          40.750   100611075.216 6
  24986683.606          40.000    99332130.909 7  24986684.322          42.000
 124267364.590 7  96652428.644 6  23222320.743    23222325.006
        43.750          40.250    23222324.689


 19  3 26 19 17 30.0000000  0 29R10G08E03G23E05E02G28G09G30G27R08G16
                                R15G07E24G11E08R19R09E25R16R07R06E12
                                G18R18G05E11R17
 126488567.656 7  98380026.296 6  23728930.704    23728938.641
        44.000          36.250    23728939.164


 110879083.750 8  86399319.193 7  21099578.518    21099579.251    21099578.259
        49.250          47.000    21099580.347    82799352.825 8  21099578.647
        50.750

 128389609.099 8                  24431734.682
        48.250                                    95875398.830 8  24431737.687
        48.500   104212378.876 8  24431734.231          52.250    98376484.093 8
  24431735.391          50.750    97125947.036 8  24431736.304          52.750
 120425414.116 7  93837975.17044  22916196.146    22916192.846    22916195.690
        43.750          28.750


 137654302.799 7                  26194743.529
        42.000                                   102793810.880 7  26194747.732
        42.750   111732382.231 7  26194742.908          45.750   105475377.928 7
  26194745.266          44.500   104134598.478 7  26194746.323          46.750
 135617338.778 7                  25807114.773
        43.250                                   101272716.494 7  25807117.291
        43.500   110079024.005 7  25807115.538          47.500   103914601.498 7
  25807115.200          46.000   102593666.069 8  25807115.903          48.000
 119153295.767 7  92846729.15844  22674112.898    22674111.341    22674112.201
        43.000          29.500


 109930421.766 8  85660078.350 7  20919060.759    20919061.152    20919060.576
        49.250          47.500    20919061.604    82090907.616 8  20919061.911
        51.250

 113983125.144 7  88818037.155 7  21690259.391    21690259.735    21690259.007
        47.250          45.000    21690260.446    85117293.323 8  21690260.279
        50.000

 118045212.612 7  91983307.174 7  22463248.429    22463248.353    22463248.063
        45.750          42.500    22463248.988    88150673.424 7  22463248.755
        46.500

 122650367.754 7  95394772.592 6  22904092.238    22904096.787
        43.250          41.750    22904095.848


 130867463.225 5 101974648.66642  24903248.695    24903247.729    24903248.020
        34.000          16.250


 130361181.662 5 101392062.094 6  24395323.353    24395330.321
        35.750          36.000    24395328.148


 107909788.950 8  84085553.707 7  20534542.618    20534540.337    20534542.435
        52.000          47.750    20534540.699


 124483833.844 7                  23688489.828
        44.750                                    92958768.715 7  23688502.952
        44.750   101042052.330 8  23688482.012          48.500    95383773.444 7
  23688500.737          47.000    94171271.152 8  23688501.735          49.000
 127861611.812 6  99632433.57143  24331248.807    24331247.407    24331248.369
        39.000          20.250


 128068356.595 6                  24370596.507
        41.750                                    95635474.457 7  24370597.902
        42.250   103951595.570 7  24370597.867          45.750    98130302.787 7
  24370595.704          44.500    96882888.196 7  24370596.524          46.500
 118744750.497 7  92357038.009 6  22198068.353    22198071.823
        42.500          41.000    22198072.440


 109651455.879 8  85284504.151 8  20534188.841    20534192.682
        51.000          50.000    20534192.651


 120663021.288 8                  22961405.621
        50.000                                    90105541.730 8  22961408.102
        50.500    97940781.985 9  22961404.195          55.250    92456108.157 8
  22961405.949          53.250    91280832.516 9  22961406.787          55.000
 110131703.271 7  85658044.817 7  20616882.888    20616888.048
        47.000          43.750    20616887.981


 110795629.121 8  86174409.216 8  20697552.665    20697556.524
        51.750          49.250    20697556.354


 116435821.891 7                  21820027.465
        43.750


 130356045.360 6                  24805925.767
        36.750                                    97343827.393 6  24805926.214
        38.750   105808487.006 6  24805922.829          40.500    99883218.621 6
  24805924.079          40.500    98613523.580 7  24805924.746          42.750
 133762048.953 6 104230191.68341  25454070.673    25454073.606    25454070.620
        36.000           6.750


 113197496.931 8  88042542.531 7  21205697.657    21205703.977
        50.000          47.250    21205703.884


 129585150.565 6 100975440.194 5  24659234.694    24659234.926    24659234.672
        37.250          30.250    24659234.457


 131230519.138 6                  24972331.900
        37.750                                    97996847.392 6  24972331.815
        37.750   106518298.002 6  24972329.029          40.500   100553278.756 6
  24972329.774          39.750    99275069.148 6  24972330.571          41.750
 124344481.301 7  96712408.256 6  23236731.816    23236735.963
        44.000          41.000    23236735.780


 19  3 26 19 18  0.0000000  0 29R10G08E03G23E05E02G28G09G30G27R08G16
                                R15G07E24G11E08R19R09E25R16R07R06E12
                                G18R18G05E11R17
 126405924.602 7  98315740.436 5  23713427.018    23713434.879
        43.750          35.750    23713435.809


 110882014.622 8  86401602.999 7  21100136.224    21100136.966    21100135.965
        49.250          47.000    21100138.120    82801541.467 8  21100136.415
        50.750

 128421904.895 8                  24437880.271
        48.000                                    95899515.814 8  24437883.312
        48.250   104238592.991 8  24437879.815          52.250    98401230.219 8
  24437881.109          50.500    97150378.590 8  24437881.991          52.500
 120529613.087 7  93919169.12244  22936024.471    22936021.242    22936024.002
        43.750          28.750


 137743728.305 7                  26211760.545
        42.000                                   102860589.610 7  26211764.946
        42.750   111804967.832 7  26211760.027          45.750   105543898.722 7
  26211762.555          44.250   104202248.240 7  26211763.500          46.500
 135565578.520 7                  25797265.145
        43.500                                   101234064.400 7  25797267.623
        43.500   110037010.857 7  25797265.714          47.750   103874941.086 7
  25797265.411          45.750   102554509.817 7  25797266.199          47.750
 119082383.639 7  92791472.99344  22660618.705    22660617.148    22660618.012
        43.250          29.000


 109996808.786 8  85711808.476 7  20931693.921    20931694.198    20931693.738
        49.250          47.250    20931694.788    82140482.311 8  20931694.966
        51.000

 113918225.927 7  88767466.359 7  21677909.393    21677909.808    21677909.009
        47.000          44.750    21677910.492    85068829.646 8  21677910.295
        50.000

 118110640.308 7  92034289.794 7  22475698.729    22475698.849    22475698.363
        45.500          42.500    22475699.274    88199531.763 7  22475699.143
        46.500

 122567062.772 7  95329960.824 6  22888536.099    22888540.120
        44.000          41.250    22888539.883


 130972605.409 5 102056577.56142  24923257.661    24923255.751    24923256.959
        33.500          15.250


 130447090.755 5 101458899.203 6  24411405.457    24411406.688
        35.250          36.750    24411406.625


 107889318.613 8  84069602.801 7  20530647.339    20530644.924    20530647.156
        51.750          47.500    20530645.260


 124539484.213 7                  23699079.509
        44.750                                    93000325.797 7  23699093.000
        44.500   101087223.076 8  23699072.042          48.500    95426414.629 7
  23699090.721          46.750    94213370.286 8  23699091.657          48.750
 127767993.173 6  99559484.02843  24313433.977    24313432.237    24313433.504
        39.250          20.000


 128021729.271 6                  24361723.445
        41.750                                    95600655.360 7  24361725.091
        42.250   103913748.723 7  24361724.876          46.000    98094575.365 7
  24361722.803          44.250    96847614.936 7  24361723.650          46.250
 118631090.217 7  92268598.625 6  22176820.546    22176824.042
        42.750          41.000    22176824.180


 109608128.573 8  85250804.148 8  20526074.753    20526078.947
        51.000          50.000    20526078.777


 120666328.548 8                  22962034.963
        50.000                                    90108011.449 8  22962037.413
        50.250    97943466.454 9  22962033.537          55.500    92458642.297 8
  22962035.309          53.000    91283334.447 9  22962036.129          54.750
 110181921.891 7  85697103.736 7  20626284.114    20626288.894
        46.750          43.500    20626288.335


 110814565.450 8  86189114.449 8  20701089.746    20701093.854
        51.750          49.000    20701093.671


 116551622.472 7                  21841728.005
        43.500


 130341052.262 6                  24803072.752
        36.750                                    97332631.251 6  24803073.150
        38.750   105796317.287 6  24803069.944          40.750    99871730.417 6
  24803070.929          40.250    98602181.407 7  24803071.633          42.500
 133674414.247 6 104161904.94641  25437394.658    25437397.161    25437394.511
        37.000           6.500


 113176757.076 8  88026360.538 7  21201812.863    21201818.782
        50.250          47.250    21201818.527


 129599999.694 6 100987010.913 5  24662061.360    24662060.197    24662061.338
        38.250          31.000    24662060.487


 131155246.004 6                  24958007.931
        38.000                                    97940636.991 6  24958007.725
        37.500   106457199.709 6  24958005.118          40.750   100495601.981 6
  24958005.675          39.250    99218125.561 6  24958006.490          41.500
 124422205.111 7  96772817.071 6  23251256.671    23251261.224
        44.000          41.750    23251260.666


 19  3 26 19 18 30.0000000  0 29R10G08E03G23E05E02G28G09G30G27R08G16
                                R15G07E24G11E08R19R09E25R16R07R06E12
                                G18R18G05E11R17
 126323337.116 7  98251505.824 5  23697933.346    23697941.628
        43.750          35.000    23697942.732


 110885568.068 8  86404371.909 7  21100812.569    21100813.177    21100812.306
        49.500          47.000    21100814.098    82804195.007 8  21100812.554
        50.750

 128454598.677 8                  24444101.795
        48.000                                    95923929.981 8  24444104.755
        48.250   104265130.133 8  24444101.303          52.250    98426281.280 8
  24444102.535          51.000    97175111.204 8  24444103.426          52.750
 120634046.177 7  94000545.50144  22955897.394    22955894.237    22955896.947
        43.750          28.750


 137833260.893 7                  26228798.352
        42.250                                   102927448.284 7  26228802.574
        43.000   111877640.330 7  26228797.499          45.250   105612501.550 7
  26228800.264          44.750   104269978.990 7  26228801.093          47.000
 135513924.818 7                  25787435.727
        43.750                                   101195491.863 7  25787438.173
        43.500   109995084.162 7  25787436.407          47.750   103835362.304 7
  25787436.020          46.250   102515434.157 8  25787436.812          48.000
 119011741.484 7  92736427.20144  22647175.741    22647174.194    22647175.053
        43.250          28.750


 110063668.779 8  85763907.148 7  20944417.054    20944417.309    20944416.871
        49.500          47.500    20944417.617    82190410.204 8  20944417.983
        51.000

 113853489.539 7  88717022.424 7  21665590.425    21665590.863    21665590.045
        47.250          44.750    21665591.534    85020487.544 8  21665591.425
        50.000

 118176576.728 7  92085668.807 7  22488245.930    22488246.167    22488245.564
        45.500          42.750    22488247.007    88248769.973 7  22488246.448
        46.250

 122484338.360 7  95265619.637 6  22873087.210    22873091.883
        44.250          41.250    22873091.404


 131077704.501 5 102138472.89142  24943257.529    24943255.660    24943256.738
        33.250          14.250


 130532983.603 4 101525704.721 6  24427470.539    24427479.953
        29.250          37.750    24427479.523


 107869122.522 8  84053865.582 7  20526804.234    20526801.729    20526804.051
        52.000          47.500    20526802.096


 124595169.527 7                  23709676.261
        44.750                                    93041908.970 7  23709689.587
        44.750   101132422.179 8  23709668.342          48.500    95469082.575 7
  23709687.407          47.000    94255495.847 8  23709688.231          49.000
 127674430.463 6  99486578.06743  24295629.505    24295627.608    24295629.027
        39.750          20.500


 127975458.234 6                  24352918.090
        41.750                                    95566102.315 7  24352919.825
        42.250   103876191.056 7  24352920.004          46.000    98059120.942 7
  24352917.829          44.500    96812611.201 7  24352918.532          46.500
 118517747.512 7  92180443.238 6  22155631.842    22155635.901
        43.000          40.750    22155636.107


 109565012.782 8  85217269.666 8  20518000.464    20518004.609
        51.250          50.000    20518004.604


 120669776.036 8                  22962690.945
        50.000                                    90110585.865 8  22962693.516
        50.500    97946264.730 9  22962689.582          55.250    92461283.873 8
  22962691.278          53.250    91285942.443 9  22962692.151          55.000
 110232321.133 7  85736303.140 7  20635719.022    20635723.551
        46.750          43.750    20635723.238


 110834307.248 8  86204469.159 8  20704777.719    20704781.886
        51.500          49.500    20704781.711


 116667738.225 7                  21863488.498
        43.750


 130326476.596 6                  24800299.012
        37.000                                    97321746.823 6  24800299.401
        39.000   105784486.395 6  24800296.177          40.750    99860562.057 6
  24800297.266          40.500    98591155.013 7  24800297.951          42.750
 133586744.379 6 104093590.88941  25420710.953    25420714.074    25420710.676
        37.000           8.250


 113156818.989 8  88010853.141 7  21198077.616    21198083.602
        50.000          47.250    21198083.642


 129615342.134 6 100998966.011 5  24664981.628    24664980.165    24664981.606
        39.500          31.750    24664981.596


 131080132.592 6                  24943714.344
        38.500                                    97884545.843 6  24943714.192
        38.000   106396231.041 6  24943711.411          41.000   100438047.577 6
  24943711.976          39.500    99161302.783 6  24943712.854          41.750
 124500534.326 7  96833739.727 7  23265894.096    23265898.811
        44.000          42.000    23265899.142


 19  3 26 19 19  0.0000000  0 29R10G08E03G23E05E02G28G09G30G27R08G16
                                R15G07E24G11E08R19R09E25R16R07R06E12
                                G18R18G05E11R17
 126240805.432 7  98187314.577 5  23682451.288    23682458.210
        44.500          34.250    23682458.666


 110889743.566 8  86407625.551 7  21101606.933    21101607.792    21101606.670
        49.000          46.750    21101608.838    82807313.079 8  21101607.048
        50.750

 128487689.346 8                  24450398.724
        48.000                                    95948640.528 8  24450401.774
        48.250   104291989.429 8  24450398.192          52.250    98451636.451 8
  24450399.486          51.000    97200144.062 8  24450400.395          52.750
 120738710.443 7  94082102.01644  22975814.314    22975811.313    22975813.863
        43.250          28.750


 137922898.451 6                  26245855.692
        41.750                                   102994385.348 7  26245859.931
        42.750   111950398.047 7  26245854.883          45.000   105681184.809 7
  26245857.621          45.000   104337789.153 7  26245858.611          47.000
 135462377.154 7                  25777626.534
        43.500                                   101156998.520 7  25777628.935
        43.750   109953243.558 7  25777627.138          47.750   103795864.787 7
  25777626.755          46.250   102476438.727 8  25777627.570          48.250
 118941369.490 7  92681591.92644  22633784.380    22633782.797    22633783.696
        42.750          28.750


 110130999.619 8  85816372.718 7  20957229.513    20957230.000    20957229.330
        49.000          47.250    20957230.375    82240689.707 8  20957230.553
        51.000

 113788916.899 7  88666706.092 7  21653302.800    21653302.987    21653302.420
        47.250          44.750    21653304.011    84972267.737 8  21653303.630
        50.000

 118243019.244 7  92137442.182 7  22500889.469    22500889.817    22500889.107
        45.000          42.750    22500890.671    88298386.121 7  22500889.946
        46.000

 122402197.358 7  95201732.218 6  22857748.577    22857752.955
        44.500          41.500    22857752.615


 131182758.667 5 102220333.22942  24963247.789    24963247.104    24963247.025
        32.750          14.750


 130618860.142 5 101592497.356 6  24443542.136    24443551.233
        30.250          39.000    24443550.571


 107849201.645 8  84038342.820 7  20523013.308    20523010.933    20523013.125
        51.750          47.500    20523011.331


 124650889.240 7                  23720279.225
        44.500                                    93083517.830 7  23720292.645
        44.750   101177649.205 8  23720271.758          48.250    95511776.883 7
  23720290.438          47.250    94297647.430 8  23720291.329          49.000
 127580926.181 6  99413717.62743  24277836.096    24277834.714    24277835.614
        39.750          21.500


 127929544.474 6                  24344180.933
        41.500                                    95531816.078 7  24344182.887
        42.000   103838923.411 7  24344182.811          45.750    98023940.283 7
  24344180.698          44.750    96777877.755 7  24344181.464          46.500
 118404726.780 7  92092539.269 6  22134504.864    22134507.627
        42.750          41.000    22134508.204


 109522108.228 8  85183899.483 8  20509966.143    20509970.261
        51.250          50.250    20509970.212


 120673363.013 8                  22963373.578
        49.750                                    90113264.452 8  22963376.127
        50.500    97949176.239 9  22963372.143          55.500    92464032.337 8
  22963373.849          53.250    91288655.968 9  22963374.731          55.000
 110282900.299 7  85775642.471 7  20645187.718    20645192.467
        46.750          43.500    20645191.751


 110854853.006 8  86220449.169 8  20708615.858    20708619.945
        51.750          49.250    20708619.703


 116784164.495 7                  21885307.203
        43.500


 130312318.788 6                  24797605.082
        36.750                                    97311174.456 6  24797605.203
        39.000   105772994.679 6  24797601.738          41.000    99849713.873 6
  24797603.018          40.500    98580444.738 7  24797603.811          42.750
 133499042.040 6 104025251.54141  25404022.916    25404024.646    25404022.603
        37.750           9.750


 113137683.818 8  87995970.248 7  21194492.831    21194498.857
        50.000          47.250    21194498.754


 129631176.093 6 101011304.087 5  24667993.282    24667993.389    24667993.290
        37.500          31.000    24667993.854


 131005180.721 6                  24929451.326
        38.250                                    97828575.347 6  24929451.294
        38.000   106335393.512 6  24929448.656          41.250   100380616.963 6
  24929449.190          39.500    99104602.227 6  24929449.907          41.750
 124579465.155 7  96895130.334 6  23280643.899    23280648.470
        44.500          41.750    23280648.662


 19  3 26 19 19 30.0000000  0 29R10G08E03G23E05E02G28G09G30G27R08G16
                                R15G07E24G11E08R19R09E25R16R07R06E12
                                G18R18G05E11R17
 126158329.714 7  98123166.800 5  23666978.820    23666986.595
        43.750          34.250    23666987.036


 110894541.881 8  86411364.504 7  21102520.037    21102520.877    21102519.778
        49.500          46.750    21102521.775    82810896.240 8  21102520.172
        50.750

 128521177.178 8                  24456771.257
        48.000                                    95973647.662 8  24456774.337
        48.250   104319171.103 8  24456770.750          52.000    98477295.951 8
  24456772.090          51.000    97225477.435 8  24456772.923          52.750
 120843604.315 7  94163837.44744  22995774.994    22995771.926    22995774.543
        44.000          29.000


 138012640.288 7                  26262932.914
        42.000                                   103061400.293 7  26262937.310
        42.500   112023240.423 7  26262932.169          44.500   105749947.983 7
  26262935.058          45.250   104405678.276 7  26262935.961          47.000
 135410936.406 7                  25767837.492
        43.750                                   101118585.017 7  25767840.152
        43.750   109911489.733 7  25767838.253          47.500   103756449.187 7
  25767837.720          46.500   102437524.192 8  25767838.714          48.250
 118871269.128 7  92626968.31144  22620444.708    22620443.106    22620444.029
        43.500          29.000


 110198800.480 8  85869204.530 7  20970131.656    20970132.115    20970131.473
        49.250          47.250    20970132.489    82291320.209 8  20970132.671
        50.750

 113724510.255 7  88616519.126 7  21641046.683    21641046.897    21641046.303
        47.750          45.000    21641047.479    84924171.887 8  21641047.428
        50.000

 118309966.559 7  92189608.904 7  22513629.152    22513629.514    22513628.786
        45.750          42.750    22513630.265    88348379.221 7  22513629.594
        46.000

 122320644.200 7  95138301.988 6  22842519.114    22842522.986
        44.250          41.500    22842522.513


 131287767.814 5 102302158.46742  24983230.963    24983229.809    24983230.261
        34.500          14.000


 130704721.332 5 101659278.196 6  24459613.390    24459619.004
        34.000          40.500    24459618.526


 107829558.005 8  84023036.096 7  20519275.231    20519272.838    20519275.048
        52.000          47.500    20519273.383


 124706644.140 7                  23730889.169
        44.750                                    93125152.958 7  23730902.387
        44.500   101222904.799 8  23730881.283          48.000    95554498.167 7
  23730900.197          47.250    94339825.595 8  23730901.136          48.750
 127487484.399 6  99340905.88043  24260054.868    24260053.101    24260054.381
        40.250          21.500


 127883990.365 7                  24335513.020
        42.000                                    95497798.419 7  24335514.007
        42.000   103801947.699 7  24335514.226          46.000    97989035.200 7
  24335511.917          44.750    96743416.394 7  24335512.817          46.500
 118292034.004 7  92004889.380 6  22113437.954    22113440.932
        42.750          41.250    22113441.059


 109479415.970 8  85150694.413 8  20501970.962    20501975.322
        51.000          50.000    20501975.229


 120677090.113 8                  22964082.793
        50.000                                    90116047.675 8  22964085.329
        50.500    97952201.484 9  22964081.368          55.000    92466888.168 8
  22964083.047          53.500    91291475.621 9  22964083.978          55.000
 110333660.099 7  85815122.303 7  20654690.322    20654694.458
        46.750          43.500    20654693.638


 110876202.941 8  86237054.663 8  20712603.953    20712608.481
        51.250          49.250    20712608.364


 116900897.408 7                  21907182.504
        43.250


 130298580.676 6                  24794990.729
        36.750                                    97300915.468 6  24794991.026
        38.750   105761843.621 6  24794987.722          40.500    99839187.306 6
  24794988.585          40.250    98570051.958 7  24794989.537          42.500
 133411311.257 6 103956889.96742  25387327.674    25387329.753    25387327.361
        38.500          12.750


 113119354.154 8  87981713.847 7  21191059.302    21191065.143
        49.750          47.250    21191064.992


 129647501.635 6 101024025.328 5  24671100.744    24671099.724    24671100.748
        39.500          30.500    24671099.858


 130930393.692 6                  24915219.730
        38.250                                    97772727.917 6  24915219.880
        37.750   106274689.768 6  24915217.104          41.000   100323312.651 6
  24915217.679          39.250    99048026.245 6  24915218.341          41.500
 124658995.669 7  96956987.341 6  23295506.293    23295511.179
        45.250          41.750    23295511.534


 19  3 26 19 20  0.0000000  0 29R10G08E03G23E05E02G28G09G30G27R08G16
                                R15G07E24G11E08R19R09E25R16R07R06E12
                                G18R18G05E11R17
 126075907.830 7  98059061.036 5  23651516.399    23651524.148
        43.500          33.000    23651524.099


 110899960.071 8  86415586.482 7  21103551.172    21103551.914    21103550.913
        49.500          46.750    21103552.906    82814942.311 8  21103551.318
        51.000

 128555058.845 7                  24463218.580
        47.750                                    95998948.894 8  24463221.772
        48.250   104346672.445 8  24463218.240          52.000    98503257.209 8
  24463219.548          51.000    97251108.625 8  24463220.407          52.750
 120948722.917 7  94245747.98944  23015778.574    23015775.550    23015778.127
        44.000          28.500


 138102482.211 6                  26280029.385
        41.750                                   103128489.998 7  26280033.629
        42.250   112096164.012 7  26280028.880          44.750   105818787.836 7
  26280031.431          45.000   104473642.990 7  26280032.317          46.750
 135359599.911 7                  25758068.450
        43.250                                   101080249.363 7  25758071.093
        43.750   109869820.533 7  25758069.197          47.500   103717113.465 7
  25758068.864          46.500   102398688.490 8  25758069.679          48.250
 118801438.424 7  92572554.81844  22607156.329    22607154.809    22607155.654
        43.500          28.500


 110267067.065 8  85922399.269 7  20983122.416    20983122.773    20983122.233
        49.250          47.250    20983123.279    82342298.483 8  20983123.376
        51.000

 113660268.306 7  88566460.479 7  21628821.566    21628822.062    21628821.182
        47.500          45.000    21628822.880    84876199.025 8  21628822.531
        50.250

 118377413.779 7  92242165.184 7  22526464.060    22526464.314    22526463.698
        45.500          42.750    22526464.931    88398745.674 7  22526464.407
        46.000

 122239680.064 7  95075329.902 7  22827399.397    22827403.744
        44.250          42.000    22827403.073


 131392728.161 5 102383945.68742  25003203.871    25003202.932    25003203.080
        35.500          14.250


 130790564.793 6 101726045.252 6  24475676.671    24475682.960
        37.500          40.250    24475682.311


 107810190.518 8  84007944.557 7  20515589.838    20515587.330    20515589.651
        52.000          47.500    20515587.830


 124762431.492 7                  23741505.076
        44.250                                    93166812.362 7  23741518.379
        44.500   101268186.742 7  23741497.323          47.750    95597244.323 7
  23741516.172          47.250    94382028.416 8  23741517.117          49.000
 127394105.722 6  99268143.31943  24242285.419    24242283.720    24242284.937
        40.500          21.750


 127838794.731 6                  24326912.233
        41.750                                    95464048.434 7  24326913.713
        42.250   103765262.932 7  24326913.852          46.000    97954404.787 7
  24326911.457          44.750    96709226.187 7  24326912.339          46.500
 118179671.410 7  91917496.311 6  22092432.987    22092435.817
        42.250          41.000    22092435.964


 109436933.472 8  85117652.506 8  20494015.697    20494019.479
        51.000          49.750    20494019.372


 120680954.414 8                  22964818.115
        49.750                                    90118933.373 8  22964820.682
        50.500    97955338.106 9  22964816.765          55.000    92469849.141 8
  22964818.435          53.500    91294398.830 9  22964819.335          55.000
 110384597.729 7  85854740.472 7  20664225.693    20664230.231
        46.750          43.250    20664229.543


 110898352.652 8  86254282.199 8  20716741.899    20716746.075
        51.500          49.000    20716746.079


 117017930.470 7                  21929113.905
        42.500


 130285260.394 6                  24792455.718
        36.500                                    97290968.547 6  24792456.219
        39.000   105751031.723 6  24792452.843          40.500    99828980.857 6
  24792453.887          40.500    98559975.276 7  24792454.720          42.750
 133323552.823 6 103888506.91642  25370627.030    25370629.207    25370626.682
        38.500          14.750


 113101828.936 8  87968083.135 7  21187776.032    21187781.999
        49.750          47.000    21187782.116


 129664315.033 6 101037126.673 5  24674300.121    24674299.642    24674300.138
        39.750          31.500    24674299.597


 130855771.097 6                  24901019.615
        38.000                                    97717003.316 6  24901019.507
        37.500   106214119.533 6  24901016.758          41.250   100266134.353 6
  24901017.229          39.250    98991574.909 6  24901018.062          41.500
 124739120.020 7  97019306.256 6  23310479.802    23310484.128
        45.750          41.750    23310483.846


 19  3 26 19 20 30.0000000  0 29R10G08E03G23E05E02G28G09G30G27R08G16
                                R15G07E24G11E08R19R09E25R16R07R06E12
                                G18R18G05E11R17
 125993543.184 7  97994999.748 5  23636065.825    23636072.444
        44.000          32.750    23636073.678


 110906001.183 8  86420293.838 7  21104700.623    21104701.473    21104700.360
        49.500          47.000    21104702.416    82819453.525 8  21104700.797
        50.750

 128589336.715 7                  24469741.509
        47.500                                    96024545.973 8  24469744.599
        48.250   104374495.367 8  24469741.170          52.000    98529522.041 8
  24469742.410          51.000    97277039.581 8  24469743.297          52.750
 121054067.097 7  94327834.30644  23035824.759    23035822.004    23035824.321
        43.500          29.500


 138192425.580 6                  26297145.119
        41.750                                   103195655.414 7  26297149.444
        42.500   112169169.948 7  26297144.329          44.750   105887705.410 7
  26297147.116          44.750   104541684.487 7  26297148.043          46.750
 135308370.652 7                  25748319.955
        43.500                                   101041993.768 7  25748322.527
        44.000   109828238.357 7  25748320.483          47.500   103677859.895 7
  25748320.132          46.500   102359933.905 8  25748321.032          48.250
 118731880.562 7  92518353.93044  22593919.968    22593918.412    22593919.298
        43.500          29.750


 110335800.592 8  85975957.833 7  20996202.050    20996202.412    20996201.867
        49.500          47.500    20996202.931    82393625.436 8  20996202.979
        51.000

 113596195.487 7  88516533.613 7  21616628.918    21616629.347    21616628.534
        47.750          45.000    21616630.205    84828352.450 8  21616629.842
        50.000

 118445361.737 7  92295111.633 7  22539394.073    22539394.417    22539393.716
        45.500          42.750    22539395.150    88449486.016 7  22539394.483
        46.000

 122159311.274 7  95012820.841 7  22812391.262    22812395.117
        45.000          42.000    22812394.697


 131497642.033 6 102465696.72542  25023168.746    25023167.515    25023168.031
        36.500          14.500


 130876394.221 6 101792801.433 6  24491740.104    24491744.621
        41.250          41.250    24491745.015


 107791103.850 8  83993071.817 7  20511957.776    20511955.245    20511957.589
        52.250          47.750    20511955.656


 124818254.234 7                  23752127.760
        44.000                                    93208498.143 7  23752141.175
        44.500   101313497.395 7  23752120.127          47.750    95640017.566 7
  23752138.896          47.000    94424257.929 8  23752139.837          49.000
 127300796.075 6  99195434.54343  24224529.049    24224527.394    24224528.558
        41.000          22.750


 127793962.019 6                  24318380.878
        41.250                                    95430569.462 7  24318382.344
        42.250   103728872.731 7  24318382.363          46.250    97920052.449 7
  24318380.088          44.750    96675310.530 7  24318380.961          46.750
 118067646.980 7  91830366.234 6  22071490.549    22071494.054
        42.750          41.250    22071494.041


 109394664.072 8  85084776.312 8  20486099.748    20486103.906
        51.500          50.250    20486103.844


 120684958.693 8                  22965580.138
        49.500                                    90121923.567 8  22965582.651
        50.500    97958588.326 9  22965578.779          55.250    92472917.345 8
  22965580.475          53.500    91297428.030 9  22965581.321          55.000
 110435716.052 7  85894499.140 7  20673795.341    20673799.897
        47.000          43.750    20673799.302


 110921304.451 8  86272133.564 8  20721029.361    20721033.845
        51.500          49.500    20721033.859


 117135261.999 7                  21951102.215
        42.750


 130272361.915 6                  24790001.432
        37.000                                    97281336.582 6  24790001.646
        39.250   105740562.183 6  24789998.557          40.750    99819097.604 6
  24789999.372          40.250    98550217.667 7  24790000.219          42.750
 133235773.024 6 103820107.19342  25353923.088    25353924.796    25353922.753
        39.250          16.500


 113085112.679 8  87955081.599 7  21184644.378    21184650.628
        50.000          47.500    21184650.471


 129681617.910 6 101050609.344 5  24677593.256    24677592.025    24677593.273
        40.000          30.500    24677593.099


 130781318.403 6                  24886851.726
        38.000                                    97661405.567 6  24886851.462
        37.500   106153687.179 6  24886848.931          41.500   100209086.211 6
  24886849.197          38.750    98935251.965 6  24886850.097          41.250
 124819838.166 7  97082086.970 6  23325563.809    23325568.582
        45.750          41.500    23325568.649


 19  3 26 19 21  0.0000000  0 29R10G08E03G23E05E02G28G09G30G27R08G16
                                R15G07E24G11E08R19R09E25R16R07R06E12
                                G18R18G05E11R17
 125911233.157 7  97930980.955 5  23620623.297    23620630.846
        42.750          31.750    23620630.211


 110912662.674 8  86425484.644 7  21105968.306    21105969.115    21105968.043
        49.000          46.750    21105970.108    82824428.043 8  21105968.377
        50.500

 128624007.484 7                  24476339.250
        47.000                                    96050436.490 8  24476342.233
        48.250   104402637.239 8  24476338.710          51.750    98556087.967 8
  24476340.084          50.500    97303267.803 8  24476340.953          52.500
 121159631.654 7  94410092.34044  23055913.207    23055910.287    23055912.769
        43.000          28.500


 138282466.149 6                  26314279.305
        41.250                                   103262893.466 7  26314283.607
        42.500   112242254.813 7  26314278.743          44.750   105956697.502 7
  26314281.396          44.500   104609799.557 7  26314282.269          46.500
 135257245.942 7                  25738591.383
        43.000                                   101003816.280 7  25738593.556
        44.000   109786741.067 7  25738591.741          47.500   103638686.464 7
  25738591.363          46.000   102321258.445 8  25738592.321          48.000
 118662593.533 7  92464364.09044  22580735.109    22580733.391    22580734.434
        43.500          29.000


 110404996.674 8  86029876.863 7  21009369.588    21009369.968    21009369.405
        48.750          47.250    21009370.545    82445297.837 8  21009370.544
        50.500

 113532290.490 7  88466737.549 7  21604468.266    21604468.592    21604467.882
        47.500          45.000    21604469.312    84780631.233 8  21604469.168
        50.000

 118513805.547 7  92348444.479 7  22552418.568    22552418.747    22552418.202
        45.250          42.250    22552419.319    88500596.660 7  22552418.880
        45.750

 122079538.830 7  94950775.648 6  22797493.368    22797498.046
        44.500          41.750    22797497.518


 131602505.019 6 102547408.10142  25043123.909    25043122.129    25043123.176
        37.250          12.750


 130962207.079 7 101859544.782 7  24507798.887    24507803.812
        42.250          42.000    24507803.262


 107772296.213 8  83978416.533 7  20508378.695    20508376.262    20508378.508
        51.750          47.500    20508376.749


 124874109.641 7                  23762756.616
        43.500                                    93250208.364 7  23762770.196
        44.750   101358834.598 7  23762748.733          47.750    95682815.875 7
  23762767.923          46.750    94466512.194 8  23762768.773          48.750
 127207556.109 6  99122780.07543  24206786.068    24206784.301    24206785.590
        40.500          22.000


 127749491.012 6                  24309918.243
        41.000                                    95397360.618 7  24309919.858
        42.500   103692776.170 7  24309919.701          46.000    97885977.294 7
  24309917.503          44.500    96641668.530 7  24309918.390          46.500
 117955962.870 7  91743500.909 6  22050612.987    22050615.839
        42.500          41.000    22050616.081


 109352605.460 8  85052064.116 8  20478223.510    20478227.695
        51.000          50.000    20478227.578


 120689100.031 8                  22966368.200
        49.000                                    90125016.141 8  22966370.735
        50.500    97961949.817 9  22966366.792          55.000    92476090.596 8
  22966368.555          53.000    91300560.943 9  22966369.384          54.750
 110487012.124 7  85934396.121 7  20683397.820    20683402.515
        46.500          43.500    20683401.715


 110945053.849 8  86290605.333 8  20725466.266    20725470.419
        51.250          49.000    20725470.455


 117252885.307 7                  21973144.185
        42.750


 130259883.382 6                  24787627.046
        36.250                                    97272018.225 6  24787626.911
        39.000   105730433.528 6  24787623.527          40.250    99809536.181 6
  24787624.700          40.000    98540777.775 7  24787625.609          42.500
 133147972.299 6 103751691.15042  25337215.637    25337216.437    25337215.351
        39.000          17.000


 113069204.218 8  87942708.402 7  21181664.140    21181670.260
        49.500          47.000    21181670.314


 129699406.625 6 101064470.705 5  24680978.382    24680976.798    24680978.395
        40.000          31.250    24680978.287


 130707035.242 6                  24872716.083
        37.250                                    97605934.444 6  24872715.913
        37.250   106093392.456 6  24872713.257          41.750   100152167.997 6
  24872713.661          38.250    98879057.294 6  24872714.414          40.750
 124901144.253 7  97145325.055 6  23340757.864    23340762.145
        45.250          41.250    23340762.042


 19  3 26 19 21 30.0000000  0 29R10G08E03G23E05E02G28G09G30G27R08G16
                                R15G07E24G11E08R19R09E25R16R07R06E12
                                G18R18G05E11R17
 125828977.802 6  97867004.608 5  23605192.162    23605200.352
        41.500          31.500    23605199.547


 110919944.639 8  86431158.885 7  21107354.187    21107354.746    21107353.928
        49.000          46.500    21107355.692    82829865.870 8  21107354.206
        50.750

 128659070.947 7                  24483011.577
        47.250                                    96076620.203 8  24483014.641
        48.000   104431097.815 8  24483011.115          52.000    98582954.741 8
  24483012.488          50.750    97329793.098 8  24483013.316          52.500
 121265414.784 7  94492520.68744  23076043.247    23076040.323    23076042.800
        42.750          28.500


 138372602.839 6                  26331431.746
        41.250                                   103330203.244 7  26331436.170
        42.250   112315417.642 7  26331431.102          45.000   106025763.201 7
  26331433.776          44.500   104677987.346 7  26331434.769          46.500
 135206226.291 7                  25728882.338
        43.250                                   100965717.184 7  25728884.988
        43.750   109745329.004 7  25728883.099          47.750   103599593.484 7
  25728882.680          46.250   102282662.418 8  25728883.548          48.000
 118593578.525 7  92410586.20644  22567601.809    22567600.101    22567601.130
        43.250          28.750


 110474654.063 8  86084155.296 7  21022624.812    21022625.384    21022624.629
        48.500          47.250    21022625.816    82497314.666 8  21022625.900
        50.750

 113468555.249 7  88417073.706 7  21592339.961    21592340.202    21592339.577
        47.250          45.000    21592341.021    84733036.728 8  21592340.630
        50.000

 118582743.461 7  92402162.303 7  22565536.895    22565537.110    22565536.524
        44.750          42.250    22565537.722    88552076.255 7  22565537.385
        45.750

 122000366.217 7  94889196.961 7  22782708.751    22782713.429
        44.000          42.750    22782713.521


 131707316.831 6 102629079.63741  25063068.388    25063067.275    25063067.575
        37.750          11.250


 131048004.198 7 101926275.824 7  24523852.388    24523859.554
        42.250          42.250    24523859.494


 107753769.596 8  83963980.184 7  20504853.224    20504850.805    20504853.037
        51.500          47.500    20504851.386


 124929998.124 7                  23773392.114
        44.000                                    93291943.227 7  23773405.401
        44.250   101404198.585 8  23773384.333          48.000    95725639.484 7
  23773403.136          46.750    94508791.372 8  23773403.998          48.750
 127114389.681 6  99050182.88143  24189056.362    24189055.288    24189055.889
        39.500          22.000


 127705383.629 6                  24301524.790
        41.000                                    95364423.272 7  24301526.581
        42.250   103656974.693 7  24301526.480          46.250    97852180.699 7
  24301524.110          44.750    96608301.560 7  24301525.015          46.500
 117844624.880 7  91656904.715 6  22029799.341    22029802.207
        42.500          41.250    22029802.165


 109310758.161 8  85019516.222 8  20470386.888    20470390.855
        51.250          50.250    20470390.747


 120693378.676 8                  22967182.384
        49.250                                    90128211.219 8  22967184.915
        50.500    97965422.722 9  22967180.985          55.250    92479369.025 8
  22967182.670          53.250    91303797.812 9  22967183.583          54.750
 110538486.318 7  85974431.545 7  20693033.575    20693038.431
        46.500          43.500    20693037.980


 110969600.592 8  86309697.190 8  20730051.494    20730055.915
        51.250          49.250    20730055.836


 117370796.449 7                  21995240.636
        42.750


 130247826.156 6                  24785332.292
        36.500                                    97263014.430 6  24785332.684
        38.750   105720646.808 6  24785329.055          40.500    99800297.485 6
  24785330.397          40.250    98531656.536 7  24785331.158          42.500
 133060154.237 6 103683261.59742  25320504.041    25320505.611    25320503.796
        38.250          17.750


 113054105.614 8  87930965.018 7  21178835.884    21178841.721
        49.500          47.250    21178841.485


 129717680.933 6 101078710.349 5  24684454.772    24684454.653    24684454.759
        39.000          31.000    24684455.817


 130632924.476 6                  24858613.142
        37.500                                    97550591.985 6  24858612.829
        37.250   106033237.618 7  24858610.487          42.000   100095381.852 6
  24858610.722          38.500    98822992.873 6  24858611.580          40.750
 124983035.776 7  97209018.416 6  23356061.262    23356065.759
        44.750          41.500    23356065.933


 19  3 26 19 22  0.0000000  0 29R10G08E03G23E05E02G28G09G30G27R08G16
                                R15G07E24G11E08R19R09E25R16R07R06E12
                                G18R18G05E11R17
 125746777.109 6  97803070.795 5  23589771.845    23589779.353
        41.250          30.500    23589779.742


 110927846.181 8  86437315.943 7  21108857.636    21108858.346    21108857.373
        49.500          47.000    21108859.254    82835766.373 8  21108857.849
        51.250

 128694525.662 7                  24489758.264
        47.500                                    96103096.122 8  24489761.425
        48.250   104459875.982 8  24489758.005          52.250    98610121.332 8
  24489759.312          50.750    97356614.301 8  24489760.132          52.500
 121371413.459 7  94575116.99244  23096213.993    23096211.399    23096213.546
        43.250          29.000


 138462833.283 6                  26348602.181
        41.750                                   103397583.058 7  26348606.380
        42.000   112388656.593 7  26348601.605          45.500   106094900.766 7
  26348604.222          44.750   104746245.986 7  26348605.136          46.500
 135155310.835 7                  25719193.813
        44.000                                   100927695.949 7  25719196.160
        44.000   109704001.555 7  25719194.157          47.750   103560580.375 7
  25719193.743          46.500   102244145.236 8  25719194.652          48.250
 118524835.353 7  92357020.14245  22554520.553    22554518.778    22554519.874
        44.000          30.000


 110544770.194 8  86138791.230 7  21035967.578    21035968.065    21035967.391
        49.250          47.500    21035968.709    82549674.101 8  21035968.632
        51.000

 113404990.364 8  88367542.667 7  21580243.798    21580244.258    21580243.409
        48.000          45.500    21580244.951    84685569.465 8  21580244.718
        50.500

 118652172.406 7  92456262.779 7  22578748.788    22578749.038    22578748.417
        45.500          42.500    22578749.901    88603922.531 7  22578749.153
        46.000

 121921797.018 7  94828087.607 7  22768036.473    22768041.146
        44.500          43.000    22768041.012


 131812075.522 6 102710709.85042  25083003.854    25083002.248    25083003.090
        39.000          12.500


 131133785.282 7 101992994.390 7  24539907.098    24539912.300
        43.250          42.000    24539911.625


 107735524.829 8  83949763.489 7  20501381.291    20501378.970    20501381.108
        52.250          47.750    20501379.435


 124985918.848 7                  23784033.403
        44.500                                    93333702.200 7  23784046.791
        44.500   101449588.783 8  23784025.561          48.000    95768487.818 7
  23784044.433          47.000    94551095.083 8  23784045.382          48.750
 127021299.060 6  98977644.78843  24171342.389    24171340.805    24171341.902
        40.500          23.000


 127661640.545 7                  24293200.958
        42.000                                    95331757.983 7  24293202.344
        42.250   103621468.946 7  24293202.528          46.500    97818663.284 7
  24293200.007          44.500    96575210.208 7  24293200.934          46.500
 117733636.889 7  91570580.761 6  22009051.013    22009054.232
        43.000          41.250    22009054.706


 109269121.697 8  84987132.324 8  20462589.829    20462593.799
        51.750          50.250    20462593.584


 120697793.627 8                  22968022.505
        49.750                                    90131508.094 8  22968025.117
        50.500    97969006.285 9  22968021.155          55.250    92482751.901 8
  22968022.811          53.250    91307137.572 9  22968023.729          55.000
 110590137.718 7  86014604.884 7  20702703.319    20702707.759
        47.250          43.750    20702707.424


 110994942.528 8  86329407.581 8  20734785.890    20734790.012
        51.500          49.000    20734789.896


 117488990.501 7                  22017390.770
        43.000


 130236190.279 6                  24783118.327
        37.250                                    97254325.341 6  24783118.501
        39.000   105711202.114 6  24783114.951          40.750    99791381.728 6
  24783116.048          40.000    98522854.108 7  24783116.917          42.500
 132972321.500 6 103614820.61543  25303790.193    25303791.391    25303789.952
        38.250          19.000


 113039817.356 8  87919851.948 7  21176159.071    21176165.226
        49.750          47.500    21176165.011


 129736438.384 6 101093326.505 5  24688025.632    24688024.290    24688025.624
        40.750          31.000    24688025.037


 130558987.662 6                  24844543.244
        37.750                                    97495379.488 6  24844543.110
        37.000   105973223.993 7  24844541.026          42.750   100038728.977 6
  24844540.970          38.750    98767060.305 6  24844541.776          41.000
 125065508.730 7  97273164.007 6  23371473.556    23371477.255
        44.750          41.250    23371477.014


 19  3 26 19 22 30.0000000  0 29R10G08E03G23E05E02G28G09G30G27R08G16
                                R15G07E24G11E08R19R09E25R16R07R06E12
                                G18R18G05E11R17
 125664631.024 6  97739179.437 5  23574361.263    23574368.646
        41.250          31.500    23574369.504


 110936367.488 8  86443955.925 7  21110479.225    21110479.950    21110478.962
        49.500          47.000    21110480.862    82842129.695 8  21110479.309
        51.000

 128730371.333 7                  24496579.591
        47.500                                    96129863.983 8  24496582.645
        48.250   104488971.484 8  24496579.122          52.000    98637587.484 8
  24496580.434          50.750    97383731.307 8  24496581.343          52.750
 121477625.936 7  94657879.88344  23116425.527    23116422.728    23116425.089
        42.750          28.750


 138553156.300 6                  26365789.955
        41.250                                   103465032.012 6  26365794.208
        41.500   112461970.694 7  26365789.576          45.250   106164109.250 7
  26365792.149          44.500   104814574.704 7  26365793.053          46.250
 135104500.091 7                  25709524.584
        43.750                                   100889752.883 7  25709526.972
        44.000   109662759.089 8  25709525.188          48.000   103521647.498 7
  25709524.747          46.750   102205707.264 8  25709525.660          48.500
 118456364.946 7  92303666.63145  22541490.842    22541489.312    22541490.158
        44.000          30.500


 110615343.766 8  86193783.600 7  21049397.368    21049397.743    21049397.185
        49.250          47.250    21049398.159    82602375.120 8  21049398.351
        51.000

 113341597.721 8  88318145.816 7  21568180.582    21568181.128    21568180.193
        48.000          45.500    21568181.986    84638230.825 8  21568181.484
        50.500

 118722090.597 7  92510744.481 7  22592053.739    22592054.142    22592053.364
        45.500          42.500    22592054.888    88656134.164 7  22592054.275
        46.000

 121843834.815 7  94767450.340 7  22753477.917    22753482.148
        44.250          43.250    22753482.385


 131916780.860 6 102792298.40242  25102928.355    25102926.875    25102927.528
        39.000          14.000


 131219551.241 7 102059701.190 6  24555954.488    24555962.181
        43.500          41.750    24555962.239


 107717563.548 8  83935767.688 7  20497963.318    20497961.069    20497963.131
        52.250          47.750    20497961.453


 125041872.218 7                  23794681.036
        44.250                                    93375485.559 7  23794694.219
        44.500   101495005.475 8  23794673.390          48.000    95811361.167 7
  23794692.034          47.000    94593423.436 8  23794692.961          48.750
 126928287.787 6  98905168.52544  24153642.711    24153641.441    24153642.246
        40.250          24.000


 127618263.608 6                  24284946.371
        41.750                                    95299366.143 7  24284948.106
        42.250   103586260.411 7  24284948.079          46.500    97785426.414 7
  24284945.630          44.500    96542395.852 7  24284946.544          46.500
 117623004.453 7  91484533.355 6  21988369.353    21988372.478
        43.250          41.750    21988372.984


 109227696.849 8  84954913.007 8  20454831.986    20454836.282
        51.750          50.250    20454836.144


 120702345.074 8                  22968888.665
        49.750                                    90134906.908 8  22968891.160
        50.500    97972700.647 9  22968887.243          55.250    92486239.378 8
  22968889.029          53.500    91310580.717 9  22968889.853          55.000
 110641966.631 7  86054916.225 7  20712405.651    20712410.413
        47.000          43.500    20712409.849


 111021078.863 8  86349735.808 8  20739668.142    20739672.448
        51.500          49.250    20739672.425


 117607463.148 7                  22039592.713
        43.250


 130224977.037 6                  24780984.461
        37.000                                    97245951.842 6  24780984.528
        39.000   105702100.480 6  24780981.268          40.750    99782789.788 6
  24780982.169          40.000    98514371.388 7  24780983.069          42.500
 132884477.716 6 103546371.04043  25287073.589    25287075.462    25287073.326
        37.000          18.750


 113026341.378 8  87909370.637 7  21173634.540    21173640.664
        50.000          47.250    21173640.338


 129755678.521 6 101108318.806 5  24691685.880    24691685.799    24691685.876
        39.750          31.000    24691685.790


 130485227.589 6                  24830507.234
        37.500                                    97440298.955 6  24830506.992
        37.000   105913353.850 7  24830504.788          42.750    99982211.566 6
  24830504.978          38.750    98711261.335 6  24830505.694          41.000
 125148560.409 7  97337759.704 6  23386993.230    23386998.133
        43.500          41.250    23386997.797


 19  3 26 19 23  0.0000000  0 29R10G08E03G23E05E02G28G09G30G27R08G16
                                R15G07E24G11E08R19R09E25R16R07R06E12
                                G18R18G05E11R17
 125582540.504 6  97675331.359 5  23558961.496    23558968.678
        40.750          32.000    23558968.839


 110945508.480 8  86451078.785 7  21112218.650    21112219.365    21112218.391
        49.500          46.500    21112220.425    82848955.771 8  21112218.734
        51.000

 128766607.385 7                  24503475.056
        47.750                                    96156923.346 8  24503478.137
        48.250   104518383.846 8  24503474.650          52.000    98665352.747 8
  24503475.997          50.750    97411143.620 8  24503476.835          52.750
 121584049.756 7  94740807.47244  23136677.367    23136674.411    23136676.934
        42.750          27.500


 138643570.446 6                  26382995.426
        41.250                                   103532548.996 6  26382999.482
        41.500   112535358.756 7  26382994.761          45.000   106233387.555 7
  26382997.562          44.500   104882972.350 7  26382998.260          46.250
 135053794.092 7                  25699875.466
        43.750                                   100851888.042 7  25699877.966
        44.250   109621601.640 7  25699875.954          47.500   103482794.871 7
  25699875.705          46.750   102167348.531 8  25699876.623          48.500
 118388168.046 7  92250526.24245  22528513.428    22528511.769    22528512.749
        44.250          30.250


 110686373.066 8  86249131.088 7  21062913.795    21062914.165    21062913.612
        49.000          47.000    21062914.774    82655416.461 8  21062914.853
        51.000

 113278378.842 8  88268884.373 7  21556150.299    21556150.876    21556149.915
        48.000          45.250    21556151.479    84591021.939 8  21556151.273
        50.500

 118792495.866 7  92565605.714 7  22605451.489    22605451.891    22605451.118
        45.000          42.250    22605452.450    88708709.513 7  22605451.921
        45.750

 121766483.149 7  94707287.974 7  22739032.348    22739037.317
        43.500          43.250    22739036.977


 132021431.654 6 102873844.48642  25122842.695    25122840.965    25122841.859
        38.750          14.000


 131305302.548 7 102126396.622 7  24572001.720    24572009.547
        44.000          42.500    24572009.971


 107699887.271 8  83921993.964 7  20494599.728    20494597.371    20494599.541
        52.000          47.500    20494597.867


 125097858.322 7                  23805334.570
        44.250                                    93417293.344 7  23805348.128
        44.500   101540448.720 8  23805327.148          48.000    95854259.595 7
  23805345.966          47.000    94635776.543 8  23805346.759          49.000
 126835359.302 6  98832756.76843  24135958.902    24135957.864    24135958.451
        40.000          23.750


 127575254.390 7                  24276762.134
        42.000                                    95267248.861 7  24276763.448
        42.250   103551350.325 7  24276763.847          46.500    97752471.299 7
  24276761.429          44.750    96509859.654 7  24276762.159          46.500
 117512732.569 7  91398766.357 7  21967755.973    21967758.477
        43.500          42.250    21967759.264


 109186483.960 8  84922858.552 8  20447114.296    20447118.454
        51.750          50.250    20447118.333


 120707032.919 8                  22969780.678
        49.750                                    90138407.569 8  22969783.173
        50.750    97976505.714 9  22969779.363          55.000    92489831.364 8
  22969781.100          53.250    91314127.040 9  22969781.897          55.250
 110693972.864 7  86095365.507 7  20722141.504    20722145.944
        47.000          43.250    20722145.095


 111048008.006 8  86370680.671 8  20744698.931    20744703.111
        51.500          49.250    20744703.022


 117726210.440 7                  22061846.615
        43.250


 130214187.374 6                  24778931.087
        37.250                                    97237894.622 6  24778931.230
        39.000   105693342.633 6  24778928.162          40.500    99774522.386 6
  24778929.023          40.000    98506209.079 7  24778929.851          42.500
 132796626.424 5 103477915.62042  25270355.534    25270357.680    25270355.320
        34.000          16.250


 113013679.114 8  87899522.217 7  21171262.482    21171268.498
        50.000          47.250    21171268.364


 129775400.109 6 101123686.211 5  24695439.162    24695438.138    24695439.145
        40.000          30.250    24695438.840


 130411646.698 6                  24816505.273
        38.000                                    97385352.233 6  24816504.947
        37.250   105853629.140 7  24816502.658          42.500    99925831.445 6
  24816502.986          38.750    98655597.912 6  24816503.658          41.000
 125232187.763 7  97402803.197 6  23402620.960    23402626.175
        42.750          41.750    23402626.131


 19  3 26 19 23 30.0000000  0 29R10G08E03G23E05E02G28G09G30G27R08G16
                                R15G07E24G11E08R19R09E25R16R07R06E12
                                G18R18G05E11R17
 125500504.678 6  97611525.824 5  23543571.200    23543578.696
        39.500          32.500    23543578.144


 110955268.567 8  86458684.066 7  21114075.859    21114076.632    21114075.600
        49.250          47.000    21114077.504    82856244.156 8  21114076.068
        51.000

 128803232.671 7                  24510444.807
        47.750                                    96184273.407 8  24510447.767
        48.250   104548112.181 8  24510444.231          52.000    98693416.295 8
  24510445.552          50.750    97438850.462 8  24510446.424          52.500
 121690682.207 7  94823897.62744  23156968.869    23156966.136    23156968.440
        42.250          26.500


 138734073.670 6                  26400217.336
        41.000                                   103600132.542 6  26400221.795
        41.000   112608819.116 7  26400216.969          45.250   106302734.130 7
  26400219.547          44.250   104951437.463 7  26400220.462          45.750
 135003192.400 7                  25690246.344
        44.000                                   100814101.109 7  25690248.805
        44.250   109580528.874 7  25690246.963          47.750   103444022.192 7
  25690246.505          46.750   102129068.733 8  25690247.463          48.500
 118320244.795 7  92197599.07645  22515588.041    22515586.288    22515587.357
        44.000          30.500


 110757855.872 8  86304831.951 7  21076516.479    21076516.948    21076516.296
        49.000          47.250    21076517.350    82708796.448 8  21076517.560
        51.000

 113215334.741 8  88219759.136 7  21544153.529    21544153.923    21544153.145
        48.000          45.750    21544154.721    84543943.594 8  21544154.354
        50.500

 118863385.497 7  92620844.389 7  22618941.350    22618941.636    22618940.975
        45.250          42.250    22618941.974    88761646.572 7  22618941.810
        46.000

 121689745.089 7  94647602.830 7  22724701.892    22724706.713
        43.000          43.250    22724706.489


 132126026.314 6 102955346.82242  25142746.538    25142744.540    25142745.689
        38.250          16.000


 131391039.066 7 102193080.585 6  24588047.513    24588054.114
        44.250          41.000    24588054.186


 107682497.242 8  83908443.303 7  20491290.555    20491288.131    20491290.368
        52.000          47.750    20491288.551


 125153876.645 7                  23815994.800
        44.250                                    93459125.203 7  23816008.055
        44.250   101585918.132 8  23815987.068          48.000    95897182.717 7
  23816005.922          47.000    94678153.985 8  23816006.693          48.750
 126742516.331 6  98760411.65744  24118291.723    24118290.362    24118291.263
        40.250          24.000


 127532613.839 7                  24268647.816
        42.000                                    95235406.926 7  24268649.261
        42.250   103516739.532 7  24268649.513          46.500    97719798.715 7
  24268647.147          44.750    96477602.372 7  24268647.948          46.500
 117402825.713 7  91313283.294 7  21947209.496    21947212.582
        43.500          42.000    21947213.283


 109145482.762 8  84890968.757 8  20439435.910    20439440.131
        51.250          50.000    20439440.038


 120711856.486 8                  22970698.575
        49.750                                    90142009.603 8  22970701.107
        50.750    97980420.958 9  22970697.179          55.000    92493527.353 8
  22970698.938          53.500    91317776.173 9  22970699.794          55.250
 110746156.217 7  86135952.574 7  20731910.477    20731914.799
        47.000          43.250    20731914.265


 111075728.409 8  86392240.966 8  20749877.156    20749881.562
        51.000          49.000    20749881.572


 117845227.740 7                  22084149.198
        42.750


 130203821.645 6                  24776958.616
        37.500                                    97230154.001 6  24776958.908
        38.750   105684928.887 6  24776955.537          40.500    99766579.832 6
  24776956.446          40.000    98498367.476 7  24776957.322          42.500
 132708770.459 5 103409456.57042  25253638.389    25253638.906    25253638.193
        34.500          16.250


 113001831.414 8  87890307.370 7  21169042.992    21169049.190
        49.500          47.250    21169048.783


 129795601.513 6 101139427.568 5  24699283.403    24699282.479    24699283.372
        40.000          33.000    24699284.498


 130338246.966 6                  24802537.906
        38.000                                    97330540.797 6  24802537.513
        37.000   105794051.482 7  24802535.189          42.750    99869590.124 6
  24802535.565          39.000    98600071.404 6  24802536.107          41.000
 125316387.029 7  97468291.472 6  23418355.112    23418360.599
        42.250          41.000    23418360.872


 19  3 26 19 24  0.0000000  0 29R10G08E03G23E05E02G28G09G30G27R08G16
                                R15G07E24G11E08R19R09E25R16R07R06E12
                                G18R18G05E11R17
 125418522.217 6  97547761.765 5  23528190.825    23528199.219
        38.750          32.500    23528198.700


 110965645.956 8  86466770.350 7  21116050.693    21116051.524    21116050.430
        49.000          47.000    21116052.365    82863993.517 8  21116050.844
        51.000

 128840244.800 7                  24517487.845
        47.500                                    96211912.293 8  24517490.917
        48.250   104578154.458 8  24517487.452          52.000    98721776.194 8
  24517488.764          50.750    97466849.817 8  24517489.614          52.500
 121797519.668 7  94907147.53144  23177299.356    23177296.565    23177298.923
        42.250          26.250


 138824662.819 6                  26417455.985
        40.750                                   103667780.195 6  26417460.305
        41.000   112682349.225 7  26417455.610          45.250   106372146.524 7
  26417458.089          43.750   105019967.433 7  26417458.984          45.500
 134952693.421 7                  25680636.775
        43.750                                   100776390.845 7  25680639.167
        44.500   109539539.454 7  25680637.258          47.750   103405328.179 7
  25680636.915          46.750   102090866.585 8  25680637.802          48.750
 118252594.056 7  92144884.25645  22502714.525    22502712.656    22502713.846
        44.000          30.500


 110829788.717 8  86360883.514 7  21090204.874    21090205.428    21090204.691
        48.750          47.250    21090205.857    82762512.524 8  21090206.004
        50.750

 113152465.196 8  88170769.887 7  21532189.940    21532190.177    21532189.556
        48.000          45.500    21532191.008    84496995.559 8  21532190.659
        50.250

 118934755.569 7  92676457.411 7  22632522.810    22632522.747    22632522.439
        44.750          42.000    22632523.167    88814942.384 7  22632523.140
        45.750

 121613622.226 7  94588396.207 7  22710487.108    22710491.700
        43.500          43.250    22710491.338


 132230562.481 6 103036803.54842  25162639.524    25162637.591    25162638.684
        38.000          16.750


 131476759.633 7 102259752.101 6  24604089.806    24604095.799
        44.500          40.500    24604095.258


 107665393.027 8  83895115.344 7  20488035.693    20488033.309    20488035.510
        51.750          47.750    20488033.859


 125209925.574 7                  23826660.440
        44.000                                    93500979.904 7  23826673.846
        44.250   101631412.376 8  23826652.870          48.000    95940129.286 7
  23826671.625          46.750    94720554.669 8  23826672.463          48.500
 126649760.569 6  98688134.49843  24100640.363    24100639.594    24100639.912
        39.500          23.500


 127490341.678 7                  24260603.830
        42.000                                    95203840.022 7  24260605.024
        42.250   103482427.678 7  24260605.315          46.750    97687408.319 7
  24260603.045          44.750    96445623.743 7  24260603.864          46.500
 117293287.263 7  91228086.798 7  21926731.772    21926735.519
        43.250          42.250    21926735.827


 109104691.832 8  84859242.511 8  20431797.270    20431801.267
        51.250          50.000    20431801.232


 120716813.960 8                  22971641.954
        49.750                                    90145711.610 8  22971644.561
        50.750    97984444.884 9  22971640.528          55.250    92497325.941 8
  22971642.251          53.250    91321526.349 9  22971643.164          55.000
 110798514.564 7  86176675.742 7  20741711.984    20741716.344
        47.000          43.250    20741715.463


 111104236.781 8  86414414.148 8  20755203.036    20755207.257
        51.500          49.250    20755207.234


 117964509.224 7                  22106503.053
        42.750


 130193878.937 6                  24775066.806
        37.750                                    97222729.266 6  24775066.627
        39.000   105676858.530 6  24775063.256          40.500    99758961.392 6
  24775064.555          40.000    98490845.902 7  24775065.253          42.500
 132620911.512 5 103340995.20342  25236919.204    25236919.606    25236918.968
        33.500          15.000


 112990797.891 8  87881725.761 7  21166975.877    21166982.212
        49.750          47.250    21166982.131


 129816279.948 6 101155540.584 5  24703218.066    24703217.998    24703218.035
        39.500          32.250    24703218.678


 130265029.064 6                  24788604.811
        37.750                                    97275865.085 6  24788604.574
        37.000   105734621.360 7  24788602.258          42.750    99813488.102 6
  24788602.443          39.000    98544682.664 6  24788603.151          41.000
 125401153.395 7  97534220.845 6  23434196.832    23434201.006
        43.000          40.500    23434201.270


 19  3 26 19 24 30.0000000  0 29R10G08E03G23E05E02G28G09G30G27R08G16
                                R15G07E24G11E08R19R09E25R16R07R06E12
                                G18R18G05E11R17
 125336594.950 6  97484040.680 5  23512821.436    23512829.866
        39.000          33.000    23512830.765


 110976642.177 8  86475338.834 7  21118143.177    21118143.932    21118142.918
        49.000          46.750    21118144.797    82872204.984 8  21118143.271
        51.000

 128877645.327 8                  24524604.934
        48.000                                    96239841.240 8  24524607.989
        48.500   104608512.017 8  24524604.481          52.000    98750433.724 8
  24524605.867          50.500    97495143.113 8  24524606.705          52.500
 121904561.692 7  94990556.83344  23197668.875    23197665.932    23197668.460
        42.250          26.000


 138915338.504 6                  26434711.162
        40.500                                   103735492.499 6  26434715.390
        41.000   112755949.571 7  26434710.749          45.750   106441625.227 7
  26434713.067          43.250   105088562.991 7  26434714.016          45.250
 134902299.325 7                  25671047.068
        43.750                                   100738758.921 7  25671049.537
        44.500   109498635.177 8  25671047.567          48.000   103366714.567 7
  25671047.147          46.750   102052743.832 8  25671048.098          48.750
 118185218.415 7  92092383.79345  22489893.348    22489891.746    22489892.664
        43.500          30.500


 110902172.047 8  86417286.080 7  21103978.959    21103979.531    21103978.776
        48.500          47.000    21103980.049    82816564.983 8  21103979.986
        50.500

 113089773.946 7  88121919.558 7  21520260.226    21520260.382    21520259.837
        47.750          45.250    21520261.298    84450180.675 8  21520260.860
        50.500

 119006606.043 7  92732444.785 6  22646195.600    22646195.448    22646195.234
        44.750          41.750    22646196.204    88868596.939 7  22646195.813
        45.750

 121538120.411 7  94529672.576 7  22696388.307    22696392.084
        43.750          43.750    22696392.104


 132335041.194 6 103118215.48742  25182521.129    25182519.540    25182520.280
        36.500          16.500


 131562467.065 7 102326413.380 6  24620129.177    24620134.195
        43.500          39.250    24620133.321


 107648578.284 8  83882012.952 7  20484836.073    20484833.550    20484835.890
        51.750          47.500    20484834.131


 125266007.307 7                  23837332.599
        44.000                                    93542859.106 7  23837345.814
        44.500   101676933.259 8  23837324.668          48.000    95983101.001 7
  23837343.675          46.500    94762980.078 8  23837344.472          48.750
 126557097.914 6  98615929.88143  24083007.706    24083006.283    24083007.264
        39.250          23.500


 127448441.612 6                  24252630.347
        41.750                                    95172551.026 7  24252632.106
        42.500   103448417.906 7  24252632.165          47.000    97655303.076 7
  24252629.654          44.750    96413926.632 7  24252630.547          46.500
 117184124.549 7  91143182.486 7  21906324.905    21906328.516
        43.250          42.500    21906329.004


 109064114.029 8  84827681.998 8  20424198.197    20424202.426
        51.000          50.250    20424202.120


 120721907.352 8                  22972611.203
        49.750                                    90149515.119 8  22972613.762
        50.750    97988579.128 9  22972609.782          55.250    92501228.669 8
  22972611.519          53.250    91325379.589 9  22972612.397          55.250
 110851050.336 7  86217536.886 7  20751546.919    20751551.273
        46.750          43.500    20751550.713


 111133534.003 8  86437200.844 8  20760675.990    20760680.194
        51.250          49.250    20760680.355


 118084052.608 7                  22128905.568
        42.750


 130184362.360 6                  24773255.735
        37.250                                    97215622.735 6  24773255.558
        39.000   105669134.041 6  24773252.366          41.000    99751669.483 6
  24773253.450          40.000    98483646.678 7  24773254.286          42.500
 132533054.940 5 103272535.68642  25220200.747    25220201.207    25220200.515
        31.750          13.250


 112980582.033 8  87873780.080 7  21165062.292    21165068.353
        49.750          47.250    21165068.172


 129837436.672 6 101172026.338 5  24707244.729    24707243.647    24707244.676
        40.500          32.750    24707244.280


 130191997.609 6                  24774707.399
        38.000                                    97221328.619 6  24774706.939
        37.250   105675342.598 7  24774704.873          43.000    99757528.947 6
  24774705.092          39.250    98489434.738 6  24774705.710          41.250
 125486485.908 7  97600590.516 6  23450143.941    23450147.310
        42.750          40.000    23450147.208


 19  3 26 19 25  0.0000000  0 29R10G08E03G23E05E02G28G09G30G27R08G16
                                R15G07E24G11E08R19R09E25R16R07R06E12
                                G18R18G05E11R17
 125254722.292 7  97420361.965 5  23497464.337    23497471.040
        42.000          34.750    23497471.219


 110988255.677 8  86484388.332 7  21120353.015    21120353.752    21120352.756
        49.250          46.500    21120354.915    82880877.413 8  21120353.228
        51.000

 128915431.852 7                  24531795.544
        47.750                                    96268058.438 8  24531798.545
        48.250   104639182.881 8  24531794.968          51.750    98779387.023 8
  24531796.445          50.500    97523728.304 8  24531797.242          52.500
 122011804.203 7  95074122.36644  23218076.661    23218073.664    23218076.228
        42.750          26.000


 139006097.521 6                  26451982.024
        40.500                                   103803267.037 6  26451986.456
        41.000   112829617.553 7  26451981.815          45.750   106511167.821 7
  26451984.026          42.750   105157221.503 7  26451984.943          45.000
 134852008.539 7                  25661476.929
        43.750                                   100701204.149 7  25661479.366
        44.500   109457814.754 7  25661477.524          47.750   103328180.087 7
  25661477.235          46.750   102014699.191 8  25661478.046          48.750
 118118116.765 7  92040096.83845  22477124.222    22477122.728    22477123.543
        44.000          30.500


 110975002.393 8  86474036.985 7  21117838.258    21117838.643    21117838.071
        49.000          46.750    21117839.134    82870951.260 8  21117839.196
        50.750

 113027260.817 8  88073208.054 7  21508364.216    21508364.560    21508363.827
        48.000          45.250    21508365.208    84403498.817 8  21508364.993
        50.500

 119078932.937 7  92788803.395 6  22659958.732    22659958.879    22659958.361
        45.000          41.500    22659959.640    88922607.272 7  22659959.080
        46.000

 121463241.514 7  94471433.468 7  22682404.759    22682408.962
        44.000          43.500    22682408.828


 132439459.664 6 103199580.51142  25202391.477    25202389.984    25202390.646
        36.000          15.750


 131648160.108 7 102393063.492 6  24636166.130    24636170.853
        43.000          38.750    24636170.540


 107632052.617 8  83869135.801 7  20481691.311    20481688.802    20481691.128
        52.250          47.500    20481689.280


 125322120.237 7                  23848010.275
        44.000                                    93584761.605 7  23848023.713
        44.250   101722479.454 7  23848002.791          47.750    96026096.600 7
  23848021.577          46.500    94805429.177 8  23848022.419          48.500
 126464528.738 6  98543798.11143  24065391.910    24065390.739    24065391.472
        39.750          23.000


 127406913.426 7                  24244727.916
        42.000                                    95141539.716 7  24244729.311
        42.500   103414709.952 7  24244729.477          46.750    97623482.793 7
  24244727.198          44.750    96382510.828 7  24244727.964          46.750
 117075340.791 7  91058572.923 7  21885989.232    21885992.706
        43.500          42.500    21885993.024


 109023747.917 8  84796286.156 8  20416638.945    20416642.992
        51.250          50.250    20416642.772


 120727134.829 8                  22973605.950
        49.750                                    90153418.766 8  22973608.490
        50.750    97992822.219 9  22973604.542          55.250    92505234.153 8
  22973606.310          53.250    91329334.033 9  22973607.152          55.000
 110903761.720 7  86258534.607 7  20761414.223    20761418.914
        46.750          43.250    20761418.082


 111163616.636 8  86460598.423 8  20766295.557    20766299.844
        51.250          49.000    20766299.844


 118203852.110 7                  22151355.879
        42.750


 130175271.002 6                  24771525.724
        37.750                                    97208833.759 6  24771525.738
        39.000   105661754.710 6  24771522.733          40.500    99744703.388 6
  24771523.388          40.000    98476769.146 7  24771524.274          42.500
 132445202.571 4 103204079.41341  25203480.995    25203483.275    25203480.687
        29.000          11.750


 112971183.350 8  87866470.019 7  21163301.870    21163307.605
        49.750          47.500    21163307.341


 129859068.307 6 101188882.124 5  24711360.452    24711360.555    24711360.403
        40.250          32.500    24711361.168


 130119153.288 6                  24760845.427
        38.000                                    97166931.916 6  24760845.141
        37.000   105616215.740 7  24760843.129          43.000    99701713.203 6
  24760843.341          39.500    98434328.634 6  24760843.928          41.500
 125572379.738 7  97667396.784 6  23466193.532    23466198.555
        42.000          39.250    23466198.814


 19  3 26 19 25 30.0000000  0 29R10G08E03G23E05E02G28G09G30G27R08G16
                                R15G07E24G11E08R19R09E25R16R07R06E12
                                G18R18G05E11R17
 125172904.422 6  97356725.914 5  23482115.128    23482122.417
        41.500          35.000    23482122.820


 111000486.377 8  86493918.751 7  21122680.518    21122681.282    21122680.259
        49.750          47.000    21122682.306    82890010.736 8  21122680.718
        50.750

 128953604.038 8                  24539059.433
        48.250                                    96296563.629 8  24539062.505
        48.250   104670166.789 8  24539058.973          52.000    98808635.829 8
  24539060.249          50.750    97552605.303 8  24539061.193          52.500
 122119245.360 7  95157842.68644  23238522.052    23238519.226    23238521.637
        43.250          26.250


 139096938.730 6                  26469268.595
        41.000                                   103871102.934 6  26469272.942
        41.250   112903352.232 7  26469268.354          46.000   106580773.345 7
  26469270.274          42.750   105225942.213 7  26469271.563          45.000
 134801821.442 7                  25651926.668
        44.250                                   100663726.797 7  25651929.118
        44.750   109417078.489 8  25651927.326          48.000   103289725.062 7
  25651926.858          47.000   101976733.003 8  25651927.731          49.000
 118051290.482 7  91988024.45545  22464407.533    22464405.824    22464406.854
        44.250          30.750


 111048278.283 8  86531135.058 7  21131782.000    21131782.500    21131781.813
        49.000          47.000    21131782.988    82925670.244 8  21131783.224
        50.500

 112964927.678 8  88024636.781 7  21496502.617    21496502.930    21496502.224
        48.500          45.750    21496503.860    84356951.354 8  21496503.448
        50.500

 119151734.382 7  92845531.770 6  22673812.281    22673812.535    22673811.906
        45.250          41.750    22673813.215    88976971.967 7  22673812.865
        45.750

 121388988.907 7  94413681.455 7  22668537.771    22668542.882
        44.250          44.000    22668542.931


 132543817.710 5 103280898.40142  25222249.920    25222248.703    25222249.142
        34.250          15.000


 131733839.498 6 102459702.989 6  24652197.253    24652204.578
        40.750          37.500    24652203.595


 107615818.264 8  83856485.662 8  20478601.985    20478599.489    20478601.798
        52.500          48.000    20478600.004


 125378264.726 7                  23858694.410
        44.500                                    93626687.665 7  23858707.598
        44.250   101768051.265 7  23858686.613          47.750    96069116.389 7
  23858705.538          46.750    94847902.101 8  23858706.389          48.500
 126372057.548 6  98471742.69443  24047795.063    24047793.945    24047794.639
        39.750          23.250


 127365758.869 7                  24236896.224
        42.500                                    95110807.429 7  24236897.981
        42.750   103381305.285 7  24236898.178          47.000    97591948.782 7
  24236895.627          45.000    96351377.678 7  24236896.509          47.000
 116966941.454 7  90974262.364 7  21865724.824    21865728.468
        43.500          42.500    21865728.691


 108983594.147 8  84765055.454 8  20409119.529    20409123.473
        51.750          50.500    20409123.348


 120732496.608 8                  22974626.225
        50.250                                    90157422.683 8  22974628.805
        50.750    97997174.306 9  22974624.843          55.250    92509342.524 8
  22974626.634          53.500    91333390.177 9  22974627.471          55.250
 110956648.919 7  86299669.087 7  20771314.697    20771319.432
        46.750          43.500    20771318.592


 111194483.497 8  86484605.957 8  20772061.741    20772066.092
        51.500          49.250    20772065.971


 118323903.832 7                  22173853.204
        42.250


 130166606.056 6                  24769876.484
        38.250                                    97202363.175 6  24769876.860
        39.000   105654721.461 6  24769873.654          40.750    99738064.023 6
  24769874.653          40.250    98470214.172 7  24769875.378          42.500
 132357358.066 5 103135629.29942  25186766.859    25186767.239    25186766.618
        30.500          12.000


 112962603.335 8  87859796.681 7  21161694.219    21161700.290
        50.000          47.500    21161700.013


 129881174.173 6 101206107.443 5  24715567.235    24715566.909    24715567.191
        40.750          32.500    24715566.922


 130046498.913 6                  24747019.986
        38.500                                    97112677.027 6  24747019.387
        37.250   105557243.051 7  24747017.379          43.000    99646042.984 6
  24747017.725          40.250    98379366.081 7  24747018.303          42.000
 125658831.830 7  97734637.281 6  23482350.216    23482354.931
        42.750          38.500    23482354.716


 19  3 26 19 26  0.0000000  0 29R10G08E03G23E05E02G28G09G30G27R08G16
                                R15G07E24G11E08R19R09E25R16R07R06E12
                                G18R18G05E11R17
 125091136.186 7  97293128.456 5  23466775.213    23466783.266
        42.000          35.750    23466784.098


 111013328.435 8  86503925.563 7  21125124.297    21125125.165    21125124.038
        49.250          46.750    21125126.041    82899600.597 8  21125124.444
        50.750

 128992155.786 7                  24546395.628
        47.750                                    96325352.262 8  24546398.634
        48.000   104701458.783 8  24546395.133          51.750    98838175.470 8
  24546396.431          50.500    97581769.439 8  24546397.349          52.250
 122226877.746 7  95241712.02644  23259004.238    23259001.027    23259003.832
        43.250          26.250


 139187855.180 6                  26486569.583
        40.500                                   103938995.032 6  26486573.899
        41.000   112977148.012 7  26486569.106          45.250   106650436.562 7
  26486571.518          42.750   105294719.871 7  26486572.449          45.000
 134751732.690 7                  25642395.095
        43.500                                   100626322.900 7  25642397.510
        44.500   109376422.061 7  25642395.484          47.750   103251345.407 7
  25642395.271          47.000   101938841.228 8  25642396.131          48.750
 117984734.519 7  91936162.70545  22451742.470    22451740.623    22451741.791
        44.000          30.750


 111121992.529 8  86588574.716 7  21145809.469    21145809.884    21145809.282
        48.750          46.750    21145810.515    82980716.582 8  21145810.599
        50.750

 112902770.657 7  87976202.766 7  21484674.356    21484674.901    21484673.967
        47.750          45.250    21484675.541    84310535.421 8  21484675.410
        50.500

 119225002.694 7  92902623.975 6  22687754.794    22687755.057    22687754.419
        44.750          41.500    22687755.732    89031685.312 7  22687755.427
        45.750

 121315360.961 7  94356415.303 7  22654788.575    22654793.034
        44.000          43.000    22654793.463


 132648108.848 5 103362158.16742  25242095.691    25242094.327    25242095.101
        31.500          13.500


 131819500.565 6 102526328.201 6  24668229.253    24668234.799
        40.750          36.750    24668234.629


 107599870.986 8  83844059.211 7  20475567.268    20475564.853    20475567.081
        52.000          47.750    20475565.152


 125434435.456 7                  23869383.251
        43.750                                    93668633.327 7  23869396.626
        44.000   101813644.386 7  23869375.619          47.500    96112156.291 7
  23869394.477          46.500    94890394.883 8  23869395.341          48.250
 126279682.493 6  98399762.19943  24030217.064    24030215.499    24030216.649
        39.750          23.250


 127324973.999 6                  24229135.211
        41.750                                    95080351.199 7  24229136.638
        42.250   103348200.694 7  24229136.924          46.750    97560698.048 7
  24229134.717          45.000    96320524.198 7  24229135.389          46.750
 116858925.999 7  90890250.385 7  21845532.907    21845535.942
        43.500          42.250    21845536.403


 108943647.539 8  84733985.879 8  20401638.566    20401642.858
        51.250          50.750    20401642.666


 120737987.149 8                  22975670.978
        49.500                                    90161522.777 8  22975673.567
        50.500    98001630.924 9  22975669.664          55.000    92513549.571 8
  22975671.450          53.250    91337543.747 9  22975672.278          55.000
 111009706.488 7  86340936.071 7  20781247.462    20781252.041
        46.750          43.000    20781251.285


 111226127.865 8  86509218.223 8  20777973.219    20777977.668
        51.500          49.000    20777977.458


 118444197.921 7                  22196396.231
        42.000


 130158362.908 6                  24768308.105
        37.500                                    97196207.575 6  24768308.240
        39.000   105648030.598 6  24768304.730          40.500    99731747.847 6
  24768305.760          40.000    98463978.284 7  24768306.785          42.500
 132269519.560 4 103067183.84041  25170050.153    25170051.919    25170049.733
        29.250          10.750


 112954837.766 8  87853756.807 7  21160239.598    21160245.606
        50.000          47.500    21160245.561


 129903747.482 6 101223697.040 5  24719863.108    24719862.669    24719863.055
        41.000          33.250    24719862.897


 129974031.445 6                  24733229.818
        38.000                                    97058561.777 6  24733229.648
        37.500   105498422.084 7  24733227.109          42.750    99590515.998 6
  24733227.575          40.250    98324544.960 7  24733228.247          42.000
 125745833.674 6  97802305.361 6  23498608.555    23498612.912
        41.750          37.750    23498613.587


 19  3 26 19 26 30.0000000  0 28R10G08E03G23E05E02G28G09G30G27R08G16
                                G07E24G11E08R19R09E25R16R07R06E12G18
                                R18G05E11R17
 125009426.353 7  97229576.515 5  23451446.401    23451453.994
        42.500          34.750    23451454.894


 111026790.398 8  86514415.409 7  21127686.032    21127686.746    21127685.778
        49.250          46.500    21127687.541    82909653.370 8  21127686.189
        50.500

 129031095.152 8                  24553805.587
        48.000                                    96354430.361 8  24553808.571
        48.000   104733065.428 8  24553805.136          51.750    98868012.122 8
  24553806.367          50.500    97611226.868 8  24553807.272          52.250
 122334707.778 7  95325735.35944  23279523.146    23279520.436    23279522.735
        43.250          27.250


 139278854.161 6                  26503886.013
        41.000                                   104006948.746 6  26503890.626
        41.250   113051010.776 7  26503885.649          44.750   106720163.005 7
  26503888.075          42.750   105363560.013 7  26503889.071          45.000
 134701751.156 7                  25632883.777
        44.250                                   100588999.062 7  25632886.315
        44.750   109335852.668 7  25632884.366          47.750   103213047.899 7
  25632883.951          46.750   101901030.571 8  25632884.932          48.750
 117918457.912 7  91884518.63545  22439130.179    22439128.541    22439129.500
        44.000          31.250


 111196152.095 8  86646361.369 7  21159921.707    21159922.086    21159921.520
        48.750          46.500    21159922.525    83036095.454 8  21159922.738
        50.250

 112840800.096 8  87927914.050 7  21472881.960    21472882.277    21472881.576
        48.250          45.500    21472883.081    84264258.735 8  21472882.740
        50.250

 119298744.406 7  92960085.041 6  22701787.538    22701787.685    22701787.163
        45.000          41.250    22701788.184    89086752.154 7  22701788.001
        45.500

 121242369.725 7  94299644.350 7  22641158.686    22641162.637
        43.750          43.250    22641162.175


 132752342.256 5 103443375.16342  25261930.198    25261928.990    25261929.604
        30.500          12.250


 107584221.062 8  83831864.464 7  20472589.079    20472586.785    20472588.892
        52.000          47.500    20472587.259


 125490641.282 7                  23880079.039
        44.250                                    93710605.191 7  23880092.300
        44.000   101859265.981 7  23880071.200          47.500    96155223.072 7
  23880090.054          46.250    94932914.166 8  23880090.963          48.250
 126187415.448 6  98327865.85944  24012659.315    24012657.597    24012658.891
        40.000          24.000


 127284569.030 7                  24221446.536
        42.250                                    95050178.700 7  24221447.914
        42.250   103315404.487 7  24221448.247          46.750    97529738.442 7
  24221445.662          44.750    96289958.140 7  24221446.619          46.500
 116751308.376 7  90806547.839 6  21825415.195    21825418.005
        43.250          41.750    21825418.179


 108903917.513 8  84703084.780 8  20394198.538    20394202.662
        51.000          50.250    20394202.590


 120743615.119 8                  22976742.070
        50.000                                    90165725.496 8  22976744.603
        50.500    98006199.095 9  22976740.651          55.000    92517861.926 8
  22976742.352          53.000    91341801.414 9  22976743.234          55.000
 111062943.414 7  86382342.567 7  20791213.865    20791218.058
        46.750          43.000    20791217.748


 111258556.799 8  86534440.701 8  20784031.413    20784035.512
        51.500          48.750    20784035.520


 118564739.041 7                  22218986.347
        42.000


 130150551.119 6                  24766821.697
        38.000                                    97190374.132 6  24766821.638
        39.000   105641689.892 6  24766818.471          40.500    99725762.209 6
  24766819.385          39.750    98458068.752 7  24766820.277          42.250
 132181699.235 5 102998752.59642  25153338.391    25153339.889    25153337.962
        31.250          13.750


 112947896.558 8  87848358.129 7  21158939.285    21158945.228
        49.750          47.250    21158944.860


 129926796.028 6 101241656.900 5  24724248.804    24724248.892    24724248.755
        40.750          33.500    24724249.807


 129901762.166 6                  24719477.503
        38.500                                    97004594.464 6  24719477.279
        37.750   105439761.963 7  24719474.706          42.250    99535140.849 6
  24719475.158          40.250    98269873.613 7  24719475.840          42.000
 125833391.071 7  97870405.537 6  23514970.947    23514975.458
        42.000          38.000    23514975.301


 19  3 26 19 27  0.0000000  0 28R10G08E03G23E05E02G28G09G30G27R08G16
                                G07E24G11E08R19R09E25R16R07R06E12G18
                                R18G05E11R17
 124927769.469 7  97166065.652 5  23436127.010    23436135.117
        42.750          35.750    23436134.784


 111040866.578 8  86525383.854 7  21130364.781    21130365.280    21130364.522
        49.250          47.000    21130366.183    82920164.802 8  21130364.847
        51.000

 129070415.647 7                  24561288.044
        47.250                                    96383793.024 8  24561291.069
        48.250   104764981.372 8  24561287.540          51.750    98898140.782 8
  24561288.818          50.500    97640972.553 8  24561289.722          52.500
 122442727.237 7  95409906.30444  23300078.862    23300076.162    23300078.433
        43.000          26.750


 139369928.411 6                  26521216.970
        40.500                                   104074958.679 6  26521221.179
        41.250   113124934.632 7  26521216.665          44.750   106789947.087 7
  26521218.832          42.750   105432457.030 7  26521219.999          45.000
 134651871.125 7                  25623392.033
        43.500                                   100551751.017 7  25623394.415
        45.000   109295365.639 8  25623392.525          48.000   103174828.154 7
  25623392.112          47.000   101863296.690 8  25623393.044          49.000
 117852455.380 7  91833088.13445  22426570.210    22426568.902    22426569.535
        44.000          30.750


 111270749.449 8  86704489.140 7  21174116.996    21174117.549    21174116.813
        48.000          46.750    21174117.909    83091801.230 8  21174118.106
        50.500

 112779011.781 8  87879767.296 7  21461123.958    21461124.264    21461123.569
        48.000          45.750    21461125.135    84218118.103 8  21461124.763
        50.500

 119372951.422 7  93017908.673 6  22715908.690    22715908.799    22715908.324
        44.500          41.500    22715909.169    89142166.467 7  22715909.255
        45.750

 121170012.663 7  94243366.657 7  22627645.577    22627650.431
        44.000          43.000    22627650.129


                                  25281753.371
        30.000


 107568864.144 8  83819898.044 8  20469666.849    20469664.494    20469666.662
        51.750          48.000    20469665.067


 125546876.487 7                  23890780.148
        43.500                                    93752599.010 7  23890793.567
        44.250   101904911.438 7  23890772.603          47.750    96198312.374 7
  23890791.250          46.250    94975455.735 8  23890792.191          48.250
 126095253.528 6  98256051.42643  23995121.156    23995120.040    23995120.750
        40.500          23.500


 127244539.617 6                  24213829.154
        41.500                                    95020286.565 7  24213830.554
        42.500   103282913.043 7  24213830.722          46.750    97499066.506 7
  24213828.435          44.750    96259676.130 7  24213829.255          46.750
 116644087.810 7  90723154.094 7  21805371.236    21805374.150
        43.000          42.250    21805374.131


 108864398.607 8  84672347.854 8  20386798.039    20386802.021
        51.250          50.500    20386801.953


 120749374.656 8                  22977838.094
        49.250                                    90170026.422 8  22977840.585
        51.000    98010874.025 9  22977836.699          55.250    92522275.058 8
  22977838.329          53.250    91346158.454 9  22977839.247          55.250
 111116354.019 7  86423884.136 7  20801211.846    20801216.722
        46.500          43.000    20801216.028


 111291763.073 8  86560267.783 8  20790234.690    20790238.863
        51.500          48.750    20790238.723


 118685517.580 7                  22241620.228
        42.000


 130143165.745 6                  24765416.111
        37.000                                    97184859.082 6  24765416.177
        39.250   105635695.244 6  24765412.992          40.750    99720103.272 6
  24765413.883          39.750    98452481.766 7  24765414.847          42.500
 132093894.659 5 102930333.52242  25136629.768    25136631.080    25136629.433
        33.500          14.500


 112941774.949 8  87843596.877 7  21157792.595    21157798.349
        50.000          47.250    21157798.077


 129950312.517 6 101259981.345 5  24728724.249    24728723.535    24728724.205
        40.750          33.000    24728723.820


 129829687.528 6                  24705761.897
        38.000                                    96950772.515 6  24705761.692
        38.250   105381259.827 7  24705759.353          42.500    99479914.837 6
  24705759.779          40.500    98215349.660 7  24705760.471          42.250
 125921494.657 6  97938930.503 6  23531434.775    23531438.938
        41.000          37.000    23531439.682


 19  3 26 19 27 30.0000000  0 28R10G08E03G23E05E02G28G09G30G27R08G16
                                G07E24G11E08R19R09E25R16R07R06E12G18
                                R18G05E11R17
 124846165.515 7  97102595.865 6  23420819.202    23420826.504
        44.250          36.750    23420826.634


 111055555.402 8  86536829.720 7  21133159.885    21133160.571    21133159.626
        49.500          47.000    21133161.543    82931133.746 8  21133159.941
        51.000

 129110115.942 8                  24568842.793
        48.000                                    96413439.326 8  24568845.799
        48.000   104797205.624 8  24568842.390          52.000    98928560.473 8
  24568843.626          50.500    97671005.518 8  24568844.436          52.250
 122550933.491 7  95494222.80244  23320669.963    23320667.143    23320669.534
        42.750          26.750


 139461075.797 6                  26538561.809
        41.250                                   104143023.221 6  26538566.049
        41.000   113198917.849 7  26538561.389          44.750   106859787.247 7
  26538563.845          42.750   105501409.354 7  26538564.819          45.000
 134602092.033 7                  25613919.277
        44.250                                   100514578.360 7  25613921.734
        45.000   109254960.572 8  25613919.782          48.000   103136685.782 7
  25613919.358          46.750   101825639.147 8  25613920.374          49.000
 117786727.071 7  91781871.31345  22414062.720    22414061.160    22414062.041
        44.500          31.250


 111345781.992 8  86762956.044 7  21188395.057    21188395.679    21188394.870
        48.500          46.750    21188396.189    83147832.004 8  21188396.340
        50.750

 112717406.657 8  87831763.327 7  21449400.720    21449401.163    21449400.331
        48.250          45.750    21449401.923    84172114.291 8  21449401.651
        50.750

 119447620.855 7  93076092.634 6  22730117.429    22730117.822    22730117.058
        44.500          41.500    22730118.546    89197926.096 7  22730118.194
        45.750

 121098292.220 7  94187584.128 7  22614253.267    22614257.274
        44.250          43.500    22614257.112


                                  25301560.009
        30.500


 107553801.319 8  83808160.761 8  20466800.527    20466798.167    20466800.340
        52.500          48.000    20466798.559


 125603140.556 7                  23901486.683
        44.250                                    93794614.364 7  23901500.097
        44.000   101950580.312 7  23901479.189          47.750    96241423.797 7
  23901498.018          46.250    95018019.096 8  23901498.891          48.250
 126003199.645 6  98184321.19244  23977603.822    23977602.571    23977603.393
        41.000          24.500


 127204886.516 7                  24206283.403
        42.500                                    94990675.491 7  24206284.916
        42.750   103250727.100 7  24206285.101          47.000    97468682.981 7
  24206282.543          45.000    96229678.803 7  24206283.494          46.750
 116537268.621 7  90640072.581 7  21785402.103    21785405.433
        43.500          42.250    21785406.115


 108825090.595 8  84641774.964 8  20379436.824    20379440.863
        51.500          50.750    20379440.741


 120755264.964 8                  22978958.938
        50.000                                    90174425.042 8  22978961.434
        50.750    98015655.124 9  22978957.583          55.250    92526788.422 8
  22978959.290          53.250    91350614.417 9  22978960.132          55.000
 111169937.303 7  86465560.016 7  20811243.001    20811247.562
        46.750          43.250    20811246.753


 111325744.064 8  86586697.430 8  20796582.537    20796586.841
        51.750          49.000    20796586.646


 118806528.317 7                  22264296.953
        42.000


 130136206.888 6                  24764092.027
        38.250                                    97179662.532 6  24764091.947
        39.000   105630046.836 6  24764088.678          40.500    99714771.165 6
  24764089.866          39.750    98447217.411 7  24764090.571          42.250
 132006108.692 5 102861928.99442  25119925.094    25119926.020    25119924.746
        35.000          15.250


 112936473.402 8  87839473.456 7  21156799.415    21156805.352
        50.250          47.500    21156805.021


 129974295.163 6 101278669.172 5  24733287.071    24733287.688    24733287.027
        39.750          34.000    24733288.846


 129757809.545 6                  24692084.354
        38.750                                    96897097.435 6  24692083.798
        38.250   105322917.367 7  24692081.398          42.500    99424839.555 6
  24692081.831          40.750    98160974.446 7  24692082.546          42.500
 126010140.496 6  98007877.271 6  23547999.161    23548004.141
        41.500          36.750    23548004.266


 19  3 26 19 28  0.0000000  0 28R10G08E03G23E05E02G28G09G30G27R08G16
                                G07E24G11E08R19R09E25R16R07R06E12G18
                                R18G05E11R17
 124764616.972 7  97039169.353 5  23405520.680    23405527.911
        44.500          35.500    23405528.224


 111070859.186 8  86548754.760 7  21136072.022    21136072.831    21136071.763
        49.500          46.750    21136073.813    82942561.899 8  21136072.163
        50.500

 129150197.866 7                  24576470.074
        47.500                                    96443370.650 8  24576473.119
        48.000   104829739.663 8  24576469.641          51.750    98959272.611 8
  24576470.918          50.500    97701327.255 8  24576471.777          52.250
 122659326.617 7  95578684.90344  23341296.257    23341293.824    23341295.824
        42.500          27.000


 139552297.381 6                  26555920.649
        40.500                                   104211143.194 6  26555925.057
        41.250   113272961.312 7  26555920.087          44.250   106929684.275 7
  26555923.001          43.000   105570417.865 7  26555923.712          45.250
 134552416.571 7                  25604466.468
        43.750                                   100477483.092 7  25604468.777
        44.750   109214639.595 8  25604466.825          48.000   103098622.794 7
  25604466.456          47.000   101788060.030 8  25604467.392          49.000
 117721276.283 7  91730870.74445  22401608.012    22401606.186    22401607.333
        44.500          31.750


 111421250.591 8  86821762.724 7  21202756.490    21202756.852    21202756.303
        48.750          46.500    21202757.497    83204188.414 8  21202757.649
        50.250

 112655988.893 8  87783905.374 7  21437713.368    21437713.797    21437712.979
        48.250          45.750    21437714.452    84126250.424 8  21437714.267
        50.250

 119522752.994 7  93134637.152 6  22744414.706    22744415.006    22744414.331
        44.500          41.500    22744415.608    89254031.253 7  22744415.434
        45.250

 121027214.931 7  94132301.810 7  22600979.089    22600983.781
        43.750          43.000    22600983.298


                                  25321358.066
        32.750


 107539036.239 8  83796655.520 8  20463990.846    20463988.440    20463990.659
        52.250          48.000    20463988.871


 125659436.184 7                  23912199.653
        43.500                                    93836653.293 7  23912212.815
        43.750   101996274.798 7  23912191.961          47.500    96284559.390 7
  23912210.645          46.250    95060606.369 8  23912211.580          48.250
 125911259.844 6  98112679.84644  23960108.506    23960106.722    23960108.064
        40.750          24.500


 127165613.812 7                  24198810.194
        42.000                                    94961348.458 7  24198811.469
        42.500   103218849.894 7  24198811.615          46.750    97438590.900 7
  24198809.481          45.250    96199969.266 7  24198810.115          46.750
 116430858.432 7  90557309.121 6  21765510.408    21765513.100
        43.250          41.750    21765513.331


 108785996.260 8  84611368.270 8  20372115.655    20372119.750
        51.250          50.500    20372119.525


 120761288.600 8                  22980105.190
        49.500                                    90178923.226 8  22980107.648
        50.500    98020544.450 9  22980103.847          55.000    92531403.942 8
  22980105.579          53.250    91355171.281 9  22980106.394          55.000
 111223696.245 7  86507372.551 7  20821306.808    20821311.453
        46.500          42.500    20821311.192


 111360500.931 8  86613730.525 8  20803075.521    20803079.789
        51.500          48.500    20803079.531


 118927770.222 6                  22287017.913
        41.750


 130129677.945 6                  24762849.603
        37.500                                    97174787.029 6  24762849.619
        39.000   105624747.373 6  24762846.355          40.500    99709768.476 6
  24762847.410          40.000    98442278.327 7  24762848.141          42.500
 131918347.440 5 102793543.71042  25103224.169    25103225.685    25103223.843
        35.750          16.000


 112931995.403 8  87835990.567 7  21155960.408    21155966.409
        49.750          47.250    21155965.975


 129998745.359 6 101297721.216 5  24737940.926    24737940.519    24737940.882
        41.500          33.500    24737940.814


 129686133.087 6                  24678444.363
        38.250                                    96843572.841 6  24678444.179
        38.250   105264738.460 7  24678441.740          42.250    99369918.710 6
  24678442.464          40.750    98106751.736 7  24678442.962          42.500
 126099328.170 7  98077245.391 6  23564667.825    23564671.412
        43.250          36.750    23564671.666


 19  3 26 19 28 30.0000000  0 28R10G08E03G23E05E02G28G09G30G27R08G16
                                G07E24G11E08R19R09E25R16R07R06E12G18
                                R18G05E11R17
 124683121.554 7  96975784.102 6  23390232.137    23390239.681
        44.250          36.250    23390240.441


 111086774.749 8  86561156.493 7  21139100.677    21139101.348    21139100.418
        49.750          47.000    21139102.354    82954446.913 8  21139100.900
        51.250

 129190657.898 7                  24584169.343
        47.750                                    96473584.275 8  24584172.415
        48.000   104862580.571 8  24584168.981          51.750    98990274.415 8
  24584170.136          50.750    97731934.918 8  24584171.081          52.500
 122767901.802 6  95663288.87044  23361957.277    23361954.898    23361956.848
        41.500          26.250


 139643588.914 6                  26573293.134
        40.750                                   104279315.364 7  26573297.552
        42.000   113347061.524 7  26573292.366          44.250   106999634.850 7
  26573295.032          43.000   105639479.182 7  26573295.995          45.500
 134502841.977 7                  25595032.611
        44.000                                   100440463.136 7  25595035.021
        45.000   109174400.507 8  25595033.233          48.500   103060637.098 7
  25595032.622          47.250   101750557.191 8  25595033.639          49.250
 117656100.472 7  91680084.43945  22389205.354    22389203.359    22389204.666
        45.000          31.750


 111497150.591 8  86880905.560 7  21217199.826    21217200.165    21217199.639
        49.000          47.000    21217200.773    83260866.948 8  21217201.027
        50.750

 112594757.292 8  87736192.417 7  21426061.211    21426061.855    21426060.822
        48.500          46.250    21426062.762    84080525.517 8  21426062.296
        50.750

 119598342.762 7  93193538.237 7  22758799.212    22758799.355    22758798.850
        45.000          42.000    22758800.245    89310478.133 7  22758799.734
        46.000

 120956781.194 7  94077520.029 7  22587826.190    22587831.011
        44.000          43.500    22587830.787


 133168603.738 5 103767740.56342  25341143.272    25341142.333    25341142.459
        35.500          16.500


 107524567.840 8  83785381.435 8  20461237.686    20461235.132    20461237.499
        52.750          48.250    20461235.700


 125715760.670 7                  23922917.735
        43.750                                    93878713.778 7  23922931.209
        44.250   102041992.726 7  23922910.045          47.500    96327717.107 7
  23922928.720          46.250    95103215.517 8  23922929.790          48.250
 125819434.644 6  98041127.79944  23942634.598    23942633.145    23942634.142
        41.250          25.000


 127126720.060 7                  24191408.928
        42.500                                    94932304.445 7  24191410.363
        42.750   103187280.305 7  24191410.399          47.000    97408789.199 7
  24191408.094          45.500    96170546.397 7  24191408.900          47.250
 116324859.519 7  90474865.569 7  21745695.012    21745697.556
        43.750          42.000    21745697.632


 108747113.675 8  84581126.265 8  20364834.400    20364838.147
        51.500          50.750    20364838.013


 120767442.633 8                  22981276.321
        49.750                                    90183518.767 8  22981278.709
        50.750    98025539.602 9  22981274.841          55.250    92536119.368 8
  22981276.614          53.500    91359826.641 9  22981277.451          55.250
 111277627.886 7  86549319.343 7  20831402.981    20831407.470
        47.000          43.250    20831406.840


 111396028.849 8  86641363.319 8  20809712.313    20809716.646
        51.500          49.000    20809716.614


 119049235.590 7                  22309781.060
        42.750


 130123576.830 6                  24761688.462
        37.750                                    97170231.007 6  24761688.668
        39.000   105619795.164 6  24761685.650          41.000    99705093.601 6
  24761686.171          40.000    98437662.878 7  24761687.124          42.500
 131830611.618 6 102725178.22542  25086528.744    25086530.005    25086528.436
        37.250          16.000


 112928339.157 8  87833146.820 7  21155275.390    21155281.330
        50.000          47.500    21155281.160


 130023658.891 6 101317134.340 5  24742681.122    24742680.370    24742681.105
        40.750          32.250    24742681.010


 129614657.851 6                  24664843.155
        38.750                                    96790198.520 6  24664842.958
        38.750   105206722.842 7  24664840.311          42.250    99315151.957 6
  24664841.060          41.250    98052681.311 7  24664841.700          43.000
 126189051.655 7  98147030.294 6  23581434.589    23581438.790
        43.250          37.750    23581438.401


 19  3 26 19 29  0.0000000  0 28R10G08E03G23E05E02G28G09G30G27R08G16
                                G07E24G11E08R19R09E25R16R07R06E12G18
                                R18G05E11R17
 124601677.396 7  96912438.719 6  23374953.119    23374960.896
        44.000          37.250    23374960.587


 111103300.027 8  86574033.334 7  21142245.369    21142245.932    21142245.110
        49.250          47.000    21142247.050    82966787.218 8  21142245.574
        51.000

 129231493.571 7                  24591940.125
        47.750                                    96504078.434 8  24591943.242
        48.000   104895726.396 8  24591939.750          51.750    99021564.070 8
  24591940.964          50.250    97762826.826 8  24591941.859          52.250
 122876654.788 6  95748031.38244  23382652.588    23382650.092    23382652.137
        41.000          25.750


 139734947.201 6                  26590677.624
        40.750                                   104347537.384 7  26590682.646
        42.000   113421215.914 7  26590677.428          44.000   107069636.586 7
  26590679.876          42.750   105708591.059 7  26590681.026          45.500
 134453366.682 7                  25585617.666
        44.000                                   100403517.327 7  25585620.125
        45.250   109134242.007 8  25585618.283          48.250   103022727.486 7
  25585617.802          46.750   101713129.480 8  25585618.760          49.000
 117591198.577 7  91629511.58145  22376854.797    22376853.026    22376854.109
        44.500          31.500


 111573478.390 8  86940381.739 7  21231724.493    21231724.869    21231724.301
        48.250          46.500    21231725.378    83317864.945 8  21231725.704
        50.750

 112533711.740 8  87688624.465 7  21414444.738    21414445.292    21414444.349
        48.250          46.000    21414446.124    84034939.564 8  21414445.712
        50.750

 119674386.122 7  93252792.770 6  22773269.898    22773270.095    22773269.527
        44.500          41.750    22773270.640    89367263.726 7  22773270.349
        46.000

 120886992.261 7  94023239.763 7  22574794.014    22574798.199
        44.250          43.000    22574798.226


 133272497.520 6 103848696.70842  25360913.356    25360912.649    25360912.717
        36.000          17.750


 107510396.295 8  83774338.673 8  20458540.901    20458538.303    20458540.714
        52.250          48.000    20458538.822


 125772112.445 7                  23933641.324
        44.250                                    93920794.622 7  23933654.604
        44.250   102087732.776 7  23933633.459          47.750    96370895.708 7
  23933652.205          46.000    95145845.240 8  23933653.186          48.250
 125727725.768 6  97969666.39444  23925182.962    23925181.392    23925182.520
        41.000          24.500


 127088204.991 7                  24184079.860
        42.500                                    94903543.184 7  24184080.897
        42.500   103156018.071 7  24184081.291          47.000    97379277.650 7
  24184078.909          45.000    96141409.991 7  24184079.706          46.750
 116219275.211 7  90392744.484 7  21725956.529    21725959.717
        43.500          42.000    21725959.753


 108708441.389 8  84551047.825 8  20357592.185    20357596.133
        51.500          50.750    20357595.927


 120773725.319 8                  22982471.870
        50.000                                    90188210.380 8  22982474.356
        50.750    98030639.180 9  22982470.430          55.250    92540933.371 8
  22982472.127          53.000    91364579.449 9  22982472.991          55.000
 111331730.522 7  86591399.162 7  20841530.926    20841535.706
        46.750          43.000    20841535.402


 111432324.640 8  86669593.356 8  20816492.774    20816497.035
        51.250          49.250    20816497.066


 119170919.052 7                  22332584.132
        42.500


 130117902.602 6                  24760609.014
        38.000                                    97165993.767 6  24760608.952
        39.250   105615189.461 6  24760605.652          41.000    99700745.822 6
  24760606.512          39.500    98433370.368 7  24760607.332          42.250
 131742902.752 6 102656833.72642  25069839.001    25069839.479    25069838.729
        38.000          15.500


 112925503.845 8  87830941.592 7  21154744.434    21154750.277
        50.000          47.750    21154750.120


 130049032.921 6 101336906.232 5  24747509.407    24747509.066    24747509.376
        40.250          32.750    24747510.439


 129543384.497 6                  24651280.346
        39.000                                    96736974.943 6  24651280.301
        39.000   105148871.100 7  24651277.417          42.250    99260539.938 6
  24651278.103          40.750    97998763.513 7  24651278.770          43.000
 126279305.648 7  98217227.833 6  23598299.789    23598304.928
        44.000          38.500    23598304.517


